[{"country_code":"AR","state_code":"A","province_code":"","name":"POZO CERCADO (EL CHORRO (F), DPTO. RIVADAVIA (S))","cp":["3636"],"lat":"-23.4933","lng":"-61.9267"},{"country_code":"AR","state_code":"A","province_code":"","name":"LAS SALADAS","cp":["4123"],"lat":"-25.7833","lng":"-64.5"},{"country_code":"AR","state_code":"A","province_code":"","name":"EL BRETE","cp":["4126"],"lat":"-26.0667","lng":"-65.3667"},{"country_code":"AR","state_code":"A","province_code":"","name":"TALA","cp":["4126"],"lat":"-26.1167","lng":"-65.2833"},{"country_code":"AR","state_code":"A","province_code":"","name":"BRETE","cp":["4126"],"lat":"-26.0667","lng":"-65.3667"},{"country_code":"AR","state_code":"A","province_code":"","name":"RUIZ DE LOS LLANOS","cp":["4126"],"lat":"-26.1167","lng":"-65.2833"},{"country_code":"AR","state_code":"A","province_code":"","name":"EL JARDIN","cp":["4126"],"lat":"-26.0833","lng":"-65.3833"},{"country_code":"AR","state_code":"A","province_code":"","name":"CEIBAL","cp":["4126"],"lat":"-26.1","lng":"-65.0167"},{"country_code":"AR","state_code":"A","province_code":"","name":"LOS MOGOTES","cp":["4126"],"lat":"-26.0333","lng":"-65.2"},{"country_code":"AR","state_code":"A","province_code":"","name":"CANDELARIA","cp":["4126"],"lat":"-26.1","lng":"-65.1"},{"country_code":"AR","state_code":"A","province_code":"","name":"SALAZAR","cp":["4126"],"lat":"-26.0833","lng":"-65.263"},{"country_code":"AR","state_code":"A","province_code":"","name":"ALEM","cp":["4126"],"lat":"-26.0833","lng":"-65.263"},{"country_code":"AR","state_code":"A","province_code":"","name":"MIRAFLORES (TALA, DPTO. CANDELARIA)","cp":["4126"],"lat":"-26.0833","lng":"-65.263"},{"country_code":"AR","state_code":"A","province_code":"","name":"BARADERO","cp":["4126"],"lat":"-26.0833","lng":"-65.263"},{"country_code":"AR","state_code":"A","province_code":"","name":"EL CUIBAL","cp":["4126"],"lat":"-26.0833","lng":"-65.263"},{"country_code":"AR","state_code":"A","province_code":"","name":"LA ASUNCION","cp":["4126"],"lat":"-26.0833","lng":"-65.263"},{"country_code":"AR","state_code":"A","province_code":"","name":"LA MARAVILLA","cp":["4126"],"lat":"-26.0833","lng":"-65.263"},{"country_code":"AR","state_code":"A","province_code":"","name":"OVEJERO","cp":["4126"],"lat":"-26.0833","lng":"-65.263"},{"country_code":"AR","state_code":"A","province_code":"","name":"SAN PEDRO DE ARANDA","cp":["4126"],"lat":"-26.0833","lng":"-65.263"},{"country_code":"AR","state_code":"A","province_code":"","name":"EL SUNCHAL","cp":["4126"],"lat":"-26.0833","lng":"-65.263"},{"country_code":"AR","state_code":"A","province_code":"","name":"QUISCA GRANDE","cp":["4141"],"lat":"-26.4367","lng":"-65.97"},{"country_code":"AR","state_code":"A","province_code":"","name":"LA CIENEGUITA","cp":["4141"],"lat":"-26.4367","lng":"-65.97"},{"country_code":"AR","state_code":"A","province_code":"","name":"TOLOMBON","cp":["4141"],"lat":"-26.2","lng":"-65.9167"},{"country_code":"AR","state_code":"A","province_code":"","name":"MACHO RASTROJO","cp":["4141"],"lat":"-26.4367","lng":"-65.97"},{"country_code":"AR","state_code":"A","province_code":"","name":"OVANDO","cp":["4190"],"lat":"-25.8","lng":"-65.1"},{"country_code":"AR","state_code":"A","province_code":"","name":"ROSARIO DE LA FRONTERA","cp":["4190"],"lat":"-25.8","lng":"-64.9667"},{"country_code":"AR","state_code":"A","province_code":"","name":"OJO DE AGUA (ROSARIO DE LA FRONTERA, DPTO. R.DE LA FRONTERA)","cp":["4190"],"lat":"-25.8","lng":"-65.0333"},{"country_code":"AR","state_code":"A","province_code":"","name":"LOS POCITOS","cp":["4190"],"lat":"-25.8","lng":"-65.0333"},{"country_code":"AR","state_code":"A","province_code":"","name":"LA BANDA (R. DE LA FRONTERA, DPTO. ROSARIO DE LA FRONTERA)","cp":["4190"],"lat":"-25.8","lng":"-65.0333"},{"country_code":"AR","state_code":"A","province_code":"","name":"EL PORTEZUELO","cp":["4190"],"lat":"-25.8","lng":"-65.0333"},{"country_code":"AR","state_code":"A","province_code":"","name":"DURAZNITO","cp":["4190"],"lat":"-25.8","lng":"-65.0333"},{"country_code":"AR","state_code":"A","province_code":"","name":"COSME","cp":["4190"],"lat":"-25.8","lng":"-65.0333"},{"country_code":"AR","state_code":"A","province_code":"","name":"LA MATILDE","cp":["4190"],"lat":"-25.8","lng":"-65.0333"},{"country_code":"AR","state_code":"A","province_code":"","name":"VILLA AURELIA","cp":["4190"],"lat":"-25.8","lng":"-65.0333"},{"country_code":"AR","state_code":"A","province_code":"","name":"PALOMAR","cp":["4190"],"lat":"-25.8","lng":"-65.0333"},{"country_code":"AR","state_code":"A","province_code":"","name":"BA\u00d1OS TERMALES ROSARIO DE LA FRONTERA","cp":["4190"],"lat":"-25.8","lng":"-65.0333"},{"country_code":"AR","state_code":"A","province_code":"","name":"BARBAYASCO","cp":["4190"],"lat":"-25.8","lng":"-65.0333"},{"country_code":"AR","state_code":"A","province_code":"","name":"CERRO NEGRO (R. DE LA FRONTERA, DPTO ROSARIO DE LA FRONTERA)","cp":["4190"],"lat":"-25.8","lng":"-65.0333"},{"country_code":"AR","state_code":"A","province_code":"","name":"AGUAS CALIENTES","cp":["4190"],"lat":"-25.8","lng":"-65.0333"},{"country_code":"AR","state_code":"A","province_code":"","name":"CONDOR (R. DE LA FRONTERA, DPTO. ROSARIO DE LA FRONTERA)","cp":["4190"],"lat":"-25.8","lng":"-65.0333"},{"country_code":"AR","state_code":"A","province_code":"","name":"VIADUCTO EL MU\u00d1AL","cp":["4190"],"lat":"-25.8","lng":"-65.0333"},{"country_code":"AR","state_code":"A","province_code":"","name":"SANTA TERESA","cp":["4190"],"lat":"-25.8","lng":"-65.0333"},{"country_code":"AR","state_code":"A","province_code":"","name":"SAN ESTEBAN","cp":["4190"],"lat":"-25.8","lng":"-65.0333"},{"country_code":"AR","state_code":"A","province_code":"","name":"ROSARIO (FINCA)","cp":["4190"],"lat":"-25.8","lng":"-65.0333"},{"country_code":"AR","state_code":"A","province_code":"","name":"POTRERILLO (R. DE LA FRONTERA, DPTO. ROSARIO DE LA FRONTERA)","cp":["4190"],"lat":"-25.8","lng":"-65.0333"},{"country_code":"AR","state_code":"A","province_code":"","name":"BAJADA","cp":["4190"],"lat":"-25.8","lng":"-65.0333"},{"country_code":"AR","state_code":"A","province_code":"","name":"LAS PIEDRITAS","cp":["4190"],"lat":"-25.8","lng":"-65.0333"},{"country_code":"AR","state_code":"A","province_code":"","name":"VAQUERIA","cp":["4191"],"lat":"-25.9689","lng":"-64.6583"},{"country_code":"AR","state_code":"A","province_code":"","name":"SAN PEDRO DE LOS CORRALES","cp":["4191"],"lat":"-25.9689","lng":"-64.6583"},{"country_code":"AR","state_code":"A","province_code":"","name":"EL NARANJO (DPTO. ROSARIO DE LA FRONTERA)","cp":["4191"],"lat":"-25.9689","lng":"-64.6583"},{"country_code":"AR","state_code":"A","province_code":"","name":"BUENA VISTA (LAS SALADAS - DPTO. ROSARIO DE LA FRONTERA)","cp":["4193"],"lat":"-25.9121","lng":"-64.7939"},{"country_code":"AR","state_code":"A","province_code":"","name":"LAS TUNILLAS","cp":["4193"],"lat":"-25.9121","lng":"-64.7939"},{"country_code":"AR","state_code":"A","province_code":"","name":"CHA\u00d1AR AGUADA","cp":["4193"],"lat":"-25.9121","lng":"-64.7939"},{"country_code":"AR","state_code":"A","province_code":"","name":"CA\u00d1ADON DE LAS JUNTAS","cp":["4193"],"lat":"-25.9121","lng":"-64.7939"},{"country_code":"AR","state_code":"A","province_code":"","name":"LA CRUZ","cp":["4193"],"lat":"-25.9121","lng":"-64.7939"},{"country_code":"AR","state_code":"A","province_code":"","name":"LA FIRMEZA","cp":["4193"],"lat":"-25.9121","lng":"-64.7939"},{"country_code":"AR","state_code":"A","province_code":"","name":"LA PAJITA","cp":["4193"],"lat":"-25.9121","lng":"-64.7939"},{"country_code":"AR","state_code":"A","province_code":"","name":"LAS CATITAS","cp":["4193"],"lat":"-25.9121","lng":"-64.7939"},{"country_code":"AR","state_code":"A","province_code":"","name":"LAS MERCEDES (SAN LORENZO - DPTO. ROSARIO DE LA FRONTERA)","cp":["4193"],"lat":"-25.9121","lng":"-64.7939"},{"country_code":"AR","state_code":"A","province_code":"","name":"POZO BLANCO","cp":["4193"],"lat":"-25.9121","lng":"-64.7939"},{"country_code":"AR","state_code":"A","province_code":"","name":"RIO URUE\u00d1A (APEADERO FCGB)","cp":["4193"],"lat":"-25.9121","lng":"-64.7939"},{"country_code":"AR","state_code":"A","province_code":"","name":"SAN JUAN (SAN LORENZO - DPTO. ROSARIO DE LA FRONTERA)","cp":["4193"],"lat":"-25.9121","lng":"-64.7939"},{"country_code":"AR","state_code":"A","province_code":"","name":"SAN LORENZO (DPTO. ROSARIO DE LA FRONTERA)","cp":["4193"],"lat":"-25.9121","lng":"-64.7939"},{"country_code":"AR","state_code":"A","province_code":"","name":"SAN LUIS (LAS SALADAS, DPTO. ROSARIO DE LA FRONTERA)","cp":["4193"],"lat":"-25.9121","lng":"-64.7939"},{"country_code":"AR","state_code":"A","province_code":"","name":"SAN PEDRO (PUENTES DE PLATA, DPTO. ROSARIO DE LA FRONTERA)","cp":["4193"],"lat":"-25.9121","lng":"-64.7939"},{"country_code":"AR","state_code":"A","province_code":"","name":"SAN ROQUE","cp":["4193"],"lat":"-25.9121","lng":"-64.7939"},{"country_code":"AR","state_code":"A","province_code":"","name":"SURI MICUNA","cp":["4193"],"lat":"-25.9121","lng":"-64.7939"},{"country_code":"AR","state_code":"A","province_code":"","name":"TALA YACO","cp":["4193"],"lat":"-25.9121","lng":"-64.7939"},{"country_code":"AR","state_code":"A","province_code":"","name":"VIZCACHERAL","cp":["4193"],"lat":"-25.9121","lng":"-64.7939"},{"country_code":"AR","state_code":"A","province_code":"","name":"CABEZA DE ANTA","cp":["4193"],"lat":"-25.9121","lng":"-64.7939"},{"country_code":"AR","state_code":"A","province_code":"","name":"BELLA VISTA (LAS SALADAS - DPTO. ROSARIO DE LA FRONTERA)","cp":["4193"],"lat":"-25.9121","lng":"-64.7939"},{"country_code":"AR","state_code":"A","province_code":"","name":"BAJADA BLANCA","cp":["4193"],"lat":"-25.9121","lng":"-64.7939"},{"country_code":"AR","state_code":"A","province_code":"","name":"SANTA CATALINA","cp":["4193"],"lat":"-25.9121","lng":"-64.7939"},{"country_code":"AR","state_code":"A","province_code":"","name":"EL CONDOR","cp":["4193"],"lat":"-25.9121","lng":"-64.7939"},{"country_code":"AR","state_code":"A","province_code":"","name":"COLGADAS","cp":["4193"],"lat":"-25.9121","lng":"-64.7939"},{"country_code":"AR","state_code":"A","province_code":"","name":"EL CEIBAL","cp":["4193"],"lat":"-25.9121","lng":"-64.7939"},{"country_code":"AR","state_code":"A","province_code":"","name":"EL BORDO (ROSARIO DE LA FRONTERA)","cp":["4193"],"lat":"-25.9121","lng":"-64.7939"},{"country_code":"AR","state_code":"A","province_code":"","name":"CONDOR (LAS SALADAS, DPTO. ROSARIO DE LA FRONTERA)","cp":["4193"],"lat":"-25.9121","lng":"-64.7939"},{"country_code":"AR","state_code":"A","province_code":"","name":"CERRO COLORADO","cp":["4193"],"lat":"-25.9121","lng":"-64.7939"},{"country_code":"AR","state_code":"A","province_code":"","name":"EL POTRERO (COPO QUILE, DPTO. ROSARIO DE LA FRONTERA)","cp":["4193"],"lat":"-25.9121","lng":"-64.7939"},{"country_code":"AR","state_code":"A","province_code":"","name":"CERRO NEGRO (SAN LORENZO, DPTO. ROSARIO DE LA FRONTERA)","cp":["4193"],"lat":"-25.9121","lng":"-64.7939"},{"country_code":"AR","state_code":"A","province_code":"","name":"PUENTE DE PLATA","cp":["4193"],"lat":"-25.95","lng":"-64.7167"},{"country_code":"AR","state_code":"A","province_code":"","name":"TUNAL","cp":["4193"],"lat":"-25.4167","lng":"-65.5833"},{"country_code":"AR","state_code":"A","province_code":"","name":"MORENILLO","cp":["4193"],"lat":"-26.2","lng":"-64.85"},{"country_code":"AR","state_code":"A","province_code":"","name":"COPO QUILE","cp":["4193"],"lat":"-26.0167","lng":"-64.6667"},{"country_code":"AR","state_code":"A","province_code":"","name":"LOS BA\u00d1OS","cp":["4193"],"lat":"-25.8333","lng":"-64.9"},{"country_code":"AR","state_code":"A","province_code":"","name":"RECREO","cp":["4193"],"lat":"-25.8167","lng":"-64.6333"},{"country_code":"AR","state_code":"A","province_code":"","name":"APEADERO COCHABAMBA","cp":["4193"],"lat":"-26.05","lng":"-64.6333"},{"country_code":"AR","state_code":"A","province_code":"","name":"LOS ROSALES","cp":["4193"],"lat":"-25.9121","lng":"-64.7939"},{"country_code":"AR","state_code":"A","province_code":"","name":"LA CIENAGA","cp":["4193"],"lat":"-25.9121","lng":"-64.7939"},{"country_code":"AR","state_code":"A","province_code":"","name":"ANTILLA","cp":["4193"],"lat":"-26.1167","lng":"-64.6"},{"country_code":"AR","state_code":"A","province_code":"","name":"ALMIRANTE BROWN","cp":["4193"],"lat":"-25.9","lng":"-64.7667"},{"country_code":"AR","state_code":"A","province_code":"","name":"BALBOA","cp":["4193"],"lat":"-25.8667","lng":"-64.8"},{"country_code":"AR","state_code":"A","province_code":"","name":"VILLA CORTA","cp":["4193"],"lat":"-25.8667","lng":"-64.5833"},{"country_code":"AR","state_code":"A","province_code":"","name":"LA HOYADA","cp":["4198"],"lat":"-25.85","lng":"-65.1833"},{"country_code":"AR","state_code":"A","province_code":"","name":"HORCONES","cp":["4198"],"lat":"-25.7167","lng":"-64.9"},{"country_code":"AR","state_code":"A","province_code":"","name":"LAS VENTANAS","cp":["4198"],"lat":"-25.7833","lng":"-65.0417"},{"country_code":"AR","state_code":"A","province_code":"","name":"EL OJITO","cp":["4198"],"lat":"-25.7833","lng":"-65.0417"},{"country_code":"AR","state_code":"A","province_code":"","name":"EL PUESTITO","cp":["4198"],"lat":"-25.7833","lng":"-65.0417"},{"country_code":"AR","state_code":"A","province_code":"","name":"EL CORRAL VIEJO","cp":["4198"],"lat":"-25.7833","lng":"-65.0417"},{"country_code":"AR","state_code":"A","province_code":"","name":"TAMAS CORTADAS","cp":["4198"],"lat":"-25.7833","lng":"-65.0417"},{"country_code":"AR","state_code":"A","province_code":"","name":"DIAMANTE (HORCONES, DPTO. ROSARIO DE LA FRONTERA)","cp":["4198"],"lat":"-25.7833","lng":"-65.0417"},{"country_code":"AR","state_code":"A","province_code":"","name":"CAMARA (ARENAL, DPTO. ROSARIO DE LA FRONTERA)","cp":["4198"],"lat":"-25.7833","lng":"-65.0417"},{"country_code":"AR","state_code":"A","province_code":"","name":"BAJADA GRANDE","cp":["4198"],"lat":"-25.7833","lng":"-65.0417"},{"country_code":"AR","state_code":"A","province_code":"","name":"BAJADA DE GAVI","cp":["4198"],"lat":"-25.7833","lng":"-65.0417"},{"country_code":"AR","state_code":"A","province_code":"","name":"ARENAL (DPTO. ROSARIO DE LA FRONTERA)","cp":["4198"],"lat":"-25.7833","lng":"-65.0417"},{"country_code":"AR","state_code":"A","province_code":"","name":"SANTA ROSA (HORCONES - DPTO. ROSARIO DE LA FRONTERA)","cp":["4198"],"lat":"-25.7833","lng":"-65.0417"},{"country_code":"AR","state_code":"A","province_code":"","name":"SAN LORENZO (HORCONES, DPTO. ROSARIO DE LA FRONTERA)","cp":["4198"],"lat":"-25.7833","lng":"-65.0417"},{"country_code":"AR","state_code":"A","province_code":"","name":"SAN FELIPE (HORCONES - DPTO. ROSARIO DE LA FRONTERA)","cp":["4198"],"lat":"-25.7833","lng":"-65.0417"},{"country_code":"AR","state_code":"A","province_code":"","name":"POZO VERDE (HORCONES, DPTO. ROSARIO DE LA FRONTERA)","cp":["4198"],"lat":"-25.7833","lng":"-65.0417"},{"country_code":"AR","state_code":"A","province_code":"","name":"PASO VERDE","cp":["4198"],"lat":"-25.7833","lng":"-65.0417"},{"country_code":"AR","state_code":"A","province_code":"","name":"OVEJERIA (HORCONES, DPTO. ROSARIO DE LA FRONTERA)","cp":["4198"],"lat":"-25.7833","lng":"-65.0417"},{"country_code":"AR","state_code":"A","province_code":"","name":"LOS ZANJONES","cp":["4198"],"lat":"-25.7833","lng":"-65.0417"},{"country_code":"AR","state_code":"A","province_code":"","name":"LOS CHURQUIS (ARENAL, DPTO. ROSARIO DE LA FRONTERA)","cp":["4198"],"lat":"-25.7833","lng":"-65.0417"},{"country_code":"AR","state_code":"A","province_code":"","name":"EL TANDIL","cp":["4198"],"lat":"-25.7833","lng":"-65.0417"},{"country_code":"AR","state_code":"A","province_code":"","name":"EL QUEMADO (BAJADA DE GAVI, DPTO. ROSARIO DE LA FRONTERA)","cp":["4198"],"lat":"-25.7833","lng":"-65.0417"},{"country_code":"AR","state_code":"A","province_code":"","name":"LA PLATA","cp":["4198"],"lat":"-25.7833","lng":"-65.0417"},{"country_code":"AR","state_code":"A","province_code":"","name":"FEDERACION","cp":["4198"],"lat":"-25.7833","lng":"-65.0417"},{"country_code":"AR","state_code":"A","province_code":"","name":"LA PALATA","cp":["4198"],"lat":"-25.7833","lng":"-65.0417"},{"country_code":"AR","state_code":"A","province_code":"","name":"LAS MOJARRAS","cp":["4198"],"lat":"-25.7833","lng":"-65.0417"},{"country_code":"AR","state_code":"A","province_code":"","name":"BARRIO VILLA SAN ANTONIO","cp":["4400"],"lat":"-24.8056","lng":"-65.3417"},{"country_code":"AR","state_code":"A","province_code":"","name":"LOS NOQUES","cp":["4400"],"lat":"-24.8056","lng":"-65.3417"},{"country_code":"AR","state_code":"A","province_code":"","name":"LA TROJA","cp":["4400"],"lat":"-24.8056","lng":"-65.3417"},{"country_code":"AR","state_code":"A","province_code":"","name":"KILOMETRO 1129","cp":["4400"],"lat":"-24.8056","lng":"-65.3417"},{"country_code":"AR","state_code":"A","province_code":"","name":"ESTELA","cp":["4400"],"lat":"-24.8056","lng":"-65.3417"},{"country_code":"AR","state_code":"A","province_code":"","name":"CHAMICAL","cp":["4400"],"lat":"-24.8056","lng":"-65.3417"},{"country_code":"AR","state_code":"A","province_code":"","name":"BELGRANO (SALTA - DPTO. CAPITAL)","cp":["4400"],"lat":"-24.8056","lng":"-65.3417"},{"country_code":"AR","state_code":"A","province_code":"","name":"BARRIO TRES CERRITOS","cp":["4400"],"lat":"-24.8056","lng":"-65.3417"},{"country_code":"AR","state_code":"A","province_code":"","name":"BARRIO SAN REMO","cp":["4400"],"lat":"-24.8056","lng":"-65.3417"},{"country_code":"AR","state_code":"A","province_code":"","name":"BARRIO SAN CAYETANO","cp":["4400"],"lat":"-24.8056","lng":"-65.3417"},{"country_code":"AR","state_code":"A","province_code":"","name":"BARRIO PARQUE TRES CERRITOS","cp":["4400"],"lat":"-24.8056","lng":"-65.3417"},{"country_code":"AR","state_code":"A","province_code":"","name":"BARRIO OBRERO","cp":["4400"],"lat":"-24.8056","lng":"-65.3417"},{"country_code":"AR","state_code":"A","province_code":"","name":"BARRIO LIBERTADOR","cp":["4400"],"lat":"-24.8056","lng":"-65.3417"},{"country_code":"AR","state_code":"A","province_code":"","name":"BARRIO LAS ROSAS","cp":["4400"],"lat":"-24.8056","lng":"-65.3417"},{"country_code":"AR","state_code":"A","province_code":"","name":"BARRIO LA LOMA","cp":["4400"],"lat":"-24.8056","lng":"-65.3417"},{"country_code":"AR","state_code":"A","province_code":"","name":"BARRIO FINCA INDEPENDENCIA","cp":["4400"],"lat":"-24.8056","lng":"-65.3417"},{"country_code":"AR","state_code":"A","province_code":"","name":"BARRIO EL CARMEN","cp":["4400"],"lat":"-24.8056","lng":"-65.3417"},{"country_code":"AR","state_code":"A","province_code":"","name":"BARRIO CASTA\u00d1ARES","cp":["4400"],"lat":"-24.8056","lng":"-65.3417"},{"country_code":"AR","state_code":"A","province_code":"","name":"BARRIO 20 DE JUNIO","cp":["4400"],"lat":"-24.8056","lng":"-65.3417"},{"country_code":"AR","state_code":"A","province_code":"","name":"CAMPO CASEROS","cp":["4400"],"lat":"-24.8056","lng":"-65.3417"},{"country_code":"AR","state_code":"A","province_code":"","name":"LA ISLA","cp":["4400"],"lat":"-24.8833","lng":"-65.3833"},{"country_code":"AR","state_code":"A","province_code":"","name":"LA LAGUNILLA","cp":["4400"],"lat":"-24.7333","lng":"-65.2833"},{"country_code":"AR","state_code":"A","province_code":"","name":"CHACHAPOYAS","cp":["4400"],"lat":"-24.75","lng":"-65.3833"},{"country_code":"AR","state_code":"A","province_code":"","name":"HIGUERILLAS","cp":["4400"],"lat":"-24.8","lng":"-65.2833"},{"country_code":"AR","state_code":"A","province_code":"","name":"SALTA","cp":["4400"],"lat":"-24.7833","lng":"-65.4167"},{"country_code":"AR","state_code":"A","province_code":"","name":"BARRIO MITRE","cp":["4400"],"lat":"-24.8056","lng":"-65.3417"},{"country_code":"AR","state_code":"A","province_code":"","name":"LA QUESERA","cp":["4400"],"lat":"-24.8833","lng":"-65.3"},{"country_code":"AR","state_code":"A","province_code":"","name":"LAS COSTAS","cp":["4401"],"lat":"-24.75","lng":"-65.4667"},{"country_code":"AR","state_code":"A","province_code":"","name":"CALDERILLA","cp":["4401"],"lat":"-24.65","lng":"-65.3667"},{"country_code":"AR","state_code":"A","province_code":"","name":"VAQUEROS","cp":["4401"],"lat":"-24.7167","lng":"-65.4167"},{"country_code":"AR","state_code":"A","province_code":"","name":"SANTA RUFINA","cp":["4401"],"lat":"-24.5167","lng":"-65.4167"},{"country_code":"AR","state_code":"A","province_code":"","name":"GENERAL ALVARADO","cp":["4401"],"lat":"-24.85","lng":"-65.4667"},{"country_code":"AR","state_code":"A","province_code":"","name":"CALDERA","cp":["4401"],"lat":"-24.6","lng":"-65.3833"},{"country_code":"AR","state_code":"A","province_code":"","name":"SAN ALEJO","cp":["4401"],"lat":"-24.6806","lng":"-65.4194"},{"country_code":"AR","state_code":"A","province_code":"","name":"YACONES","cp":["4401"],"lat":"-24.6806","lng":"-65.4194"},{"country_code":"AR","state_code":"A","province_code":"","name":"VILLA SAN LORENZO","cp":["4401"],"lat":"-24.6806","lng":"-65.4194"},{"country_code":"AR","state_code":"A","province_code":"","name":"VELARDES","cp":["4401"],"lat":"-24.6806","lng":"-65.4194"},{"country_code":"AR","state_code":"A","province_code":"","name":"POTRERO DE CASTILLO","cp":["4401"],"lat":"-24.6806","lng":"-65.4194"},{"country_code":"AR","state_code":"A","province_code":"","name":"PE\u00d1ALVA","cp":["4401"],"lat":"-24.6806","lng":"-65.4194"},{"country_code":"AR","state_code":"A","province_code":"","name":"MAYO TORITO","cp":["4401"],"lat":"-24.6806","lng":"-65.4194"},{"country_code":"AR","state_code":"A","province_code":"","name":"LOS SAUCES (CALDERA, DPTO. CALDERA)","cp":["4401"],"lat":"-24.6806","lng":"-65.4194"},{"country_code":"AR","state_code":"A","province_code":"","name":"MONTE","cp":["4401"],"lat":"-24.6806","lng":"-65.4194"},{"country_code":"AR","state_code":"A","province_code":"","name":"PAREDES","cp":["4401"],"lat":"-24.6806","lng":"-65.4194"},{"country_code":"AR","state_code":"A","province_code":"","name":"ANTONIO ALICE","cp":["4401"],"lat":"-24.6806","lng":"-65.4194"},{"country_code":"AR","state_code":"A","province_code":"","name":"ATOCHA","cp":["4401"],"lat":"-24.6806","lng":"-65.4194"},{"country_code":"AR","state_code":"A","province_code":"","name":"CASTELLANOS","cp":["4401"],"lat":"-24.6806","lng":"-65.4194"},{"country_code":"AR","state_code":"A","province_code":"","name":"CURUZU","cp":["4401"],"lat":"-24.6806","lng":"-65.4194"},{"country_code":"AR","state_code":"A","province_code":"","name":"KILOMETRO 1125 (EMBARCADERO FCGB)","cp":["4401"],"lat":"-24.6806","lng":"-65.4194"},{"country_code":"AR","state_code":"A","province_code":"","name":"LA UNION (GRAL. ALVARADO, DPTO. CAPITAL)","cp":["4401"],"lat":"-24.6806","lng":"-65.4194"},{"country_code":"AR","state_code":"A","province_code":"","name":"LESSER","cp":["4401"],"lat":"-24.6806","lng":"-65.4194"},{"country_code":"AR","state_code":"A","province_code":"","name":"LOS MERCADOS","cp":["4401"],"lat":"-24.6806","lng":"-65.4194"},{"country_code":"AR","state_code":"A","province_code":"","name":"LOS ALAMOS","cp":["4401"],"lat":"-24.6806","lng":"-65.4194"},{"country_code":"AR","state_code":"A","province_code":"","name":"SANTA ELENA (CERRILLOS, DPTO. CERRILLOS)","cp":["4403"],"lat":"-25.5","lng":"-65.2917"},{"country_code":"AR","state_code":"A","province_code":"","name":"RODEOS","cp":["4403"],"lat":"-25.5","lng":"-65.2917"},{"country_code":"AR","state_code":"A","province_code":"","name":"LA FALDA (CERRILLOS - DPTO. CERRILLOS)","cp":["4403"],"lat":"-25.5","lng":"-65.2917"},{"country_code":"AR","state_code":"A","province_code":"","name":"LA FAMA","cp":["4403"],"lat":"-25.5","lng":"-65.2917"},{"country_code":"AR","state_code":"A","province_code":"","name":"OLMOS","cp":["4403"],"lat":"-25.5","lng":"-65.2917"},{"country_code":"AR","state_code":"A","province_code":"","name":"PIEDEMONTE","cp":["4403"],"lat":"-25.5","lng":"-65.2917"},{"country_code":"AR","state_code":"A","province_code":"","name":"RIO ANCHO (APEADERO FCGB)","cp":["4403"],"lat":"-25.5","lng":"-65.2917"},{"country_code":"AR","state_code":"A","province_code":"","name":"VILLA LOS TARCOS","cp":["4403"],"lat":"-25.5","lng":"-65.2917"},{"country_code":"AR","state_code":"A","province_code":"","name":"SAN CLEMENTE","cp":["4403"],"lat":"-25.5","lng":"-65.2917"},{"country_code":"AR","state_code":"A","province_code":"","name":"EL COLEGIO","cp":["4403"],"lat":"-25.5","lng":"-65.2917"},{"country_code":"AR","state_code":"A","province_code":"","name":"ISLA DE LA CANDELARIA","cp":["4403"],"lat":"-25.5","lng":"-65.2917"},{"country_code":"AR","state_code":"A","province_code":"","name":"KILOMETRO 1156 (APEADERO FCGB)","cp":["4403"],"lat":"-25.5","lng":"-65.2917"},{"country_code":"AR","state_code":"A","province_code":"","name":"CEBADOS","cp":["4403"],"lat":"-25.5","lng":"-65.2917"},{"country_code":"AR","state_code":"A","province_code":"","name":"COLON","cp":["4403"],"lat":"-25.5","lng":"-65.2917"},{"country_code":"AR","state_code":"A","province_code":"","name":"SAN MIGUEL","cp":["4403"],"lat":"-25.5","lng":"-65.2917"},{"country_code":"AR","state_code":"A","province_code":"","name":"LA CANDELARIA","cp":["4403"],"lat":"-26.1","lng":"-65.1"},{"country_code":"AR","state_code":"A","province_code":"","name":"ZANJON","cp":["4403"],"lat":"-25.5","lng":"-65.2917"},{"country_code":"AR","state_code":"A","province_code":"","name":"CERRILLOS","cp":["4403"],"lat":"-24.9","lng":"-65.4833"},{"country_code":"AR","state_code":"A","province_code":"","name":"ROSARIO DE LERMA","cp":["4405"],"lat":"-24.9833","lng":"-65.5833"},{"country_code":"AR","state_code":"A","province_code":"","name":"EL MOLLAR","cp":["4405"],"lat":"-25.0333","lng":"-65.5667"},{"country_code":"AR","state_code":"A","province_code":"","name":"EL PORVENIR","cp":["4405"],"lat":"-25.3833","lng":"-64.6667"},{"country_code":"AR","state_code":"A","province_code":"","name":"EL MANZANO","cp":["4405"],"lat":"-24.9333","lng":"-65.8"},{"country_code":"AR","state_code":"A","province_code":"","name":"EL TIMBO","cp":["4405"],"lat":"-25.0833","lng":"-65.4042"},{"country_code":"AR","state_code":"A","province_code":"","name":"BALLENAL","cp":["4405"],"lat":"-25.0833","lng":"-65.4042"},{"country_code":"AR","state_code":"A","province_code":"","name":"CAMARA (ROSARIO DE LERMA, DPTO. ROSARIO DE LERMA)","cp":["4405"],"lat":"-25.0833","lng":"-65.4042"},{"country_code":"AR","state_code":"A","province_code":"","name":"EL DORADO","cp":["4405"],"lat":"-25.0833","lng":"-65.4042"},{"country_code":"AR","state_code":"A","province_code":"","name":"EL PUCARA (APEADERO FCGB)","cp":["4405"],"lat":"-25.0833","lng":"-65.4042"},{"country_code":"AR","state_code":"A","province_code":"","name":"LAS ROSAS","cp":["4405"],"lat":"-25.0833","lng":"-65.4042"},{"country_code":"AR","state_code":"A","province_code":"","name":"KILOMETRO 1172","cp":["4407"],"lat":"-24.875","lng":"-65.5917"},{"country_code":"AR","state_code":"A","province_code":"","name":"LAS ARCAS","cp":["4407"],"lat":"-24.875","lng":"-65.5917"},{"country_code":"AR","state_code":"A","province_code":"","name":"POTRERO DE LINARES","cp":["4407"],"lat":"-24.875","lng":"-65.5917"},{"country_code":"AR","state_code":"A","province_code":"","name":"POTRERO DE URIBURU","cp":["4407"],"lat":"-24.875","lng":"-65.5917"},{"country_code":"AR","state_code":"A","province_code":"","name":"VIRREY TOLEDO (APEADERO FCGB)","cp":["4407"],"lat":"-24.875","lng":"-65.5917"},{"country_code":"AR","state_code":"A","province_code":"","name":"EL TUNAL (CAMPO QUIJANO, DPTO. ROSARIO DE LERMA)","cp":["4407"],"lat":"-24.875","lng":"-65.5917"},{"country_code":"AR","state_code":"A","province_code":"","name":"LA SILLETA","cp":["4407"],"lat":"-24.8667","lng":"-65.5833"},{"country_code":"AR","state_code":"A","province_code":"","name":"CAMPO QUIJANO","cp":["4407"],"lat":"-24.9167","lng":"-65.65"},{"country_code":"AR","state_code":"A","province_code":"","name":"SILLETA","cp":["4407"],"lat":"-24.8667","lng":"-65.5833"},{"country_code":"AR","state_code":"A","province_code":"","name":"EL ENCON","cp":["4407"],"lat":"-24.85","lng":"-65.55"},{"country_code":"AR","state_code":"A","province_code":"","name":"EL ALISAL","cp":["4409"],"lat":"-24.85","lng":"-65.6833"},{"country_code":"AR","state_code":"A","province_code":"","name":"VILLA SOLA","cp":["4409"],"lat":"-24.5485","lng":"-65.8803"},{"country_code":"AR","state_code":"A","province_code":"","name":"LAS CAPILLAS","cp":["4409"],"lat":"-24.6167","lng":"-66.0333"},{"country_code":"AR","state_code":"A","province_code":"","name":"LAS CUEVAS","cp":["4409"],"lat":"-24.3333","lng":"-66.05"},{"country_code":"AR","state_code":"A","province_code":"","name":"LAS CEBADAS","cp":["4409"],"lat":"-24.5667","lng":"-65.8333"},{"country_code":"AR","state_code":"A","province_code":"","name":"SANTA ROSA DE TASTIL","cp":["4409"],"lat":"-24.4333","lng":"-65.95"},{"country_code":"AR","state_code":"A","province_code":"","name":"CHORRILLOS","cp":["4409"],"lat":"-24.75","lng":"-65.75"},{"country_code":"AR","state_code":"A","province_code":"","name":"PUERTA DE TASTIL","cp":["4409"],"lat":"-24.5","lng":"-65.8667"},{"country_code":"AR","state_code":"A","province_code":"","name":"PUERTA TASTIL","cp":["4409"],"lat":"-24.5","lng":"-65.8667"},{"country_code":"AR","state_code":"A","province_code":"","name":"INGENIERO MAURY","cp":["4409"],"lat":"-24.6667","lng":"-65.75"},{"country_code":"AR","state_code":"A","province_code":"","name":"CACHI\u00d1AL","cp":["4409"],"lat":"-24.25","lng":"-66.0667"},{"country_code":"AR","state_code":"A","province_code":"","name":"GOBERNADOR MANUEL SOLA","cp":["4409"],"lat":"-24.5667","lng":"-65.8333"},{"country_code":"AR","state_code":"A","province_code":"","name":"ENCRUCIJADA DE TASTIL","cp":["4409"],"lat":"-24.5485","lng":"-65.8803"},{"country_code":"AR","state_code":"A","province_code":"","name":"ENCRUCIJADA","cp":["4409"],"lat":"-24.5485","lng":"-65.8803"},{"country_code":"AR","state_code":"A","province_code":"","name":"EL TORO","cp":["4409"],"lat":"-24.5485","lng":"-65.8803"},{"country_code":"AR","state_code":"A","province_code":"","name":"EL GOLGOTA","cp":["4409"],"lat":"-24.5485","lng":"-65.8803"},{"country_code":"AR","state_code":"A","province_code":"","name":"EL ALFREDITO","cp":["4409"],"lat":"-24.5485","lng":"-65.8803"},{"country_code":"AR","state_code":"A","province_code":"","name":"DIEGO DE ALMAGRO","cp":["4409"],"lat":"-24.5485","lng":"-65.8803"},{"country_code":"AR","state_code":"A","province_code":"","name":"DAMIAN M. TORINO","cp":["4409"],"lat":"-24.5485","lng":"-65.8803"},{"country_code":"AR","state_code":"A","province_code":"","name":"CHORRILLITOS","cp":["4409"],"lat":"-24.5485","lng":"-65.8803"},{"country_code":"AR","state_code":"A","province_code":"","name":"MESETA (APEADERO FCGB)","cp":["4409"],"lat":"-24.5485","lng":"-65.8803"},{"country_code":"AR","state_code":"A","province_code":"","name":"CERRO BAYO","cp":["4409"],"lat":"-24.5485","lng":"-65.8803"},{"country_code":"AR","state_code":"A","province_code":"","name":"TORO","cp":["4409"],"lat":"-24.5485","lng":"-65.8803"},{"country_code":"AR","state_code":"A","province_code":"","name":"TACUARA (APEADERO FCGB)","cp":["4409"],"lat":"-24.5485","lng":"-65.8803"},{"country_code":"AR","state_code":"A","province_code":"","name":"SAN BERNARDO DE LAS ZORRAS","cp":["4409"],"lat":"-24.5485","lng":"-65.8803"},{"country_code":"AR","state_code":"A","province_code":"","name":"QUEBRADA MU\u00d1ANO","cp":["4409"],"lat":"-24.5485","lng":"-65.8803"},{"country_code":"AR","state_code":"A","province_code":"","name":"TRES CRUCES (DIEGO DE ALMAGRO, DPTO. ROSARIO DE LERMA)","cp":["4409"],"lat":"-24.5485","lng":"-65.8803"},{"country_code":"AR","state_code":"A","province_code":"","name":"LAS ZORRAS DE SAN BERNARDO","cp":["4409"],"lat":"-24.5485","lng":"-65.8803"},{"country_code":"AR","state_code":"A","province_code":"","name":"MINA CAROLINA","cp":["4409"],"lat":"-24.5485","lng":"-65.8803"},{"country_code":"AR","state_code":"A","province_code":"","name":"LAS ZORRAS","cp":["4409"],"lat":"-24.5485","lng":"-65.8803"},{"country_code":"AR","state_code":"A","province_code":"","name":"INCAMAYO","cp":["4409"],"lat":"-24.5485","lng":"-65.8803"},{"country_code":"AR","state_code":"A","province_code":"","name":"INCAHUASI (APEADERO FCGB)","cp":["4409"],"lat":"-24.5485","lng":"-65.8803"},{"country_code":"AR","state_code":"A","province_code":"","name":"HUAICONDO","cp":["4409"],"lat":"-24.5485","lng":"-65.8803"},{"country_code":"AR","state_code":"A","province_code":"","name":"GOBERNADOR SARAVIA","cp":["4409"],"lat":"-24.5485","lng":"-65.8803"},{"country_code":"AR","state_code":"A","province_code":"","name":"JUNCAL","cp":["4411"],"lat":"-24.1367","lng":"-66.51"},{"country_code":"AR","state_code":"A","province_code":"","name":"MU\u00d1ANO (KILOMETRO 1308, APEADERO FCGB)","cp":["4411"],"lat":"-24.1367","lng":"-66.51"},{"country_code":"AR","state_code":"A","province_code":"","name":"MORRO COLORADO","cp":["4411"],"lat":"-24.1367","lng":"-66.51"},{"country_code":"AR","state_code":"A","province_code":"","name":"NACIMIENTOS","cp":["4411"],"lat":"-24.1367","lng":"-66.51"},{"country_code":"AR","state_code":"A","province_code":"","name":"LOS PATOS (APEADERO FCGB)","cp":["4411"],"lat":"-24.1367","lng":"-66.51"},{"country_code":"AR","state_code":"A","province_code":"","name":"CORTADERAS","cp":["4411"],"lat":"-24.1367","lng":"-66.51"},{"country_code":"AR","state_code":"A","province_code":"","name":"ACAZOQUE","cp":["4411"],"lat":"-24.1367","lng":"-66.51"},{"country_code":"AR","state_code":"A","province_code":"","name":"ABRA DEL GALLO","cp":["4411"],"lat":"-24.1367","lng":"-66.51"},{"country_code":"AR","state_code":"A","province_code":"","name":"UNCURU","cp":["4411"],"lat":"-24.1367","lng":"-66.51"},{"country_code":"AR","state_code":"A","province_code":"","name":"PIZCUNO","cp":["4411"],"lat":"-24.1367","lng":"-66.51"},{"country_code":"AR","state_code":"A","province_code":"","name":"PIRCAS","cp":["4411"],"lat":"-24.1367","lng":"-66.51"},{"country_code":"AR","state_code":"A","province_code":"","name":"COBRES","cp":["4411"],"lat":"-23.6833","lng":"-66.2333"},{"country_code":"AR","state_code":"A","province_code":"","name":"SANTA ROSA DE LOS PASTOS GRANDES","cp":["4411"],"lat":"-24.45","lng":"-66.7"},{"country_code":"AR","state_code":"A","province_code":"","name":"SAN ANTONIO DE LOS COBRES","cp":["4411"],"lat":"-24.1833","lng":"-66.35"},{"country_code":"AR","state_code":"A","province_code":"","name":"PASTOS GRANDES","cp":["4411"],"lat":"-24.45","lng":"-66.7"},{"country_code":"AR","state_code":"A","province_code":"","name":"SALAR DE POCITOS","cp":["4413"],"lat":"-24.3333","lng":"-67.0167"},{"country_code":"AR","state_code":"A","province_code":"","name":"TOLAR GRANDE","cp":["4413"],"lat":"-24.6","lng":"-67.45"},{"country_code":"AR","state_code":"A","province_code":"","name":"LA CASUALIDAD","cp":["4413"],"lat":"-25.0667","lng":"-68.2333"},{"country_code":"AR","state_code":"A","province_code":"","name":"CAIPE","cp":["4413"],"lat":"-24.4667","lng":"-67.4292"},{"country_code":"AR","state_code":"A","province_code":"","name":"VEGA DE ARIZARO (ESTACION FCGB)","cp":["4413"],"lat":"-24.4667","lng":"-67.4292"},{"country_code":"AR","state_code":"A","province_code":"","name":"UNQUILLAL (EMBARCADERO FCGB)","cp":["4413"],"lat":"-24.4667","lng":"-67.4292"},{"country_code":"AR","state_code":"A","province_code":"","name":"QUEBRADA DEL AGUA (ESTACION FCGB)","cp":["4413"],"lat":"-24.4667","lng":"-67.4292"},{"country_code":"AR","state_code":"A","province_code":"","name":"SOCOMPA","cp":["4413"],"lat":"-24.4667","lng":"-67.4292"},{"country_code":"AR","state_code":"A","province_code":"","name":"LAGUNA SECA","cp":["4413"],"lat":"-24.4667","lng":"-67.4292"},{"country_code":"AR","state_code":"A","province_code":"","name":"OLACAPATO","cp":["4413"],"lat":"-24.4667","lng":"-67.4292"},{"country_code":"AR","state_code":"A","province_code":"","name":"KILOMETRO 1424 (DESVIO FCGB)","cp":["4413"],"lat":"-24.4667","lng":"-67.4292"},{"country_code":"AR","state_code":"A","province_code":"","name":"KILOMETRO 1373 (APEADERO FCGB)","cp":["4413"],"lat":"-24.4667","lng":"-67.4292"},{"country_code":"AR","state_code":"A","province_code":"","name":"KILOMETRO 1369 (APEADERO FCGB)","cp":["4413"],"lat":"-24.4667","lng":"-67.4292"},{"country_code":"AR","state_code":"A","province_code":"","name":"CHUCULAQUI","cp":["4413"],"lat":"-24.4667","lng":"-67.4292"},{"country_code":"AR","state_code":"A","province_code":"","name":"MINA SAN ESTEBAN","cp":["4415"],"lat":"-24.9881","lng":"-66.0048"},{"country_code":"AR","state_code":"A","province_code":"","name":"BARRIO VILLA SAN JOSE","cp":["4415"],"lat":"-24.9881","lng":"-66.0048"},{"country_code":"AR","state_code":"A","province_code":"","name":"SALADILLO (LA POMA, DPTO. LA POMA)","cp":["4415"],"lat":"-24.9881","lng":"-66.0048"},{"country_code":"AR","state_code":"A","province_code":"","name":"SAN MARTIN LA CUESTA","cp":["4415"],"lat":"-24.9881","lng":"-66.0048"},{"country_code":"AR","state_code":"A","province_code":"","name":"PUEBLO VIEJO (LA POMA, DPTO. LA POMA)","cp":["4415"],"lat":"-24.9881","lng":"-66.0048"},{"country_code":"AR","state_code":"A","province_code":"","name":"POTRERO (PAYOGASTA, DPTO. CACHI)","cp":["4415"],"lat":"-24.9881","lng":"-66.0048"},{"country_code":"AR","state_code":"A","province_code":"","name":"TRIGAL","cp":["4415"],"lat":"-24.9881","lng":"-66.0048"},{"country_code":"AR","state_code":"A","province_code":"","name":"EL POTRERO (DPTO. CACHI)","cp":["4415"],"lat":"-24.9881","lng":"-66.0048"},{"country_code":"AR","state_code":"A","province_code":"","name":"MINAS VICTORIA","cp":["4415"],"lat":"-24.9881","lng":"-66.0048"},{"country_code":"AR","state_code":"A","province_code":"","name":"MAL PASO","cp":["4415"],"lat":"-24.9881","lng":"-66.0048"},{"country_code":"AR","state_code":"A","province_code":"","name":"BARRIO NEGRO (MINAS)","cp":["4415"],"lat":"-24.9881","lng":"-66.0048"},{"country_code":"AR","state_code":"A","province_code":"","name":"MINAS SAN WALTERIO","cp":["4415"],"lat":"-24.9881","lng":"-66.0048"},{"country_code":"AR","state_code":"A","province_code":"","name":"LOMA DEL BURRO","cp":["4415"],"lat":"-24.9881","lng":"-66.0048"},{"country_code":"AR","state_code":"A","province_code":"","name":"EL MARAY","cp":["4415"],"lat":"-24.9881","lng":"-66.0048"},{"country_code":"AR","state_code":"A","province_code":"","name":"VILLITAS","cp":["4415"],"lat":"-24.9881","lng":"-66.0048"},{"country_code":"AR","state_code":"A","province_code":"","name":"EL RODEO","cp":["4415"],"lat":"-24.9881","lng":"-66.0048"},{"country_code":"AR","state_code":"A","province_code":"","name":"LA ESPERANZA","cp":["4415"],"lat":"-24.9881","lng":"-66.0048"},{"country_code":"AR","state_code":"A","province_code":"","name":"AGUA NEGRA","cp":["4415"],"lat":"-24.9881","lng":"-66.0048"},{"country_code":"AR","state_code":"A","province_code":"","name":"EL CANDADO","cp":["4415"],"lat":"-24.9881","lng":"-66.0048"},{"country_code":"AR","state_code":"A","province_code":"","name":"YACERA","cp":["4415"],"lat":"-24.9881","lng":"-66.0048"},{"country_code":"AR","state_code":"A","province_code":"","name":"MINA SAN GUILLERMO","cp":["4415"],"lat":"-24.9881","lng":"-66.0048"},{"country_code":"AR","state_code":"A","province_code":"","name":"LAS ZANJAS","cp":["4415"],"lat":"-25.1","lng":"-65.7667"},{"country_code":"AR","state_code":"A","province_code":"","name":"PUNTA DE AGUA","cp":["4415"],"lat":"-24.9","lng":"-66.05"},{"country_code":"AR","state_code":"A","province_code":"","name":"QUEBRADA DE ESCOIPE","cp":["4415"],"lat":"-25.1667","lng":"-65.7667"},{"country_code":"AR","state_code":"A","province_code":"","name":"PAYOGASTA","cp":["4415"],"lat":"-25.0333","lng":"-66.1"},{"country_code":"AR","state_code":"A","province_code":"","name":"PALERMO OESTE","cp":["4415"],"lat":"-24.9333","lng":"-66.1833"},{"country_code":"AR","state_code":"A","province_code":"","name":"LA POMA","cp":["4415"],"lat":"-24.7167","lng":"-66.2167"},{"country_code":"AR","state_code":"A","province_code":"","name":"TONCO","cp":["4415"],"lat":"-25.0667","lng":"-65.95"},{"country_code":"AR","state_code":"A","province_code":"","name":"CACHI","cp":["4417"],"lat":"-25.1","lng":"-66.1833"},{"country_code":"AR","state_code":"A","province_code":"","name":"CACHI ADENTRO","cp":["4417"],"lat":"-25.0833","lng":"-66.2333"},{"country_code":"AR","state_code":"A","province_code":"","name":"CUESTA DEL OBISPO","cp":["4417"],"lat":"-25.0917","lng":"-66.2083"},{"country_code":"AR","state_code":"A","province_code":"","name":"PUIL","cp":["4417"],"lat":"-25.0917","lng":"-66.2083"},{"country_code":"AR","state_code":"A","province_code":"","name":"RIO TORO","cp":["4417"],"lat":"-25.0917","lng":"-66.2083"},{"country_code":"AR","state_code":"A","province_code":"","name":"RIO BLANCO","cp":["4417"],"lat":"-25.0917","lng":"-66.2083"},{"country_code":"AR","state_code":"A","province_code":"","name":"PUERTA DE LA PAYA","cp":["4417"],"lat":"-25.0917","lng":"-66.2083"},{"country_code":"AR","state_code":"A","province_code":"","name":"PUEBLO VIEJO (CACHI, DPTO. CACHI)","cp":["4417"],"lat":"-25.0917","lng":"-66.2083"},{"country_code":"AR","state_code":"A","province_code":"","name":"COLTE","cp":["4419"],"lat":"-25.3148","lng":"-66.2778"},{"country_code":"AR","state_code":"A","province_code":"","name":"COLOME","cp":["4419"],"lat":"-25.3148","lng":"-66.2778"},{"country_code":"AR","state_code":"A","province_code":"","name":"COLMENAR","cp":["4419"],"lat":"-25.3148","lng":"-66.2778"},{"country_code":"AR","state_code":"A","province_code":"","name":"CERRO DE LA ZORRA VIEJA","cp":["4419"],"lat":"-25.3148","lng":"-66.2778"},{"country_code":"AR","state_code":"A","province_code":"","name":"CERRO DEL AGUA DE LA FALDA","cp":["4419"],"lat":"-25.3148","lng":"-66.2778"},{"country_code":"AR","state_code":"A","province_code":"","name":"CERRO BRAVO","cp":["4419"],"lat":"-25.3148","lng":"-66.2778"},{"country_code":"AR","state_code":"A","province_code":"","name":"BURRO YACO","cp":["4419"],"lat":"-25.3148","lng":"-66.2778"},{"country_code":"AR","state_code":"A","province_code":"","name":"HOMBRE MUERTO","cp":["4419"],"lat":"-25.3148","lng":"-66.2778"},{"country_code":"AR","state_code":"A","province_code":"","name":"EL BREALITO","cp":["4419"],"lat":"-25.3148","lng":"-66.2778"},{"country_code":"AR","state_code":"A","province_code":"","name":"SAN JOSE DE COLTE","cp":["4419"],"lat":"-25.3148","lng":"-66.2778"},{"country_code":"AR","state_code":"A","province_code":"","name":"SECLANTA ADENTRO","cp":["4419"],"lat":"-25.3148","lng":"-66.2778"},{"country_code":"AR","state_code":"A","province_code":"","name":"ESQUINA (MOLINOS, DPTO. MOLINOS)","cp":["4419"],"lat":"-25.3148","lng":"-66.2778"},{"country_code":"AR","state_code":"A","province_code":"","name":"TOMUCO","cp":["4419"],"lat":"-25.3148","lng":"-66.2778"},{"country_code":"AR","state_code":"A","province_code":"","name":"PE\u00d1AS BLANCAS","cp":["4419"],"lat":"-25.3148","lng":"-66.2778"},{"country_code":"AR","state_code":"A","province_code":"","name":"DIAMANTE (MOLINOS, DPTO. MOLINOS)","cp":["4419"],"lat":"-25.3148","lng":"-66.2778"},{"country_code":"AR","state_code":"A","province_code":"","name":"CORRIDA DE CORI","cp":["4419"],"lat":"-25.3148","lng":"-66.2778"},{"country_code":"AR","state_code":"A","province_code":"","name":"TACUIL","cp":["4419"],"lat":"-25.3148","lng":"-66.2778"},{"country_code":"AR","state_code":"A","province_code":"","name":"LURACATAO","cp":["4419"],"lat":"-25.2333","lng":"-66.45"},{"country_code":"AR","state_code":"A","province_code":"","name":"EL CHURCAL","cp":["4419"],"lat":"-25.3667","lng":"-66.2333"},{"country_code":"AR","state_code":"A","province_code":"","name":"MOLINOS","cp":["4419"],"lat":"-25.4167","lng":"-66.3167"},{"country_code":"AR","state_code":"A","province_code":"","name":"SECLANTAS","cp":["4419"],"lat":"-25.3","lng":"-66.25"},{"country_code":"AR","state_code":"A","province_code":"","name":"BANDA GRANDE","cp":["4419"],"lat":"-25.4167","lng":"-66.2333"},{"country_code":"AR","state_code":"A","province_code":"","name":"HUMANAS","cp":["4419"],"lat":"-25.3148","lng":"-66.2778"},{"country_code":"AR","state_code":"A","province_code":"","name":"BREALITO","cp":["4419"],"lat":"-25.2667","lng":"-66.35"},{"country_code":"AR","state_code":"A","province_code":"","name":"VOLCAN AZUFRE","cp":["4419"],"lat":"-25.3148","lng":"-66.2778"},{"country_code":"AR","state_code":"A","province_code":"","name":"LA PAYA","cp":["4419"],"lat":"-25.15","lng":"-66.2333"},{"country_code":"AR","state_code":"A","province_code":"","name":"SAN JOSE DE ESCALCHI","cp":["4419"],"lat":"-25.2","lng":"-66.2"},{"country_code":"AR","state_code":"A","province_code":"","name":"ANGOSTURA","cp":["4419"],"lat":"-25.4833","lng":"-66.2333"},{"country_code":"AR","state_code":"A","province_code":"","name":"PIEDRAS MORADAS","cp":["4421"],"lat":"-25.25","lng":"-65.4667"},{"country_code":"AR","state_code":"A","province_code":"","name":"DOCTOR FACUNDO ZUVIRIA","cp":["4421"],"lat":"-25.0833","lng":"-65.4833"},{"country_code":"AR","state_code":"A","province_code":"","name":"FACUNDO ZUVIRIA","cp":["4421"],"lat":"-25.0833","lng":"-65.4833"},{"country_code":"AR","state_code":"A","province_code":"","name":"OSMA","cp":["4421"],"lat":"-25.2","lng":"-65.5"},{"country_code":"AR","state_code":"A","province_code":"","name":"SAN VICENTE","cp":["4421"],"lat":"-25.3042","lng":"-65.5097"},{"country_code":"AR","state_code":"A","province_code":"","name":"SAUCE ALEGRE","cp":["4421"],"lat":"-25.3042","lng":"-65.5097"},{"country_code":"AR","state_code":"A","province_code":"","name":"LA MERCED","cp":["4421"],"lat":"-25.7667","lng":"-66"},{"country_code":"AR","state_code":"A","province_code":"","name":"ALMONA","cp":["4421"],"lat":"-25.9667","lng":"-64.5167"},{"country_code":"AR","state_code":"A","province_code":"","name":"CORONEL MOLDES","cp":["4421"],"lat":"-25.2667","lng":"-65.4833"},{"country_code":"AR","state_code":"A","province_code":"","name":"SAN JOSE","cp":["4421"],"lat":"-25.2","lng":"-66.2"},{"country_code":"AR","state_code":"A","province_code":"","name":"SAN NICOLAS","cp":["4421"],"lat":"-25.4333","lng":"-65.5667"},{"country_code":"AR","state_code":"A","province_code":"","name":"AMPASCACHI","cp":["4421"],"lat":"-25.3333","lng":"-65.5333"},{"country_code":"AR","state_code":"A","province_code":"","name":"SAN AGUSTIN","cp":["4421"],"lat":"-24.9833","lng":"-65.4167"},{"country_code":"AR","state_code":"A","province_code":"","name":"EL CARRIL","cp":["4421"],"lat":"-25.0833","lng":"-65.4667"},{"country_code":"AR","state_code":"A","province_code":"","name":"LA BODEGUITA","cp":["4421"],"lat":"-25.3042","lng":"-65.5097"},{"country_code":"AR","state_code":"A","province_code":"","name":"LA BODEGA","cp":["4421"],"lat":"-25.3042","lng":"-65.5097"},{"country_code":"AR","state_code":"A","province_code":"","name":"CALVIMONTE","cp":["4421"],"lat":"-25.3042","lng":"-65.5097"},{"country_code":"AR","state_code":"A","province_code":"","name":"EL CARANCHO","cp":["4421"],"lat":"-25.3042","lng":"-65.5097"},{"country_code":"AR","state_code":"A","province_code":"","name":"EL CARMEN (DPTO. LA VI\u00d1A)","cp":["4421"],"lat":"-25.3042","lng":"-65.5097"},{"country_code":"AR","state_code":"A","province_code":"","name":"PASO DEL RIO","cp":["4421"],"lat":"-25.3042","lng":"-65.5097"},{"country_code":"AR","state_code":"A","province_code":"","name":"PE\u00d1AS AZULES","cp":["4421"],"lat":"-25.3042","lng":"-65.5097"},{"country_code":"AR","state_code":"A","province_code":"","name":"SANTA MARIA (AMPASCACHI - DPTO. LA VI\u00d1A)","cp":["4421"],"lat":"-25.3042","lng":"-65.5097"},{"country_code":"AR","state_code":"A","province_code":"","name":"RETIRO","cp":["4421"],"lat":"-25.3042","lng":"-65.5097"},{"country_code":"AR","state_code":"A","province_code":"","name":"SEVILLAR","cp":["4421"],"lat":"-25.3042","lng":"-65.5097"},{"country_code":"AR","state_code":"A","province_code":"","name":"SI\u00d1UNTO","cp":["4421"],"lat":"-25.3042","lng":"-65.5097"},{"country_code":"AR","state_code":"A","province_code":"","name":"SUMALAO","cp":["4421"],"lat":"-25.3042","lng":"-65.5097"},{"country_code":"AR","state_code":"A","province_code":"","name":"GUALIANIA","cp":["4421"],"lat":"-25.3042","lng":"-65.5097"},{"country_code":"AR","state_code":"A","province_code":"","name":"PUENTE DE DIAZ","cp":["4421"],"lat":"-25.3042","lng":"-65.5097"},{"country_code":"AR","state_code":"A","province_code":"","name":"KILOMETRO 1176,300 (APEADERO FCGB)","cp":["4421"],"lat":"-25.3042","lng":"-65.5097"},{"country_code":"AR","state_code":"A","province_code":"","name":"LA ARGENTINA","cp":["4421"],"lat":"-25.3042","lng":"-65.5097"},{"country_code":"AR","state_code":"A","province_code":"","name":"LA ARMONIA (CNEL. MOLDES - DPTO. LA VI\u00d1A)","cp":["4421"],"lat":"-25.3042","lng":"-65.5097"},{"country_code":"AR","state_code":"A","province_code":"","name":"EL LEONCITO","cp":["4421"],"lat":"-25.3042","lng":"-65.5097"},{"country_code":"AR","state_code":"A","province_code":"","name":"ABLOME","cp":["4421"],"lat":"-25.3042","lng":"-65.5097"},{"country_code":"AR","state_code":"A","province_code":"","name":"TRES ACEQUIAS","cp":["4421"],"lat":"-25.3042","lng":"-65.5097"},{"country_code":"AR","state_code":"A","province_code":"","name":"LA TOMA","cp":["4421"],"lat":"-25.3042","lng":"-65.5097"},{"country_code":"AR","state_code":"A","province_code":"","name":"BELLA VISTA (CNEL. MOLDES - DPTO. LA VI\u00d1A)","cp":["4421"],"lat":"-25.3042","lng":"-65.5097"},{"country_code":"AR","state_code":"A","province_code":"","name":"CABRA CORRAL","cp":["4421"],"lat":"-25.3042","lng":"-65.5097"},{"country_code":"AR","state_code":"A","province_code":"","name":"CACHO MOLINO","cp":["4421"],"lat":"-25.3042","lng":"-65.5097"},{"country_code":"AR","state_code":"A","province_code":"","name":"LAS TIENDITAS","cp":["4421"],"lat":"-25.3042","lng":"-65.5097"},{"country_code":"AR","state_code":"A","province_code":"","name":"LAS PIRCAS (APEADERO FCGB)","cp":["4421"],"lat":"-25.3042","lng":"-65.5097"},{"country_code":"AR","state_code":"A","province_code":"","name":"LAS MERCEDES (AMPASCACHI - DPTO. LA VI\u00d1A)","cp":["4421"],"lat":"-25.3042","lng":"-65.5097"},{"country_code":"AR","state_code":"A","province_code":"","name":"QUISCA LORO","cp":["4421"],"lat":"-25.3042","lng":"-65.5097"},{"country_code":"AR","state_code":"A","province_code":"","name":"SALADILLO DE OSMA","cp":["4421"],"lat":"-25.3042","lng":"-65.5097"},{"country_code":"AR","state_code":"A","province_code":"","name":"SAN ANTONIO (CNEL. MOLDES, DPTO. LA VI\u00d1A)","cp":["4421"],"lat":"-25.3042","lng":"-65.5097"},{"country_code":"AR","state_code":"A","province_code":"","name":"SAN ANTONIO (EL CARRIL, DPTO. CHICOANA)","cp":["4421"],"lat":"-25.3042","lng":"-65.5097"},{"country_code":"AR","state_code":"A","province_code":"","name":"SAN GERONIMO","cp":["4421"],"lat":"-25.3042","lng":"-65.5097"},{"country_code":"AR","state_code":"A","province_code":"","name":"SAN MARTIN (LA MERCED, DPTO. CERRILLOS)","cp":["4421"],"lat":"-25.3042","lng":"-65.5097"},{"country_code":"AR","state_code":"A","province_code":"","name":"LA COSTA (EL CARMEN, DPTO. LA VI\u00d1A)","cp":["4421"],"lat":"-25.3042","lng":"-65.5097"},{"country_code":"AR","state_code":"A","province_code":"","name":"LAS CA\u00d1AS","cp":["4421"],"lat":"-25.3042","lng":"-65.5097"},{"country_code":"AR","state_code":"A","province_code":"","name":"LAS GARZAS","cp":["4421"],"lat":"-25.3042","lng":"-65.5097"},{"country_code":"AR","state_code":"A","province_code":"","name":"CAMPO ALEGRE (CHICOANA, DPTO. CHICOANA)","cp":["4423"],"lat":"-25.0917","lng":"-65.5458"},{"country_code":"AR","state_code":"A","province_code":"","name":"EL MOYAR","cp":["4423"],"lat":"-25.0917","lng":"-65.5458"},{"country_code":"AR","state_code":"A","province_code":"","name":"EL QUEMADO (CHICOANA, DPTO. CHICOANA)","cp":["4423"],"lat":"-25.0917","lng":"-65.5458"},{"country_code":"AR","state_code":"A","province_code":"","name":"LA CALAVERA","cp":["4423"],"lat":"-25.0917","lng":"-65.5458"},{"country_code":"AR","state_code":"A","province_code":"","name":"EL SIMBOLAR","cp":["4423"],"lat":"-25.0917","lng":"-65.5458"},{"country_code":"AR","state_code":"A","province_code":"","name":"LA GUARDIA","cp":["4423"],"lat":"-25.0917","lng":"-65.5458"},{"country_code":"AR","state_code":"A","province_code":"","name":"LA MARGARITA","cp":["4423"],"lat":"-25.0917","lng":"-65.5458"},{"country_code":"AR","state_code":"A","province_code":"","name":"LA MAROMA","cp":["4423"],"lat":"-25.0917","lng":"-65.5458"},{"country_code":"AR","state_code":"A","province_code":"","name":"VI\u00d1ACO","cp":["4423"],"lat":"-25.0917","lng":"-65.5458"},{"country_code":"AR","state_code":"A","province_code":"","name":"VILLA FANNY","cp":["4423"],"lat":"-25.0917","lng":"-65.5458"},{"country_code":"AR","state_code":"A","province_code":"","name":"TILIAN","cp":["4423"],"lat":"-25.0917","lng":"-65.5458"},{"country_code":"AR","state_code":"A","province_code":"","name":"SANTA ROSA (CHICOANA - DPTO. CHICOANA)","cp":["4423"],"lat":"-25.0917","lng":"-65.5458"},{"country_code":"AR","state_code":"A","province_code":"","name":"SANTA ANA","cp":["4423"],"lat":"-25.0917","lng":"-65.5458"},{"country_code":"AR","state_code":"A","province_code":"","name":"SAN JOSE DE LA VI\u00d1A","cp":["4423"],"lat":"-25.0917","lng":"-65.5458"},{"country_code":"AR","state_code":"A","province_code":"","name":"SAN JOAQUIN (CHICOANA, DPTO. CHICOANA)","cp":["4423"],"lat":"-25.0917","lng":"-65.5458"},{"country_code":"AR","state_code":"A","province_code":"","name":"SAN FERNANDO DE ESCOIPE","cp":["4423"],"lat":"-25.0917","lng":"-65.5458"},{"country_code":"AR","state_code":"A","province_code":"","name":"POTRERO DE DIAZ","cp":["4423"],"lat":"-25.0917","lng":"-65.5458"},{"country_code":"AR","state_code":"A","province_code":"","name":"PE\u00d1AFLOR","cp":["4423"],"lat":"-25.0917","lng":"-65.5458"},{"country_code":"AR","state_code":"A","province_code":"","name":"PEDREGAL","cp":["4423"],"lat":"-25.0917","lng":"-65.5458"},{"country_code":"AR","state_code":"A","province_code":"","name":"PALMIRA","cp":["4423"],"lat":"-25.0917","lng":"-65.5458"},{"country_code":"AR","state_code":"A","province_code":"","name":"MOLINO (CHICOANA, DPTO. CHICOANA)","cp":["4423"],"lat":"-25.0917","lng":"-65.5458"},{"country_code":"AR","state_code":"A","province_code":"","name":"LOS LOS","cp":["4423"],"lat":"-25.0917","lng":"-65.5458"},{"country_code":"AR","state_code":"A","province_code":"","name":"LAS MORAS","cp":["4423"],"lat":"-25.0917","lng":"-65.5458"},{"country_code":"AR","state_code":"A","province_code":"","name":"BELLA VISTA (CHICOANA - DPTO. CHICOANA)","cp":["4423"],"lat":"-25.0917","lng":"-65.5458"},{"country_code":"AR","state_code":"A","province_code":"","name":"CHIVILME","cp":["4423"],"lat":"-25.0917","lng":"-65.5458"},{"country_code":"AR","state_code":"A","province_code":"","name":"PULARES","cp":["4423"],"lat":"-25.0833","lng":"-65.5833"},{"country_code":"AR","state_code":"A","province_code":"","name":"CHICOANA","cp":["4423"],"lat":"-25.1","lng":"-65.55"},{"country_code":"AR","state_code":"A","province_code":"","name":"EL TIPAL","cp":["4423"],"lat":"-25.0667","lng":"-65.5333"},{"country_code":"AR","state_code":"A","province_code":"","name":"SANTA GERTRUDIS","cp":["4423"],"lat":"-25.1167","lng":"-65.5167"},{"country_code":"AR","state_code":"A","province_code":"","name":"GUACHIPAS","cp":["4425"],"lat":"-25.5167","lng":"-65.5333"},{"country_code":"AR","state_code":"A","province_code":"","name":"MORALES","cp":["4425"],"lat":"-25.75","lng":"-65.7"},{"country_code":"AR","state_code":"A","province_code":"","name":"ACOSTA","cp":["4425"],"lat":"-25.5","lng":"-65.2333"},{"country_code":"AR","state_code":"A","province_code":"","name":"ALEMANIA","cp":["4425"],"lat":"-25.6","lng":"-65.6333"},{"country_code":"AR","state_code":"A","province_code":"","name":"RIO ALEMANIA","cp":["4425"],"lat":"-25.5426","lng":"-65.4481"},{"country_code":"AR","state_code":"A","province_code":"","name":"SAUCE","cp":["4425"],"lat":"-24.5833","lng":"-65.15"},{"country_code":"AR","state_code":"A","province_code":"","name":"COROPAMPA","cp":["4425"],"lat":"-25.5","lng":"-65.5167"},{"country_code":"AR","state_code":"A","province_code":"","name":"LA FLORIDA","cp":["4425"],"lat":"-26.0667","lng":"-65.2"},{"country_code":"AR","state_code":"A","province_code":"","name":"PAMPA GRANDE","cp":["4425"],"lat":"-25.8333","lng":"-65.5"},{"country_code":"AR","state_code":"A","province_code":"","name":"TALAPAMPA","cp":["4425"],"lat":"-25.5333","lng":"-65.5667"},{"country_code":"AR","state_code":"A","province_code":"","name":"REDONDO","cp":["4425"],"lat":"-25.5426","lng":"-65.4481"},{"country_code":"AR","state_code":"A","province_code":"","name":"LA PAMPA","cp":["4425"],"lat":"-25.5426","lng":"-65.4481"},{"country_code":"AR","state_code":"A","province_code":"","name":"LA COSTA (GUACHIPAS - DPTO. GUACHIPAS)","cp":["4425"],"lat":"-25.5426","lng":"-65.4481"},{"country_code":"AR","state_code":"A","province_code":"","name":"EL ACHERAL","cp":["4425"],"lat":"-25.5426","lng":"-65.4481"},{"country_code":"AR","state_code":"A","province_code":"","name":"CEVILAR","cp":["4425"],"lat":"-25.5426","lng":"-65.4481"},{"country_code":"AR","state_code":"A","province_code":"","name":"CERRO ALEMANIA","cp":["4425"],"lat":"-25.5426","lng":"-65.4481"},{"country_code":"AR","state_code":"A","province_code":"","name":"SAUCE REDONDO","cp":["4425"],"lat":"-25.5426","lng":"-65.4481"},{"country_code":"AR","state_code":"A","province_code":"","name":"CARAHUASI","cp":["4425"],"lat":"-25.5426","lng":"-65.4481"},{"country_code":"AR","state_code":"A","province_code":"","name":"CASTA\u00d1ARES","cp":["4425"],"lat":"-25.5426","lng":"-65.4481"},{"country_code":"AR","state_code":"A","province_code":"","name":"CAMPO DE ALEMANIA","cp":["4425"],"lat":"-25.5426","lng":"-65.4481"},{"country_code":"AR","state_code":"A","province_code":"","name":"TRES CRUCES (ALEMANIA, DPTO. GUACHIPAS)","cp":["4425"],"lat":"-25.5426","lng":"-65.4481"},{"country_code":"AR","state_code":"A","province_code":"","name":"BODEGUITA","cp":["4425"],"lat":"-25.5426","lng":"-65.4481"},{"country_code":"AR","state_code":"A","province_code":"","name":"AMBLAYO","cp":["4425"],"lat":"-25.5426","lng":"-65.4481"},{"country_code":"AR","state_code":"A","province_code":"","name":"DURAZNO (GUACHIPAS, DPTO. GUACHIPAS)","cp":["4425"],"lat":"-25.5426","lng":"-65.4481"},{"country_code":"AR","state_code":"A","province_code":"","name":"TIPA SOLA","cp":["4425"],"lat":"-25.5426","lng":"-65.4481"},{"country_code":"AR","state_code":"A","province_code":"","name":"SANTA ELENA (GUACHIPAS, DPTO. GUACHIPAS)","cp":["4425"],"lat":"-25.5426","lng":"-65.4481"},{"country_code":"AR","state_code":"A","province_code":"","name":"SANTA BARBARA","cp":["4425"],"lat":"-25.5426","lng":"-65.4481"},{"country_code":"AR","state_code":"A","province_code":"","name":"LOS SAUCES (PAMPA GRANDE, DPTO. GUACHIPAS)","cp":["4425"],"lat":"-25.5426","lng":"-65.4481"},{"country_code":"AR","state_code":"A","province_code":"","name":"LOS CHURQUIS (GUACHIPAS, DPTO. GUACHIPAS)","cp":["4425"],"lat":"-25.5426","lng":"-65.4481"},{"country_code":"AR","state_code":"A","province_code":"","name":"LA VI\u00d1A (DPTO. LA VI\u00d1A)","cp":["4425"],"lat":"-25.5426","lng":"-65.4481"},{"country_code":"AR","state_code":"A","province_code":"","name":"LAS LECHUZAS","cp":["4425"],"lat":"-25.5426","lng":"-65.4481"},{"country_code":"AR","state_code":"A","province_code":"","name":"LAS CURTIEMBRES","cp":["4425"],"lat":"-25.5426","lng":"-65.4481"},{"country_code":"AR","state_code":"A","province_code":"","name":"LA POBLACION (GUACHIPAS - DPTO. GUACHIPAS)","cp":["4425"],"lat":"-25.5426","lng":"-65.4481"},{"country_code":"AR","state_code":"A","province_code":"","name":"SAN ANTONIO (ANIMANA, DPTO. SAN CARLOS)","cp":["4427"],"lat":"-25.785","lng":"-65.7433"},{"country_code":"AR","state_code":"A","province_code":"","name":"EL RECREO","cp":["4427"],"lat":"-25.8167","lng":"-64.6333"},{"country_code":"AR","state_code":"A","province_code":"","name":"SANTA ROSA (ANGASTACO - DPTO. SAN CARLOS)","cp":["4427"],"lat":"-25.785","lng":"-65.7433"},{"country_code":"AR","state_code":"A","province_code":"","name":"SIMBOLAR (SAN CARLOS, DPTO. SAN CARLOS)","cp":["4427"],"lat":"-25.785","lng":"-65.7433"},{"country_code":"AR","state_code":"A","province_code":"","name":"YANCHUYA","cp":["4427"],"lat":"-25.785","lng":"-65.7433"},{"country_code":"AR","state_code":"A","province_code":"","name":"YACOCHUYA","cp":["4427"],"lat":"-25.785","lng":"-65.7433"},{"country_code":"AR","state_code":"A","province_code":"","name":"BUENA VISTA (SAN CARLOS - DPTO. SAN CARLOS)","cp":["4427"],"lat":"-25.785","lng":"-65.7433"},{"country_code":"AR","state_code":"A","province_code":"","name":"CORRALITO (DPTO. SAN CARLOS)","cp":["4427"],"lat":"-25.785","lng":"-65.7433"},{"country_code":"AR","state_code":"A","province_code":"","name":"JACIMANA","cp":["4427"],"lat":"-25.785","lng":"-65.7433"},{"country_code":"AR","state_code":"A","province_code":"","name":"LA ARCADIA","cp":["4427"],"lat":"-25.785","lng":"-65.7433"},{"country_code":"AR","state_code":"A","province_code":"","name":"LA ARMONIA (CAFAYATE - DPTO. CAFAYATE)","cp":["4427"],"lat":"-25.785","lng":"-65.7433"},{"country_code":"AR","state_code":"A","province_code":"","name":"LA BANDA (CAFAYATE - DPTO. CAFAYATE)","cp":["4427"],"lat":"-25.785","lng":"-65.7433"},{"country_code":"AR","state_code":"A","province_code":"","name":"LAS CONCHAS (CAFAYATE - DPTO. CAFAYATE)","cp":["4427"],"lat":"-25.785","lng":"-65.7433"},{"country_code":"AR","state_code":"A","province_code":"","name":"LA VI\u00d1A (SAN CARLOS - DPTO. SAN CARLOS)","cp":["4427"],"lat":"-25.785","lng":"-65.7433"},{"country_code":"AR","state_code":"A","province_code":"","name":"LOROHUASI","cp":["4427"],"lat":"-25.785","lng":"-65.7433"},{"country_code":"AR","state_code":"A","province_code":"","name":"LOS SAUCES (SAN CARLOS, DPTO. SAN CARLOS)","cp":["4427"],"lat":"-25.785","lng":"-65.7433"},{"country_code":"AR","state_code":"A","province_code":"","name":"MONTE VIEJO","cp":["4427"],"lat":"-25.785","lng":"-65.7433"},{"country_code":"AR","state_code":"A","province_code":"","name":"PUCARA (ANGASTACO, DPTO. SAN CARLOS)","cp":["4427"],"lat":"-25.785","lng":"-65.7433"},{"country_code":"AR","state_code":"A","province_code":"","name":"SAN CARLOS","cp":["4427"],"lat":"-25.9333","lng":"-65.9333"},{"country_code":"AR","state_code":"A","province_code":"","name":"CAFAYATE","cp":["4427"],"lat":"-26.0833","lng":"-65.9667"},{"country_code":"AR","state_code":"A","province_code":"","name":"SAN LUCAS","cp":["4427"],"lat":"-25.9667","lng":"-66"},{"country_code":"AR","state_code":"A","province_code":"","name":"LA PUNILLA","cp":["4427"],"lat":"-24.8833","lng":"-64.8667"},{"country_code":"AR","state_code":"A","province_code":"","name":"BARRIAL","cp":["4427"],"lat":"-25.9667","lng":"-65.9167"},{"country_code":"AR","state_code":"A","province_code":"","name":"ANIMANA","cp":["4427"],"lat":"-25.9833","lng":"-65.9667"},{"country_code":"AR","state_code":"A","province_code":"","name":"ANGASTACO","cp":["4427"],"lat":"-25.6333","lng":"-66.1833"},{"country_code":"AR","state_code":"A","province_code":"","name":"SAN RAFAEL","cp":["4427"],"lat":"-25.8667","lng":"-65.9667"},{"country_code":"AR","state_code":"A","province_code":"","name":"PAYOGASTILLA","cp":["4427"],"lat":"-25.7167","lng":"-66"},{"country_code":"AR","state_code":"A","province_code":"","name":"GENERAL G\u00dcEMES","cp":["4430"],"lat":"-24.6667","lng":"-65.05"},{"country_code":"AR","state_code":"A","province_code":"","name":"QUISTO","cp":["4430"],"lat":"-24.5667","lng":"-64.7167"},{"country_code":"AR","state_code":"A","province_code":"","name":"ENTRE RIOS","cp":["4430"],"lat":"-24.6167","lng":"-64.8833"},{"country_code":"AR","state_code":"A","province_code":"","name":"KILOMETRO 1094 (APEADERO FCGB)","cp":["4430"],"lat":"-24.6167","lng":"-64.8833"},{"country_code":"AR","state_code":"A","province_code":"","name":"PUESTO VIEJO","cp":["4430"],"lat":"-24.6167","lng":"-64.8833"},{"country_code":"AR","state_code":"A","province_code":"","name":"OJO DE AGUA (GRAL. GUEMES, DPTO. GRAL. M. M. DE GUEMES)","cp":["4430"],"lat":"-24.6167","lng":"-64.8833"},{"country_code":"AR","state_code":"A","province_code":"","name":"YASQUIAME","cp":["4430"],"lat":"-24.6167","lng":"-64.8833"},{"country_code":"AR","state_code":"A","province_code":"","name":"CHACRA EXPERIMENTAL","cp":["4430"],"lat":"-24.6167","lng":"-64.8833"},{"country_code":"AR","state_code":"A","province_code":"","name":"AGUA CALIENTE","cp":["4430"],"lat":"-24.6167","lng":"-64.8833"},{"country_code":"AR","state_code":"A","province_code":"","name":"TORZALITO","cp":["4430"],"lat":"-24.6167","lng":"-64.8833"},{"country_code":"AR","state_code":"A","province_code":"","name":"ZAPALLITO","cp":["4430"],"lat":"-24.6167","lng":"-64.8833"},{"country_code":"AR","state_code":"A","province_code":"","name":"LAS VERTIENTES","cp":["4430"],"lat":"-24.6167","lng":"-64.8833"},{"country_code":"AR","state_code":"A","province_code":"","name":"SAN ISIDRO (GRAL GUEMES, DPTO. GRAL. M. M. DE GUEMES)","cp":["4430"],"lat":"-24.6167","lng":"-64.8833"},{"country_code":"AR","state_code":"A","province_code":"","name":"SALADILLO (GRAL. GUEMES, DPTO. GRAL. M. M. DE GUEMES)","cp":["4430"],"lat":"-24.6167","lng":"-64.8833"},{"country_code":"AR","state_code":"A","province_code":"","name":"ALGARROBAL (GRAL. GUEMES, DPTO. GRAL. GUEMES)","cp":["4430"],"lat":"-24.6167","lng":"-64.8833"},{"country_code":"AR","state_code":"A","province_code":"","name":"MADRE VIEJA","cp":["4430"],"lat":"-24.6167","lng":"-64.8833"},{"country_code":"AR","state_code":"A","province_code":"","name":"VILLA MAYOR ZABALETA","cp":["4430"],"lat":"-24.6167","lng":"-64.8833"},{"country_code":"AR","state_code":"A","province_code":"","name":"SAUSALITO","cp":["4430"],"lat":"-24.6167","lng":"-64.8833"},{"country_code":"AR","state_code":"A","province_code":"","name":"TACA TACA (ESTACION FCGB)","cp":["4431"],"lat":"-24.8492","lng":"-64.8348"},{"country_code":"AR","state_code":"A","province_code":"","name":"RODEO GRANDE","cp":["4432"],"lat":"-24.6708","lng":"-65.1708"},{"country_code":"AR","state_code":"A","province_code":"","name":"SAN MARTIN (EL BORDO, CAMPO SANTO, DPTO.GRAL.M.M.DE GUEMES)","cp":["4432"],"lat":"-24.6708","lng":"-65.1708"},{"country_code":"AR","state_code":"A","province_code":"","name":"GALLINATO","cp":["4432"],"lat":"-24.6708","lng":"-65.1708"},{"country_code":"AR","state_code":"A","province_code":"","name":"SANTA ROSA (CAMPO SANTO - DPTO. GRAL. M. M. DE GUEMES)","cp":["4432"],"lat":"-24.6708","lng":"-65.1708"},{"country_code":"AR","state_code":"A","province_code":"","name":"KILOMETRO 1102 (APEADERO FCGB)","cp":["4432"],"lat":"-24.6708","lng":"-65.1708"},{"country_code":"AR","state_code":"A","province_code":"","name":"EL BORDO (CAMPO SANTO)","cp":["4432"],"lat":"-24.6708","lng":"-65.1708"},{"country_code":"AR","state_code":"A","province_code":"","name":"CAMPO SANTO","cp":["4432"],"lat":"-24.6708","lng":"-65.1708"},{"country_code":"AR","state_code":"A","province_code":"","name":"CANTERA EL SAUCE","cp":["4432"],"lat":"-24.6708","lng":"-65.1708"},{"country_code":"AR","state_code":"A","province_code":"","name":"LA OLIVA","cp":["4432"],"lat":"-24.6708","lng":"-65.1708"},{"country_code":"AR","state_code":"A","province_code":"","name":"LA RAMADA","cp":["4432"],"lat":"-24.6708","lng":"-65.1708"},{"country_code":"AR","state_code":"A","province_code":"","name":"LA VI\u00d1A (CAMPO SANTO - DPTO. GRAL. M. M. DE GUEMES)","cp":["4432"],"lat":"-24.6708","lng":"-65.1708"},{"country_code":"AR","state_code":"A","province_code":"","name":"LA OFELIA","cp":["4432"],"lat":"-24.6708","lng":"-65.1708"},{"country_code":"AR","state_code":"A","province_code":"","name":"BETANIA","cp":["4432"],"lat":"-24.6833","lng":"-65.1333"},{"country_code":"AR","state_code":"A","province_code":"","name":"COBOS","cp":["4432"],"lat":"-24.7167","lng":"-65.1"},{"country_code":"AR","state_code":"A","province_code":"","name":"MOJOTORO","cp":["4432"],"lat":"-24.7","lng":"-65.3"},{"country_code":"AR","state_code":"A","province_code":"","name":"EL SAUCE","cp":["4432"],"lat":"-24.5833","lng":"-65.15"},{"country_code":"AR","state_code":"A","province_code":"","name":"LAS FLACAS","cp":["4434"],"lat":"-24.4","lng":"-63.9333"},{"country_code":"AR","state_code":"A","province_code":"","name":"CRUZ QUEMADA","cp":["4434"],"lat":"-25.0167","lng":"-64.9667"},{"country_code":"AR","state_code":"A","province_code":"","name":"EL REY","cp":["4434"],"lat":"-24.6667","lng":"-64.6"},{"country_code":"AR","state_code":"A","province_code":"","name":"JURAMENTO","cp":["4434"],"lat":"-25.15","lng":"-64.95"},{"country_code":"AR","state_code":"A","province_code":"","name":"EL YESO","cp":["4434"],"lat":"-25.0333","lng":"-64.45"},{"country_code":"AR","state_code":"A","province_code":"","name":"GONZALEZ","cp":["4434"],"lat":"-24.9167","lng":"-64.65"},{"country_code":"AR","state_code":"A","province_code":"","name":"ANTA","cp":["4434"],"lat":"-24.9167","lng":"-64.4667"},{"country_code":"AR","state_code":"A","province_code":"","name":"LOS NOGALES","cp":["4434"],"lat":"-25.1","lng":"-64.7167"},{"country_code":"AR","state_code":"A","province_code":"","name":"CABEZA DE BUEY","cp":["4434"],"lat":"-24.7833","lng":"-65.0167"},{"country_code":"AR","state_code":"A","province_code":"","name":"PIQUETE DE ANTA","cp":["4434"],"lat":"-24.7667","lng":"-64.4667"},{"country_code":"AR","state_code":"A","province_code":"","name":"QUESERA","cp":["4434"],"lat":"-24.8833","lng":"-65.3"},{"country_code":"AR","state_code":"A","province_code":"","name":"LAS VIBORAS","cp":["4434"],"lat":"-25.0333","lng":"-64.65"},{"country_code":"AR","state_code":"A","province_code":"","name":"LA TRAMPA","cp":["4434"],"lat":"-24.8833","lng":"-64.8667"},{"country_code":"AR","state_code":"A","province_code":"","name":"LUMBRERAS","cp":["4434"],"lat":"-25.2","lng":"-64.9167"},{"country_code":"AR","state_code":"A","province_code":"","name":"PALOMITAS","cp":["4434"],"lat":"-24.8833","lng":"-64.9667"},{"country_code":"AR","state_code":"A","province_code":"","name":"CHILCAS","cp":["4434"],"lat":"-25.1333","lng":"-65"},{"country_code":"AR","state_code":"A","province_code":"","name":"LA POSTA","cp":["4434"],"lat":"-24.9229","lng":"-64.7448"},{"country_code":"AR","state_code":"A","province_code":"","name":"PASO DE LA CRUZ","cp":["4434"],"lat":"-24.9229","lng":"-64.7448"},{"country_code":"AR","state_code":"A","province_code":"","name":"ESTANCIA VIEJA","cp":["4434"],"lat":"-24.9229","lng":"-64.7448"},{"country_code":"AR","state_code":"A","province_code":"","name":"LA CUESTITA (LAS VIBORAS - DPTO. ANTA)","cp":["4434"],"lat":"-24.9229","lng":"-64.7448"},{"country_code":"AR","state_code":"A","province_code":"","name":"LA CUESTITA (LUMBRERAS - DPTO. METAN)","cp":["4434"],"lat":"-24.9229","lng":"-64.7448"},{"country_code":"AR","state_code":"A","province_code":"","name":"EL OSO","cp":["4434"],"lat":"-24.9229","lng":"-64.7448"},{"country_code":"AR","state_code":"A","province_code":"","name":"EL LIBANO","cp":["4434"],"lat":"-24.9229","lng":"-64.7448"},{"country_code":"AR","state_code":"A","province_code":"","name":"EL ESTANQUE","cp":["4434"],"lat":"-24.9229","lng":"-64.7448"},{"country_code":"AR","state_code":"A","province_code":"","name":"EL ALGARROBO","cp":["4434"],"lat":"-24.9229","lng":"-64.7448"},{"country_code":"AR","state_code":"A","province_code":"","name":"EBRO","cp":["4434"],"lat":"-24.9229","lng":"-64.7448"},{"country_code":"AR","state_code":"A","province_code":"","name":"COBA","cp":["4434"],"lat":"-24.9229","lng":"-64.7448"},{"country_code":"AR","state_code":"A","province_code":"","name":"CARRERAS","cp":["4434"],"lat":"-24.9229","lng":"-64.7448"},{"country_code":"AR","state_code":"A","province_code":"","name":"ACHARAS","cp":["4434"],"lat":"-24.9229","lng":"-64.7448"},{"country_code":"AR","state_code":"A","province_code":"","name":"LA PUNTILLA","cp":["4434"],"lat":"-24.9229","lng":"-64.7448"},{"country_code":"AR","state_code":"A","province_code":"","name":"LAS ACHERAS","cp":["4434"],"lat":"-24.9229","lng":"-64.7448"},{"country_code":"AR","state_code":"A","province_code":"","name":"LAS CUESTITAS","cp":["4434"],"lat":"-24.9229","lng":"-64.7448"},{"country_code":"AR","state_code":"A","province_code":"","name":"LAS MESITAS","cp":["4434"],"lat":"-24.9229","lng":"-64.7448"},{"country_code":"AR","state_code":"A","province_code":"","name":"LECHIGUANA","cp":["4434"],"lat":"-24.9229","lng":"-64.7448"},{"country_code":"AR","state_code":"A","province_code":"","name":"LOS CORRALES","cp":["4434"],"lat":"-24.9229","lng":"-64.7448"},{"country_code":"AR","state_code":"A","province_code":"","name":"MIRAFLORES (RIO DE LAS PIEDRAS, DPTO. METAN)","cp":["4434"],"lat":"-24.9229","lng":"-64.7448"},{"country_code":"AR","state_code":"A","province_code":"","name":"RIO DE LAS PIEDRAS (DPTO. METAN)","cp":["4434"],"lat":"-24.9229","lng":"-64.7448"},{"country_code":"AR","state_code":"A","province_code":"","name":"SALADILLO (PASO DE LA CRUZ, DPTO. ANTA)","cp":["4434"],"lat":"-24.9229","lng":"-64.7448"},{"country_code":"AR","state_code":"A","province_code":"","name":"SAN SEBASTIAN","cp":["4434"],"lat":"-24.9229","lng":"-64.7448"},{"country_code":"AR","state_code":"A","province_code":"","name":"SAUCE BAJADA","cp":["4434"],"lat":"-24.9229","lng":"-64.7448"},{"country_code":"AR","state_code":"A","province_code":"","name":"VIRGILIO TEDIN (EMBARCADERO FCGB)","cp":["4434"],"lat":"-24.9229","lng":"-64.7448"},{"country_code":"AR","state_code":"A","province_code":"","name":"EL NARANJO (PASO DE LA CRUZ, DPTO. ANTA)","cp":["4434"],"lat":"-24.9229","lng":"-64.7448"},{"country_code":"AR","state_code":"A","province_code":"","name":"EL ZANJON","cp":["4434"],"lat":"-24.9229","lng":"-64.7448"},{"country_code":"AR","state_code":"A","province_code":"","name":"BALDERRAMA","cp":["4440"],"lat":"-25.3583","lng":"-65.2292"},{"country_code":"AR","state_code":"A","province_code":"","name":"EL GUANACO","cp":["4440"],"lat":"-25.3583","lng":"-65.2292"},{"country_code":"AR","state_code":"A","province_code":"","name":"LA AGUADITA","cp":["4440"],"lat":"-25.3583","lng":"-65.2292"},{"country_code":"AR","state_code":"A","province_code":"","name":"ESTECO (EMBARCADERO FCGB)","cp":["4440"],"lat":"-25.3583","lng":"-65.2292"},{"country_code":"AR","state_code":"A","province_code":"","name":"NOGALITO","cp":["4440"],"lat":"-25.3583","lng":"-65.2292"},{"country_code":"AR","state_code":"A","province_code":"","name":"SANTA ELENA (METAN - DPTO. METAN)","cp":["4440"],"lat":"-25.3583","lng":"-65.2292"},{"country_code":"AR","state_code":"A","province_code":"","name":"VERA CRUZ","cp":["4440"],"lat":"-25.3583","lng":"-65.2292"},{"country_code":"AR","state_code":"A","province_code":"","name":"SUCHA PERA","cp":["4440"],"lat":"-25.3583","lng":"-65.2292"},{"country_code":"AR","state_code":"A","province_code":"","name":"PASO DEL DURAZNO","cp":["4440"],"lat":"-25.3583","lng":"-65.2292"},{"country_code":"AR","state_code":"A","province_code":"","name":"PERU","cp":["4440"],"lat":"-25.3583","lng":"-65.2292"},{"country_code":"AR","state_code":"A","province_code":"","name":"PASTIADERO","cp":["4440"],"lat":"-25.3583","lng":"-65.2292"},{"country_code":"AR","state_code":"A","province_code":"","name":"CAMPO ALEGRE (METAN, DPTO. METAN)","cp":["4440"],"lat":"-25.3583","lng":"-65.2292"},{"country_code":"AR","state_code":"A","province_code":"","name":"CAMPO AZUL","cp":["4440"],"lat":"-25.3583","lng":"-65.2292"},{"country_code":"AR","state_code":"A","province_code":"","name":"DURAZNO (METAN, DPTO. METAN)","cp":["4440"],"lat":"-25.3583","lng":"-65.2292"},{"country_code":"AR","state_code":"A","province_code":"","name":"ROSALES (METAN, DPTO. METAN)","cp":["4440"],"lat":"-25.3583","lng":"-65.2292"},{"country_code":"AR","state_code":"A","province_code":"","name":"SCHNEIDEWIND (EMBARCADERO FCGB)","cp":["4440"],"lat":"-25.3583","lng":"-65.2292"},{"country_code":"AR","state_code":"A","province_code":"","name":"LAS JUNTAS","cp":["4440"],"lat":"-25.3583","lng":"-65.2292"},{"country_code":"AR","state_code":"A","province_code":"","name":"CONCHAS","cp":["4440"],"lat":"-25.45","lng":"-64.9667"},{"country_code":"AR","state_code":"A","province_code":"","name":"YATASTO","cp":["4440"],"lat":"-25.6","lng":"-64.95"},{"country_code":"AR","state_code":"A","province_code":"","name":"METAN","cp":["4440"],"lat":"-25.4833","lng":"-64.95"},{"country_code":"AR","state_code":"A","province_code":"","name":"PUNTA DEL AGUA","cp":["4440"],"lat":"-24.9","lng":"-66.05"},{"country_code":"AR","state_code":"A","province_code":"","name":"METAN VIEJO","cp":["4441"],"lat":"-25.5333","lng":"-64.9667"},{"country_code":"AR","state_code":"A","province_code":"","name":"MINA CONCORDIA (APEADERO FCGB)","cp":["4441"],"lat":"-25.5333","lng":"-64.9667"},{"country_code":"AR","state_code":"A","province_code":"","name":"LA POBLACION (EL GALPON - DPTO. METAN)","cp":["4444"],"lat":"-25.3833","lng":"-64.6333"},{"country_code":"AR","state_code":"A","province_code":"","name":"ARROCERO ITALIANO","cp":["4444"],"lat":"-25.3833","lng":"-64.6333"},{"country_code":"AR","state_code":"A","province_code":"","name":"LA ARMONIA (EL GALPON - DPTO. METAN)","cp":["4444"],"lat":"-25.3833","lng":"-64.6333"},{"country_code":"AR","state_code":"A","province_code":"","name":"FINCA ROCCA","cp":["4444"],"lat":"-25.3833","lng":"-64.6333"},{"country_code":"AR","state_code":"A","province_code":"","name":"POBLACION DE ORTEGA","cp":["4444"],"lat":"-25.3833","lng":"-64.6333"},{"country_code":"AR","state_code":"A","province_code":"","name":"OVEJERIA (EL GALPON, DPTO. METAN)","cp":["4444"],"lat":"-25.3833","lng":"-64.6333"},{"country_code":"AR","state_code":"A","province_code":"","name":"MIRAFLORES (EL GALPO6N, DPTO. METAN)","cp":["4444"],"lat":"-25.3833","lng":"-64.6333"},{"country_code":"AR","state_code":"A","province_code":"","name":"LAS DELICIAS","cp":["4444"],"lat":"-25.3833","lng":"-64.6333"},{"country_code":"AR","state_code":"A","province_code":"","name":"BAJO GRANDE (DESVIO FCGB. EL GALPON, DPTO. METAN)","cp":["4444"],"lat":"-25.3833","lng":"-64.6333"},{"country_code":"AR","state_code":"A","province_code":"","name":"EL PARQUE","cp":["4444"],"lat":"-25.3833","lng":"-64.6333"},{"country_code":"AR","state_code":"A","province_code":"","name":"FINCA ARMONIA","cp":["4444"],"lat":"-25.3833","lng":"-64.6333"},{"country_code":"AR","state_code":"A","province_code":"","name":"EL GALPON","cp":["4444"],"lat":"-25.3833","lng":"-64.6333"},{"country_code":"AR","state_code":"A","province_code":"","name":"PORVENIR","cp":["4446"],"lat":"-25.3833","lng":"-64.6667"},{"country_code":"AR","state_code":"A","province_code":"","name":"CHA\u00d1AR MUYO","cp":["4446"],"lat":"-25.0667","lng":"-64.2667"},{"country_code":"AR","state_code":"A","province_code":"","name":"CHORROARIN","cp":["4446"],"lat":"-25.15","lng":"-64.35"},{"country_code":"AR","state_code":"A","province_code":"","name":"ALTO DEL MISTOL","cp":["4446"],"lat":"-25.2833","lng":"-64.1167"},{"country_code":"AR","state_code":"A","province_code":"","name":"CEIBALITO","cp":["4446"],"lat":"-25.0833","lng":"-64.3167"},{"country_code":"AR","state_code":"A","province_code":"","name":"POBLACION","cp":["4446"],"lat":"-25.4333","lng":"-64.0667"},{"country_code":"AR","state_code":"A","province_code":"","name":"CORONEL OLLEROS","cp":["4446"],"lat":"-25.0667","lng":"-64.2667"},{"country_code":"AR","state_code":"A","province_code":"","name":"SAUSAL","cp":["4446"],"lat":"-25.2095","lng":"-64.2929"},{"country_code":"AR","state_code":"A","province_code":"","name":"BAJO GRANDE (EL TUNAL, DPTO. METAN)","cp":["4446"],"lat":"-25.2095","lng":"-64.2929"},{"country_code":"AR","state_code":"A","province_code":"","name":"COLA MUYO","cp":["4446"],"lat":"-25.2095","lng":"-64.2929"},{"country_code":"AR","state_code":"A","province_code":"","name":"DIVISADERO","cp":["4446"],"lat":"-25.2095","lng":"-64.2929"},{"country_code":"AR","state_code":"A","province_code":"","name":"EL CARRIZAL","cp":["4446"],"lat":"-25.2095","lng":"-64.2929"},{"country_code":"AR","state_code":"A","province_code":"","name":"EL JARAVI","cp":["4446"],"lat":"-25.2095","lng":"-64.2929"},{"country_code":"AR","state_code":"A","province_code":"","name":"EL PACARA","cp":["4446"],"lat":"-25.2095","lng":"-64.2929"},{"country_code":"AR","state_code":"A","province_code":"","name":"EL TUNAL (DPTO. METAN)","cp":["4446"],"lat":"-25.2095","lng":"-64.2929"},{"country_code":"AR","state_code":"A","province_code":"","name":"LAGUNITA","cp":["4446"],"lat":"-25.2095","lng":"-64.2929"},{"country_code":"AR","state_code":"A","province_code":"","name":"LAGUNITA NUEVA POBLACION","cp":["4446"],"lat":"-25.2095","lng":"-64.2929"},{"country_code":"AR","state_code":"A","province_code":"","name":"LA MANGA","cp":["4446"],"lat":"-25.2095","lng":"-64.2929"},{"country_code":"AR","state_code":"A","province_code":"","name":"LOS CHIFLES","cp":["4446"],"lat":"-25.2095","lng":"-64.2929"},{"country_code":"AR","state_code":"A","province_code":"","name":"MOLLE POZO","cp":["4446"],"lat":"-25.2095","lng":"-64.2929"},{"country_code":"AR","state_code":"A","province_code":"","name":"PASO DE LAS CARRETAS","cp":["4446"],"lat":"-25.2095","lng":"-64.2929"},{"country_code":"AR","state_code":"A","province_code":"","name":"PASO LA CRUZ","cp":["4446"],"lat":"-25.2095","lng":"-64.2929"},{"country_code":"AR","state_code":"A","province_code":"","name":"POTRERILLO (SAUZAL, DPTO. ANTA)","cp":["4446"],"lat":"-25.2095","lng":"-64.2929"},{"country_code":"AR","state_code":"A","province_code":"","name":"POTRERO (ROSALES, DPTO. METAN)","cp":["4446"],"lat":"-25.2095","lng":"-64.2929"},{"country_code":"AR","state_code":"A","province_code":"","name":"PULI","cp":["4446"],"lat":"-25.2095","lng":"-64.2929"},{"country_code":"AR","state_code":"A","province_code":"","name":"ROSALES (DPTO. METAN)","cp":["4446"],"lat":"-25.2095","lng":"-64.2929"},{"country_code":"AR","state_code":"A","province_code":"","name":"SAN JOSE DE ORQUERA","cp":["4446"],"lat":"-25.2095","lng":"-64.2929"},{"country_code":"AR","state_code":"A","province_code":"","name":"SAN JUAN (CHA\u00d1AR MUYO, DPTO. ANTA)","cp":["4446"],"lat":"-25.2095","lng":"-64.2929"},{"country_code":"AR","state_code":"A","province_code":"","name":"TALA MUYO","cp":["4446"],"lat":"-25.2095","lng":"-64.2929"},{"country_code":"AR","state_code":"A","province_code":"","name":"TALAS","cp":["4446"],"lat":"-25.2095","lng":"-64.2929"},{"country_code":"AR","state_code":"A","province_code":"","name":"TUNALITO (POBLACION - DPTO.METAN)","cp":["4446"],"lat":"-25.2095","lng":"-64.2929"},{"country_code":"AR","state_code":"A","province_code":"","name":"LA CARRETERA","cp":["4446"],"lat":"-25.2095","lng":"-64.2929"},{"country_code":"AR","state_code":"A","province_code":"","name":"ARENAL (CHA\u00d1AR MUYO - DPTO. ANTA)","cp":["4446"],"lat":"-25.2095","lng":"-64.2929"},{"country_code":"AR","state_code":"A","province_code":"","name":"ALGARROBAL (CHA\u00d1AR MUYO, DPTO. ANTA)","cp":["4446"],"lat":"-25.2095","lng":"-64.2929"},{"country_code":"AR","state_code":"A","province_code":"","name":"KILOMETRO 1088 (APEADERO FCGB)","cp":["4448"],"lat":"-25.0083","lng":"-64.2"},{"country_code":"AR","state_code":"A","province_code":"","name":"LAGUNA BLANCA","cp":["4448"],"lat":"-25.0083","lng":"-64.2"},{"country_code":"AR","state_code":"A","province_code":"","name":"SAUCE SOLO","cp":["4448"],"lat":"-25.0083","lng":"-64.2"},{"country_code":"AR","state_code":"A","province_code":"","name":"SANTO DOMINGO (JOAQUIN V.GONZALEZ, DPTO. ANTA)","cp":["4448"],"lat":"-25.0083","lng":"-64.2"},{"country_code":"AR","state_code":"A","province_code":"","name":"CORONEL VIDT","cp":["4448"],"lat":"-24.9333","lng":"-64.2167"},{"country_code":"AR","state_code":"A","province_code":"","name":"JOAQUIN V. GONZALEZ","cp":["4448"],"lat":"-25.0833","lng":"-64.1833"},{"country_code":"AR","state_code":"A","province_code":"","name":"APOLINARIO SARAVIA","cp":["4449"],"lat":"-24.4167","lng":"-64.0333"},{"country_code":"AR","state_code":"A","province_code":"","name":"AGUA SUCIA","cp":["4449"],"lat":"-24.45","lng":"-63.8333"},{"country_code":"AR","state_code":"A","province_code":"","name":"LUIS BURELA","cp":["4449"],"lat":"-24.3667","lng":"-64.0333"},{"country_code":"AR","state_code":"A","province_code":"","name":"ROSARIO DEL DORADO","cp":["4449"],"lat":"-24.5167","lng":"-64.1667"},{"country_code":"AR","state_code":"A","province_code":"","name":"LAS FLORES","cp":["4449"],"lat":"-24.3667","lng":"-63.8333"},{"country_code":"AR","state_code":"A","province_code":"","name":"LAS LAJITAS","cp":["4449"],"lat":"-24.6833","lng":"-64.25"},{"country_code":"AR","state_code":"A","province_code":"","name":"SAN RAMON","cp":["4449"],"lat":"-25.0167","lng":"-65.5333"},{"country_code":"AR","state_code":"A","province_code":"","name":"RIO DEL VALLE","cp":["4449"],"lat":"-24.6333","lng":"-64.25"},{"country_code":"AR","state_code":"A","province_code":"","name":"GENERAL PIZARRO","cp":["4449"],"lat":"-24.2167","lng":"-64.0167"},{"country_code":"AR","state_code":"A","province_code":"","name":"ESPINILLO","cp":["4449"],"lat":"-23.9","lng":"-62.6167"},{"country_code":"AR","state_code":"A","province_code":"","name":"CORONEL MOLLINEDO","cp":["4449"],"lat":"-24.5167","lng":"-64.1333"},{"country_code":"AR","state_code":"A","province_code":"","name":"PIQUETE CABADO","cp":["4449"],"lat":"-24.7833","lng":"-64.2333"},{"country_code":"AR","state_code":"A","province_code":"","name":"LAS TORTUGAS","cp":["4449"],"lat":"-24.2667","lng":"-64.0833"},{"country_code":"AR","state_code":"A","province_code":"","name":"LAS BATEAS","cp":["4449"],"lat":"-24.4718","lng":"-64.0782"},{"country_code":"AR","state_code":"A","province_code":"","name":"SANTO DOMINGO (LAS LAJITAS, DPTO. ANTA)","cp":["4449"],"lat":"-24.4718","lng":"-64.0782"},{"country_code":"AR","state_code":"A","province_code":"","name":"TOTORAL","cp":["4449"],"lat":"-24.4718","lng":"-64.0782"},{"country_code":"AR","state_code":"A","province_code":"","name":"TUNALITO (PALERMO - DPTO. ANTA)","cp":["4449"],"lat":"-24.4718","lng":"-64.0782"},{"country_code":"AR","state_code":"A","province_code":"","name":"SANTA ROSA (LAS FLORES - DPTO. ANTA)","cp":["4449"],"lat":"-24.4718","lng":"-64.0782"},{"country_code":"AR","state_code":"A","province_code":"","name":"SAN MARTIN (PALERMO, DPTO. ANTA)","cp":["4449"],"lat":"-24.4718","lng":"-64.0782"},{"country_code":"AR","state_code":"A","province_code":"","name":"SAN LUIS (LAS FLORES, DPTO. ANTA)","cp":["4449"],"lat":"-24.4718","lng":"-64.0782"},{"country_code":"AR","state_code":"A","province_code":"","name":"POZO VERDE (CNEL. MOLINEDO, DPTO. ANTA)","cp":["4449"],"lat":"-24.4718","lng":"-64.0782"},{"country_code":"AR","state_code":"A","province_code":"","name":"POZO GRANDE","cp":["4449"],"lat":"-24.4718","lng":"-64.0782"},{"country_code":"AR","state_code":"A","province_code":"","name":"PALMA","cp":["4449"],"lat":"-24.4718","lng":"-64.0782"},{"country_code":"AR","state_code":"A","province_code":"","name":"MEDIA LUNA (APOLINARIO SARAVIA, DPTO. ANTA)","cp":["4449"],"lat":"-24.4718","lng":"-64.0782"},{"country_code":"AR","state_code":"A","province_code":"","name":"SANTO DOMINGO (APOLINARIO SARAVIA, DPTO. ANTA)","cp":["4449"],"lat":"-24.4718","lng":"-64.0782"},{"country_code":"AR","state_code":"A","province_code":"","name":"MONASTERIOS","cp":["4449"],"lat":"-24.4718","lng":"-64.0782"},{"country_code":"AR","state_code":"A","province_code":"","name":"ALTO ALEGRE","cp":["4449"],"lat":"-24.4718","lng":"-64.0782"},{"country_code":"AR","state_code":"A","province_code":"","name":"ARITA","cp":["4449"],"lat":"-24.4718","lng":"-64.0782"},{"country_code":"AR","state_code":"A","province_code":"","name":"BARREALITO","cp":["4449"],"lat":"-24.4718","lng":"-64.0782"},{"country_code":"AR","state_code":"A","province_code":"","name":"CAMPO ALEGRE (LAS FLORES, DPTO. ANTA)","cp":["4449"],"lat":"-24.4718","lng":"-64.0782"},{"country_code":"AR","state_code":"A","province_code":"","name":"COLONIA HURLINGHAM","cp":["4449"],"lat":"-24.4718","lng":"-64.0782"},{"country_code":"AR","state_code":"A","province_code":"","name":"EL BORDO (APOLINARIO SARAVIA, DPTO. ANTA)","cp":["4449"],"lat":"-24.4718","lng":"-64.0782"},{"country_code":"AR","state_code":"A","province_code":"","name":"LAS VATEAS","cp":["4449"],"lat":"-24.4718","lng":"-64.0782"},{"country_code":"AR","state_code":"A","province_code":"","name":"EL CARMEN (APOLINARIO SARAVIA, DPTO. ANTA)","cp":["4449"],"lat":"-24.4718","lng":"-64.0782"},{"country_code":"AR","state_code":"A","province_code":"","name":"EL MANANTIAL","cp":["4449"],"lat":"-24.4718","lng":"-64.0782"},{"country_code":"AR","state_code":"A","province_code":"","name":"EL PERICOTE","cp":["4449"],"lat":"-24.4718","lng":"-64.0782"},{"country_code":"AR","state_code":"A","province_code":"","name":"ESQUINA (CNEL. MOLINEDO, DPTO. ANTA)","cp":["4449"],"lat":"-24.4718","lng":"-64.0782"},{"country_code":"AR","state_code":"A","province_code":"","name":"KILOMETRO 1104 (APEADERO FCGB)","cp":["4449"],"lat":"-24.4718","lng":"-64.0782"},{"country_code":"AR","state_code":"A","province_code":"","name":"LAGUNA VERDE","cp":["4449"],"lat":"-24.4718","lng":"-64.0782"},{"country_code":"AR","state_code":"A","province_code":"","name":"TACO PAMPA","cp":["4452"],"lat":"-25.4909","lng":"-63.8333"},{"country_code":"AR","state_code":"A","province_code":"","name":"PRINGLES","cp":["4452"],"lat":"-25.4909","lng":"-63.8333"},{"country_code":"AR","state_code":"A","province_code":"","name":"LLUCHA","cp":["4452"],"lat":"-25.4909","lng":"-63.8333"},{"country_code":"AR","state_code":"A","province_code":"","name":"ROCA","cp":["4452"],"lat":"-25.4909","lng":"-63.8333"},{"country_code":"AR","state_code":"A","province_code":"","name":"MANGA VIEJA","cp":["4452"],"lat":"-25.4909","lng":"-63.8333"},{"country_code":"AR","state_code":"A","province_code":"","name":"TORO PAMPA","cp":["4452"],"lat":"-25.4909","lng":"-63.8333"},{"country_code":"AR","state_code":"A","province_code":"","name":"SANTA ROSA DE ANTA","cp":["4452"],"lat":"-25.4909","lng":"-63.8333"},{"country_code":"AR","state_code":"A","province_code":"","name":"FLORESTA","cp":["4452"],"lat":"-25.4909","lng":"-63.8333"},{"country_code":"AR","state_code":"A","province_code":"","name":"SAN GABRIEL","cp":["4452"],"lat":"-25.4909","lng":"-63.8333"},{"country_code":"AR","state_code":"A","province_code":"","name":"FUERTE EL PITO","cp":["4452"],"lat":"-25.4909","lng":"-63.8333"},{"country_code":"AR","state_code":"A","province_code":"","name":"KILOMETRO 1152 (APEADERO FCGB)","cp":["4452"],"lat":"-25.4909","lng":"-63.8333"},{"country_code":"AR","state_code":"A","province_code":"","name":"VENCIDA","cp":["4452"],"lat":"-25.4909","lng":"-63.8333"},{"country_code":"AR","state_code":"A","province_code":"","name":"VINAL POZO","cp":["4452"],"lat":"-25.4909","lng":"-63.8333"},{"country_code":"AR","state_code":"A","province_code":"","name":"EL VENCIDO","cp":["4452"],"lat":"-25.4909","lng":"-63.8333"},{"country_code":"AR","state_code":"A","province_code":"","name":"ALGARROBAL (MACAPILLO, DPTO. ANTA)","cp":["4452"],"lat":"-25.4909","lng":"-63.8333"},{"country_code":"AR","state_code":"A","province_code":"","name":"SIMBOLAR (MACAPILLO, DPTO. ANTA)","cp":["4452"],"lat":"-25.4909","lng":"-63.8333"},{"country_code":"AR","state_code":"A","province_code":"","name":"SUNCHALITO","cp":["4452"],"lat":"-25.4909","lng":"-63.8333"},{"country_code":"AR","state_code":"A","province_code":"","name":"TOLLOCHE","cp":["4452"],"lat":"-25.5","lng":"-63.5333"},{"country_code":"AR","state_code":"A","province_code":"","name":"QUEBRACHAL","cp":["4452"],"lat":"-25.2833","lng":"-64.0667"},{"country_code":"AR","state_code":"A","province_code":"","name":"NUESTRA SE\u00d1ORA DE TALAVERA","cp":["4452"],"lat":"-25.4333","lng":"-63.8"},{"country_code":"AR","state_code":"A","province_code":"","name":"MACAPILLO","cp":["4452"],"lat":"-25.3667","lng":"-64.0167"},{"country_code":"AR","state_code":"A","province_code":"","name":"EL QUEBRACHAL","cp":["4452"],"lat":"-25.2833","lng":"-64.0667"},{"country_code":"AR","state_code":"A","province_code":"","name":"GAONA","cp":["4452"],"lat":"-25.2","lng":"-64.0833"},{"country_code":"AR","state_code":"A","province_code":"","name":"TALAVERA","cp":["4452"],"lat":"-25.4333","lng":"-63.8"},{"country_code":"AR","state_code":"A","province_code":"","name":"RIO PESCADO","cp":["4530"],"lat":"-22.8833","lng":"-64.45"},{"country_code":"AR","state_code":"A","province_code":"","name":"SAN IGNACIO","cp":["4530"],"lat":"-23.8667","lng":"-63.3667"},{"country_code":"AR","state_code":"A","province_code":"","name":"LIMONCITO","cp":["4530"],"lat":"-23.2496","lng":"-64.2737"},{"country_code":"AR","state_code":"A","province_code":"","name":"PARANI","cp":["4530"],"lat":"-23.2333","lng":"-64.9"},{"country_code":"AR","state_code":"A","province_code":"","name":"ORAN","cp":["4530"],"lat":"-23.1322","lng":"-64.326"},{"country_code":"AR","state_code":"A","province_code":"","name":"SAN RAMON DE LA NUEVA ORAN","cp":["4530"],"lat":"-23.1322","lng":"-64.326"},{"country_code":"AR","state_code":"A","province_code":"","name":"RIO DE LAS PIEDRAS (SAN RAMON DE LA NUEVA ORAN, DPTO. ORAN)","cp":["4530"],"lat":"-23.2496","lng":"-64.2737"},{"country_code":"AR","state_code":"A","province_code":"","name":"SAN ANTONIO (SAN RAMON DE LA NUEVA ORAN, DPTO.ORAN)","cp":["4530"],"lat":"-23.2496","lng":"-64.2737"},{"country_code":"AR","state_code":"A","province_code":"","name":"SAN BERNARDO (SAN RAMON DE LA NUEVA ORAN, DPTO. ORAN)","cp":["4530"],"lat":"-23.2496","lng":"-64.2737"},{"country_code":"AR","state_code":"A","province_code":"","name":"SOLEDAD (SAN RAMON DE LA NUEVA ORAN, DPTO. ORAN)","cp":["4530"],"lat":"-23.2496","lng":"-64.2737"},{"country_code":"AR","state_code":"A","province_code":"","name":"TRES POZOS (SAN RAMON DE LA NUEVA ORAN - DPTO. ORAN)","cp":["4530"],"lat":"-23.2496","lng":"-64.2737"},{"country_code":"AR","state_code":"A","province_code":"","name":"POZO AZUL","cp":["4530"],"lat":"-23.2496","lng":"-64.2737"},{"country_code":"AR","state_code":"A","province_code":"","name":"RIO COLORADO","cp":["4530"],"lat":"-23.2496","lng":"-64.2737"},{"country_code":"AR","state_code":"A","province_code":"","name":"SAN ANDRES","cp":["4530"],"lat":"-23.2496","lng":"-64.2737"},{"country_code":"AR","state_code":"A","province_code":"","name":"FINCA MISION ZENTA","cp":["4530"],"lat":"-23.2496","lng":"-64.2737"},{"country_code":"AR","state_code":"A","province_code":"","name":"MINAS Y.P.F.","cp":["4530"],"lat":"-23.2496","lng":"-64.2737"},{"country_code":"AR","state_code":"A","province_code":"","name":"PIEDRA DEL PORTILLO","cp":["4530"],"lat":"-23.2496","lng":"-64.2737"},{"country_code":"AR","state_code":"A","province_code":"","name":"SANTA CRUZ (SAN RAMON DE LA NUEVA ORAN, DPTO. ORAN)","cp":["4531"],"lat":"-23.05","lng":"-64.4333"},{"country_code":"AR","state_code":"A","province_code":"","name":"LOS TOLDOS","cp":["4531"],"lat":"-23.05","lng":"-64.4333"},{"country_code":"AR","state_code":"A","province_code":"","name":"ISLA DE CA\u00d1AS","cp":["4531"],"lat":"-23.05","lng":"-64.4333"},{"country_code":"AR","state_code":"A","province_code":"","name":"AGUAS BLANCAS","cp":["4531"],"lat":"-22.7333","lng":"-64.3667"},{"country_code":"AR","state_code":"A","province_code":"","name":"COLONIA SANTA ROSA","cp":["4531"],"lat":"-23.3667","lng":"-64.5"},{"country_code":"AR","state_code":"A","province_code":"","name":"EL TABACAL","cp":["4533"],"lat":"-23.2667","lng":"-64.25"},{"country_code":"AR","state_code":"A","province_code":"","name":"TABACAL","cp":["4533"],"lat":"-23.2667","lng":"-64.25"},{"country_code":"AR","state_code":"A","province_code":"","name":"INGENIO SAN MARTIN (DESVIO PARTICULAR FCGB)","cp":["4533"],"lat":"-23.2667","lng":"-64.25"},{"country_code":"AR","state_code":"A","province_code":"","name":"MARIA LUISA","cp":["4533"],"lat":"-23.2667","lng":"-64.25"},{"country_code":"AR","state_code":"A","province_code":"","name":"KILOMETRO 1298 (APEADERO FCGB)","cp":["4533"],"lat":"-23.2667","lng":"-64.25"},{"country_code":"AR","state_code":"A","province_code":"","name":"HIPOLITO YRIGOYEN","cp":["4533"],"lat":"-23.2667","lng":"-64.25"},{"country_code":"AR","state_code":"A","province_code":"","name":"ANGEL PEREDO","cp":["4533"],"lat":"-23.2667","lng":"-64.25"},{"country_code":"AR","state_code":"A","province_code":"","name":"ANGELICA","cp":["4533"],"lat":"-23.2667","lng":"-64.25"},{"country_code":"AR","state_code":"A","province_code":"","name":"KILOMETRO 1281 (APEADERO FCGB)","cp":["4534"],"lat":"-23.3278","lng":"-64.0889"},{"country_code":"AR","state_code":"A","province_code":"","name":"ARBOL SOLO","cp":["4534"],"lat":"-23.3278","lng":"-64.0889"},{"country_code":"AR","state_code":"A","province_code":"","name":"SANTA ROSA (PICHANAL - DPTO. ORAN)","cp":["4534"],"lat":"-23.3278","lng":"-64.0889"},{"country_code":"AR","state_code":"A","province_code":"","name":"PUESTO DEL MEDIO","cp":["4534"],"lat":"-23.3278","lng":"-64.0889"},{"country_code":"AR","state_code":"A","province_code":"","name":"KILOMETRO 1291 (APEADERO FCGB)","cp":["4534"],"lat":"-23.3278","lng":"-64.0889"},{"country_code":"AR","state_code":"A","province_code":"","name":"YACARA","cp":["4534"],"lat":"-23.3278","lng":"-64.0889"},{"country_code":"AR","state_code":"A","province_code":"","name":"EL MISTOL","cp":["4534"],"lat":"-23.3278","lng":"-64.0889"},{"country_code":"AR","state_code":"A","province_code":"","name":"2PIZARRO","cp":["4534"],"lat":"-23.3278","lng":"-64.0889"},{"country_code":"AR","state_code":"A","province_code":"","name":"ALGARROBAL (PICHANAL, DPTO. ORAN)","cp":["4534"],"lat":"-23.3278","lng":"-64.0889"},{"country_code":"AR","state_code":"A","province_code":"","name":"KILOMETRO 1280","cp":["4534"],"lat":"-23.3278","lng":"-64.0889"},{"country_code":"AR","state_code":"A","province_code":"","name":"EL QUIMILAR","cp":["4534"],"lat":"-23.3167","lng":"-63.95"},{"country_code":"AR","state_code":"A","province_code":"","name":"PICHANAL","cp":["4534"],"lat":"-23.3167","lng":"-64.2167"},{"country_code":"AR","state_code":"A","province_code":"","name":"LAS VARAS","cp":["4534"],"lat":"-23.35","lng":"-64.1"},{"country_code":"AR","state_code":"A","province_code":"","name":"PORONGAL","cp":["4535"],"lat":"-22.6","lng":"-64.6833"},{"country_code":"AR","state_code":"A","province_code":"","name":"EL DESTIERRO","cp":["4535"],"lat":"-24.1167","lng":"-62.4667"},{"country_code":"AR","state_code":"A","province_code":"","name":"MOLLINEDO","cp":["4535"],"lat":"-24.5167","lng":"-64.1333"},{"country_code":"AR","state_code":"A","province_code":"","name":"MARTIN GARCIA","cp":["4535"],"lat":"-24.2","lng":"-62.7333"},{"country_code":"AR","state_code":"A","province_code":"","name":"AGUAS MUERTAS","cp":["4535"],"lat":"-24.2","lng":"-62.6833"},{"country_code":"AR","state_code":"A","province_code":"","name":"PALMARCITO","cp":["4535"],"lat":"-24.3667","lng":"-62.35"},{"country_code":"AR","state_code":"A","province_code":"","name":"POZO DEL ZORRO","cp":["4535"],"lat":"-23.65","lng":"-63.3667"},{"country_code":"AR","state_code":"A","province_code":"","name":"VICTORICA","cp":["4535"],"lat":"-23.6167","lng":"-63.2167"},{"country_code":"AR","state_code":"A","province_code":"","name":"RIVADAVIA","cp":["4535"],"lat":"-24.1833","lng":"-62.8833"},{"country_code":"AR","state_code":"A","province_code":"","name":"LAS LLAVES","cp":["4535"],"lat":"-24.0833","lng":"-62.6833"},{"country_code":"AR","state_code":"A","province_code":"","name":"VILLA PETRONA","cp":["4535"],"lat":"-23.9533","lng":"-63.12"},{"country_code":"AR","state_code":"A","province_code":"","name":"BELLA VISTA (RIVADAVIA - DPTO. RIVADAVIA)","cp":["4535"],"lat":"-23.9533","lng":"-63.12"},{"country_code":"AR","state_code":"A","province_code":"","name":"SANTO DOMINGO (RIVADAVIA, DPTO. RIVADAVIA)","cp":["4535"],"lat":"-23.9533","lng":"-63.12"},{"country_code":"AR","state_code":"A","province_code":"","name":"PUESTO DE LA VIUDA","cp":["4535"],"lat":"-23.9533","lng":"-63.12"},{"country_code":"AR","state_code":"A","province_code":"","name":"POZO VERDE (DPTO. RIVADAVIA)","cp":["4535"],"lat":"-23.9533","lng":"-63.12"},{"country_code":"AR","state_code":"A","province_code":"","name":"POZO DEL PATO","cp":["4535"],"lat":"-23.9533","lng":"-63.12"},{"country_code":"AR","state_code":"A","province_code":"","name":"POZO CERCADO (DPTO. ORAN)","cp":["4535"],"lat":"-23.9533","lng":"-63.12"},