[{"country_code":"AT","state_code":"01","province_code":"101","name":"Eisenstadt","cp":["7000","7000","7000"],"lat":"47.85","lng":"16.55"},{"country_code":"AT","state_code":"01","province_code":"102","name":"Rust","cp":["7071"],"lat":"47.8012","lng":"16.6716"},{"country_code":"AT","state_code":"01","province_code":"103","name":"Loretto","cp":["2443"],"lat":"47.9156","lng":"16.5179"},{"country_code":"AT","state_code":"01","province_code":"103","name":"Stotzing","cp":["2443"],"lat":"47.9","lng":"16.55"},{"country_code":"AT","state_code":"01","province_code":"103","name":"Leithaprodersdorf","cp":["2443"],"lat":"47.9335","lng":"16.4791"},{"country_code":"AT","state_code":"01","province_code":"103","name":"Wimpassing an der Leitha","cp":["2485"],"lat":"47.9167","lng":"16.4333"},{"country_code":"AT","state_code":"01","province_code":"103","name":"Steinbrunn","cp":["2491"],"lat":"47.8333","lng":"16.4167"},{"country_code":"AT","state_code":"01","province_code":"103","name":"Neufeld an der Leitha","cp":["2491"],"lat":"47.8656","lng":"16.3786"},{"country_code":"AT","state_code":"01","province_code":"103","name":"Hornstein","cp":["2491"],"lat":"47.8805","lng":"16.4445"},{"country_code":"AT","state_code":"01","province_code":"103","name":"Siegendorf","cp":["7011"],"lat":"47.781","lng":"16.5423"},{"country_code":"AT","state_code":"01","province_code":"103","name":"Zagersdorf","cp":["7012"],"lat":"47.7647","lng":"16.5138"},{"country_code":"AT","state_code":"01","province_code":"103","name":"Klingenbach","cp":["7013"],"lat":"47.7728","lng":"16.5281"},{"country_code":"AT","state_code":"01","province_code":"103","name":"Zillingtal","cp":["7033","7034","7035"],"lat":"47.7997","lng":"16.3994"},{"country_code":"AT","state_code":"01","province_code":"103","name":"Steinbrunn","cp":["7035"],"lat":"47.8333","lng":"16.4167"},{"country_code":"AT","state_code":"01","province_code":"103","name":"Wulkaprodersdorf","cp":["7041"],"lat":"47.7975","lng":"16.5045"},{"country_code":"AT","state_code":"01","province_code":"103","name":"Gro\u00dfh\u00f6flein","cp":["7051"],"lat":"47.8359","lng":"16.4804"},{"country_code":"AT","state_code":"01","province_code":"103","name":"M\u00fcllendorf","cp":["7052"],"lat":"47.8394","lng":"16.4626"},{"country_code":"AT","state_code":"01","province_code":"103","name":"Hornstein","cp":["7053"],"lat":"47.8805","lng":"16.4445"},{"country_code":"AT","state_code":"01","province_code":"103","name":"Trausdorf an der Wulka","cp":["7061"],"lat":"47.8219","lng":"16.6317"},{"country_code":"AT","state_code":"01","province_code":"103","name":"Sankt Margarethen im Burgenland","cp":["7062"],"lat":"47.8034","lng":"16.6088"},{"country_code":"AT","state_code":"01","province_code":"103","name":"Oggau am Neusiedler See","cp":["7063"],"lat":"47.8333","lng":"16.6667"},{"country_code":"AT","state_code":"01","province_code":"103","name":"Oslip","cp":["7064"],"lat":"47.8291","lng":"16.6196"},{"country_code":"AT","state_code":"01","province_code":"103","name":"M\u00f6rbisch am See","cp":["7072"],"lat":"47.75","lng":"16.6667"},{"country_code":"AT","state_code":"01","province_code":"103","name":"Sch\u00fctzen am Gebirge","cp":["7081"],"lat":"47.8523","lng":"16.6233"},{"country_code":"AT","state_code":"01","province_code":"103","name":"Donnerskirchen","cp":["7082"],"lat":"47.8942","lng":"16.6463"},{"country_code":"AT","state_code":"01","province_code":"103","name":"Purbach am Neusiedler See","cp":["7083"],"lat":"47.9129","lng":"16.6956"},{"country_code":"AT","state_code":"01","province_code":"103","name":"Breitenbrunn am Neusiedler See","cp":["7091"],"lat":"47.9445","lng":"16.7315"},{"country_code":"AT","state_code":"01","province_code":"104","name":"Eberau","cp":["7521"],"lat":"47.1076","lng":"16.4604"},{"country_code":"AT","state_code":"01","province_code":"104","name":"Bildein","cp":["7521","7521"],"lat":"47.1333","lng":"16.4667"},{"country_code":"AT","state_code":"01","province_code":"104","name":"Eberau","cp":["7521","7521","7521"],"lat":"47.104","lng":"16.4524"},{"country_code":"AT","state_code":"01","province_code":"104","name":"Strem","cp":["7522"],"lat":"47.045","lng":"16.4143"},{"country_code":"AT","state_code":"01","province_code":"104","name":"Heiligenbrunn","cp":["7522"],"lat":"47.0139","lng":"16.4794"},{"country_code":"AT","state_code":"01","province_code":"104","name":"Strem","cp":["7522","7522","7522"],"lat":"47.0445","lng":"16.3935"},{"country_code":"AT","state_code":"01","province_code":"104","name":"Heiligenbrunn","cp":["7522","7522"],"lat":"47.0145","lng":"16.4554"},{"country_code":"AT","state_code":"01","province_code":"104","name":"Eberau","cp":["7522"],"lat":"47.1175","lng":"16.4024"},{"country_code":"AT","state_code":"01","province_code":"104","name":"Heiligenbrunn","cp":["7522","7522"],"lat":"47.027","lng":"16.4169"},{"country_code":"AT","state_code":"01","province_code":"104","name":"Ollersdorf im Burgenland","cp":["7533"],"lat":"47.1833","lng":"16.1667"},{"country_code":"AT","state_code":"01","province_code":"104","name":"Olbendorf","cp":["7534"],"lat":"47.1833","lng":"16.2"},{"country_code":"AT","state_code":"01","province_code":"104","name":"Rauchwart","cp":["7534"],"lat":"47.1333","lng":"16.2333"},{"country_code":"AT","state_code":"01","province_code":"104","name":"Sankt Michael im Burgenland","cp":["7535"],"lat":"47.1167","lng":"16.25"},{"country_code":"AT","state_code":"01","province_code":"104","name":"Rauchwart","cp":["7535"],"lat":"47.1333","lng":"16.2333"},{"country_code":"AT","state_code":"01","province_code":"104","name":"Sankt Michael im Burgenland","cp":["7535","7535"],"lat":"47.1078","lng":"16.2591"},{"country_code":"AT","state_code":"01","province_code":"104","name":"G\u00fcttenbach","cp":["7536"],"lat":"47.1667","lng":"16.3"},{"country_code":"AT","state_code":"01","province_code":"104","name":"Neuberg im Burgenland","cp":["7537"],"lat":"47.1591","lng":"16.2209"},{"country_code":"AT","state_code":"01","province_code":"104","name":"Tschanigraben","cp":["7540"],"lat":"47.0677","lng":"16.2921"},{"country_code":"AT","state_code":"01","province_code":"104","name":"G\u00fcssing","cp":["7540"],"lat":"47.0462","lng":"16.3323"},{"country_code":"AT","state_code":"01","province_code":"104","name":"Gerersdorf-Sulz","cp":["7540"],"lat":"47.0748","lng":"16.2696"},{"country_code":"AT","state_code":"01","province_code":"104","name":"Kleinm\u00fcrbisch","cp":["7540"],"lat":"47.033","lng":"16.3245"},{"country_code":"AT","state_code":"01","province_code":"104","name":"Inzenhof","cp":["7540"],"lat":"47.0167","lng":"16.3167"},{"country_code":"AT","state_code":"01","province_code":"104","name":"G\u00fcssing","cp":["7540","7540"],"lat":"47.0433","lng":"16.3575"},{"country_code":"AT","state_code":"01","province_code":"104","name":"Gro\u00dfm\u00fcrbisch","cp":["7540"],"lat":"47.0164","lng":"16.362"},{"country_code":"AT","state_code":"01","province_code":"104","name":"G\u00fcssing","cp":["7540","7540"],"lat":"47.0594","lng":"16.3243"},{"country_code":"AT","state_code":"01","province_code":"104","name":"Moschendorf","cp":["7540"],"lat":"47.0584","lng":"16.4773"},{"country_code":"AT","state_code":"01","province_code":"104","name":"Neustift bei G\u00fcssing","cp":["7540"],"lat":"47.0167","lng":"16.2667"},{"country_code":"AT","state_code":"01","province_code":"104","name":"Gerersdorf-Sulz","cp":["7540"],"lat":"47.0833","lng":"16.2333"},{"country_code":"AT","state_code":"01","province_code":"104","name":"G\u00fcssing","cp":["7542"],"lat":"47.0643","lng":"16.2743"},{"country_code":"AT","state_code":"01","province_code":"104","name":"Gerersdorf-Sulz","cp":["7542","7542"],"lat":"47.0667","lng":"16.25"},{"country_code":"AT","state_code":"01","province_code":"104","name":"Kukmirn","cp":["7543","7543","7543","7543"],"lat":"47.1","lng":"16.2"},{"country_code":"AT","state_code":"01","province_code":"104","name":"Tobaj","cp":["7544","7544","7544","7544","7544","7544"],"lat":"47.0974","lng":"16.2864"},{"country_code":"AT","state_code":"01","province_code":"104","name":"Heugraben","cp":["7551"],"lat":"47.1167","lng":"16.1833"},{"country_code":"AT","state_code":"01","province_code":"104","name":"Stegersbach","cp":["7551"],"lat":"47.1667","lng":"16.1667"},{"country_code":"AT","state_code":"01","province_code":"104","name":"Rohr im Burgenland","cp":["7551"],"lat":"47.1167","lng":"16.1667"},{"country_code":"AT","state_code":"01","province_code":"104","name":"Bocksdorf","cp":["7551"],"lat":"47.1333","lng":"16.1667"},{"country_code":"AT","state_code":"01","province_code":"104","name":"Stinatz","cp":["7552"],"lat":"47.2","lng":"16.1167"},{"country_code":"AT","state_code":"01","province_code":"104","name":"Burgauberg-Neudauberg","cp":["8291"],"lat":"47.1477","lng":"16.1235"},{"country_code":"AT","state_code":"01","province_code":"104","name":"Hackerberg","cp":["8292"],"lat":"47.2","lng":"16.1167"},{"country_code":"AT","state_code":"01","province_code":"104","name":"Burgauberg-Neudauberg","cp":["8292"],"lat":"47.1717","lng":"16.1195"},{"country_code":"AT","state_code":"01","province_code":"104","name":"W\u00f6rterberg","cp":["8293"],"lat":"47.2167","lng":"16.1"},{"country_code":"AT","state_code":"01","province_code":"105","name":"Heiligenkreuz im Lafnitztal","cp":["7561","7561"],"lat":"46.9969","lng":"16.225"},{"country_code":"AT","state_code":"01","province_code":"105","name":"Eltendorf","cp":["7562","7562"],"lat":"47","lng":"16.2"},{"country_code":"AT","state_code":"01","province_code":"105","name":"K\u00f6nigsdorf","cp":["7563"],"lat":"47","lng":"16.1667"},{"country_code":"AT","state_code":"01","province_code":"105","name":"Rudersdorf","cp":["7564","7564","7571"],"lat":"47.0167","lng":"16.1333"},{"country_code":"AT","state_code":"01","province_code":"105","name":"Deutsch Kaltenbrunn","cp":["7572","7572"],"lat":"47.1244","lng":"16.1151"},{"country_code":"AT","state_code":"01","province_code":"105","name":"Jennersdorf","cp":["8282"],"lat":"46.982","lng":"16.1459"},{"country_code":"AT","state_code":"01","province_code":"105","name":"Sankt Martin an der Raab","cp":["8350"],"lat":"46.9292","lng":"16.0825"},{"country_code":"AT","state_code":"01","province_code":"105","name":"Jennersdorf","cp":["8380","8380"],"lat":"46.982","lng":"16.1459"},{"country_code":"AT","state_code":"01","province_code":"105","name":"Sankt Martin an der Raab","cp":["8380"],"lat":"46.9269","lng":"16.1667"},{"country_code":"AT","state_code":"01","province_code":"105","name":"Jennersdorf","cp":["8380","8380"],"lat":"46.9385","lng":"16.1416"},{"country_code":"AT","state_code":"01","province_code":"105","name":"Weichselbaum","cp":["8382"],"lat":"46.9715","lng":"16.1921"},{"country_code":"AT","state_code":"01","province_code":"105","name":"Mogersdorf","cp":["8382"],"lat":"46.9492","lng":"16.2322"},{"country_code":"AT","state_code":"01","province_code":"105","name":"Weichselbaum","cp":["8382"],"lat":"46.9589","lng":"16.1897"},{"country_code":"AT","state_code":"01","province_code":"105","name":"Mogersdorf","cp":["8382","8382"],"lat":"46.9719","lng":"16.2333"},{"country_code":"AT","state_code":"01","province_code":"105","name":"Weichselbaum","cp":["8382","8382"],"lat":"46.9425","lng":"16.1875"},{"country_code":"AT","state_code":"01","province_code":"105","name":"Sankt Martin an der Raab","cp":["8383","8383","8383","8383","8383","8383"],"lat":"46.9","lng":"16.1333"},{"country_code":"AT","state_code":"01","province_code":"105","name":"Minihof-Liebau","cp":["8384","8384"],"lat":"46.9173","lng":"16.1252"},{"country_code":"AT","state_code":"01","province_code":"105","name":"Sankt Martin an der Raab","cp":["8384"],"lat":"46.889","lng":"16.1203"},{"country_code":"AT","state_code":"01","province_code":"105","name":"Minihof-Liebau","cp":["8384"],"lat":"46.8908","lng":"16.0954"},{"country_code":"AT","state_code":"01","province_code":"105","name":"Neuhaus am Klausenbach","cp":["8384"],"lat":"46.8444","lng":"16.0497"},{"country_code":"AT","state_code":"01","province_code":"105","name":"M\u00fchlgraben","cp":["8385"],"lat":"46.8897","lng":"16.0408"},{"country_code":"AT","state_code":"01","province_code":"105","name":"Sankt Martin an der Raab","cp":["8385"],"lat":"46.9292","lng":"16.0825"},{"country_code":"AT","state_code":"01","province_code":"105","name":"Neuhaus am Klausenbach","cp":["8385","8385","8385","8385"],"lat":"46.85","lng":"16.0167"},{"country_code":"AT","state_code":"01","province_code":"106","name":"Loipersbach im Burgenland","cp":["7020"],"lat":"47.6966","lng":"16.4792"},{"country_code":"AT","state_code":"01","province_code":"106","name":"Baumgarten","cp":["7021"],"lat":"47.7389","lng":"16.5006"},{"country_code":"AT","state_code":"01","province_code":"106","name":"Dra\u00dfburg","cp":["7021"],"lat":"47.7465","lng":"16.4868"},{"country_code":"AT","state_code":"01","province_code":"106","name":"Schattendorf","cp":["7022"],"lat":"47.7097","lng":"16.5098"},{"country_code":"AT","state_code":"01","province_code":"106","name":"Zemendorf-St\u00f6ttera","cp":["7023"],"lat":"47.7679","lng":"16.4611"},{"country_code":"AT","state_code":"01","province_code":"106","name":"P\u00f6ttelsdorf","cp":["7023"],"lat":"47.7537","lng":"16.4386"},{"country_code":"AT","state_code":"01","province_code":"106","name":"Zemendorf-St\u00f6ttera","cp":["7023"],"lat":"47.7628","lng":"16.4511"},{"country_code":"AT","state_code":"01","province_code":"106","name":"Hirm","cp":["7024"],"lat":"47.7865","lng":"16.4546"},{"country_code":"AT","state_code":"01","province_code":"106","name":"Krensdorf","cp":["7031"],"lat":"47.7855","lng":"16.4149"},{"country_code":"AT","state_code":"01","province_code":"106","name":"Sigle\u00df","cp":["7032"],"lat":"47.7753","lng":"16.395"},{"country_code":"AT","state_code":"01","province_code":"106","name":"P\u00f6ttsching","cp":["7033"],"lat":"47.8045","lng":"16.3711"},{"country_code":"AT","state_code":"01","province_code":"106","name":"Antau","cp":["7042"],"lat":"47.7738","lng":"16.4798"},{"country_code":"AT","state_code":"01","province_code":"106","name":"Neud\u00f6rfl","cp":["7201"],"lat":"47.7966","lng":"16.2977"},{"country_code":"AT","state_code":"01","province_code":"106","name":"Bad Sauerbrunn","cp":["7202"],"lat":"47.7744","lng":"16.3284"},{"country_code":"AT","state_code":"01","province_code":"106","name":"Wiesen","cp":["7202"],"lat":"47.7378","lng":"16.338"},{"country_code":"AT","state_code":"01","province_code":"106","name":"P\u00f6ttsching","cp":["7202"],"lat":"47.8045","lng":"16.3711"},{"country_code":"AT","state_code":"01","province_code":"106","name":"Wiesen","cp":["7203"],"lat":"47.7378","lng":"16.338"},{"country_code":"AT","state_code":"01","province_code":"106","name":"Mattersburg","cp":["7210","7210"],"lat":"47.7333","lng":"16.4"},{"country_code":"AT","state_code":"01","province_code":"106","name":"Forchtenstein","cp":["7212"],"lat":"47.7116","lng":"16.3453"},{"country_code":"AT","state_code":"01","province_code":"106","name":"Marz","cp":["7221"],"lat":"47.7167","lng":"16.4167"},{"country_code":"AT","state_code":"01","province_code":"106","name":"Rohrbach bei Mattersburg","cp":["7222"],"lat":"47.7052","lng":"16.4301"},{"country_code":"AT","state_code":"01","province_code":"106","name":"Sieggraben","cp":["7223"],"lat":"47.6513","lng":"16.3799"},{"country_code":"AT","state_code":"01","province_code":"107","name":"Edelstal","cp":["2413"],"lat":"48.1","lng":"16.9833"},{"country_code":"AT","state_code":"01","province_code":"107","name":"Kittsee","cp":["2421"],"lat":"48.0925","lng":"17.0639"},{"country_code":"AT","state_code":"01","province_code":"107","name":"Pama","cp":["2422"],"lat":"48.05","lng":"17.0333"},{"country_code":"AT","state_code":"01","province_code":"107","name":"Deutsch Jahrndorf","cp":["2423"],"lat":"48.0167","lng":"17.1"},{"country_code":"AT","state_code":"01","province_code":"107","name":"Zurndorf","cp":["2424"],"lat":"47.9831","lng":"17.0031"},{"country_code":"AT","state_code":"01","province_code":"107","name":"Nickelsdorf","cp":["2425"],"lat":"47.9406","lng":"17.0694"},{"country_code":"AT","state_code":"01","province_code":"107","name":"Bruckneudorf","cp":["2460","2462","2462"],"lat":"48.0167","lng":"16.7833"},{"country_code":"AT","state_code":"01","province_code":"107","name":"Parndorf","cp":["2471"],"lat":"47.9996","lng":"16.8605"},{"country_code":"AT","state_code":"01","province_code":"107","name":"Potzneusiedl","cp":["2473"],"lat":"48.045","lng":"16.9477"},{"country_code":"AT","state_code":"01","province_code":"107","name":"Gattendorf","cp":["2474"],"lat":"48.0167","lng":"16.9833"},{"country_code":"AT","state_code":"01","province_code":"107","name":"Neudorf","cp":["2475"],"lat":"48.0167","lng":"16.9333"},{"country_code":"AT","state_code":"01","province_code":"107","name":"Winden am See","cp":["7092"],"lat":"47.95","lng":"16.75"},{"country_code":"AT","state_code":"01","province_code":"107","name":"Jois","cp":["7093"],"lat":"47.9617","lng":"16.796"},{"country_code":"AT","state_code":"01","province_code":"107","name":"Weiden am See","cp":["7100"],"lat":"47.9253","lng":"16.869"},{"country_code":"AT","state_code":"01","province_code":"107","name":"Neusiedl am See","cp":["7100"],"lat":"47.949","lng":"16.8417"},{"country_code":"AT","state_code":"01","province_code":"107","name":"Parndorf","cp":["7111"],"lat":"47.9996","lng":"16.8605"},{"country_code":"AT","state_code":"01","province_code":"107","name":"Weiden am See","cp":["7121"],"lat":"47.9253","lng":"16.869"},{"country_code":"AT","state_code":"01","province_code":"107","name":"Gols","cp":["7122"],"lat":"47.8969","lng":"16.9111"},{"country_code":"AT","state_code":"01","province_code":"107","name":"M\u00f6nchhof","cp":["7123"],"lat":"47.8802","lng":"16.9413"},{"country_code":"AT","state_code":"01","province_code":"107","name":"Halbturn","cp":["7131"],"lat":"47.8702","lng":"16.9754"},{"country_code":"AT","state_code":"01","province_code":"107","name":"Frauenkirchen","cp":["7132"],"lat":"47.8368","lng":"16.9258"},{"country_code":"AT","state_code":"01","province_code":"107","name":"Apetlon","cp":["7132"],"lat":"47.7439","lng":"16.8302"},{"country_code":"AT","state_code":"01","province_code":"107","name":"Podersdorf am See","cp":["7141"],"lat":"47.8541","lng":"16.8371"},{"country_code":"AT","state_code":"01","province_code":"107","name":"Illmitz","cp":["7142"],"lat":"47.7615","lng":"16.8002"},{"country_code":"AT","state_code":"01","province_code":"107","name":"Apetlon","cp":["7143"],"lat":"47.7439","lng":"16.8302"},{"country_code":"AT","state_code":"01","province_code":"107","name":"Wallern im Burgenland","cp":["7151"],"lat":"47.7285","lng":"16.9371"},{"country_code":"AT","state_code":"01","province_code":"107","name":"Pamhagen","cp":["7152"],"lat":"47.7009","lng":"16.9078"},{"country_code":"AT","state_code":"01","province_code":"107","name":"Wallern im Burgenland","cp":["7152"],"lat":"47.7285","lng":"16.9371"},{"country_code":"AT","state_code":"01","province_code":"107","name":"Sankt Andr\u00e4 am Zicksee","cp":["7161"],"lat":"47.7841","lng":"16.9419"},{"country_code":"AT","state_code":"01","province_code":"107","name":"Apetlon","cp":["7161"],"lat":"47.7439","lng":"16.8302"},{"country_code":"AT","state_code":"01","province_code":"107","name":"Tadten","cp":["7162"],"lat":"47.7667","lng":"16.9833"},{"country_code":"AT","state_code":"01","province_code":"107","name":"Andau","cp":["7163"],"lat":"47.7744","lng":"17.0329"},{"country_code":"AT","state_code":"01","province_code":"108","name":"Markt Sankt Martin","cp":["2812"],"lat":"47.5583","lng":"16.3314"},{"country_code":"AT","state_code":"01","province_code":"108","name":"Deutschkreutz","cp":["7301","7301"],"lat":"47.6","lng":"16.6333"},{"country_code":"AT","state_code":"01","province_code":"108","name":"Nikitsch","cp":["7302","7302"],"lat":"47.5362","lng":"16.6602"},{"country_code":"AT","state_code":"01","province_code":"108","name":"Gro\u00dfwarasdorf","cp":["7304","7304","7304"],"lat":"47.5036","lng":"16.5436"},{"country_code":"AT","state_code":"01","province_code":"108","name":"Oberpullendorf","cp":["7304"],"lat":"47.4933","lng":"16.5213"},{"country_code":"AT","state_code":"01","province_code":"108","name":"Gro\u00dfwarasdorf","cp":["7304"],"lat":"47.5391","lng":"16.553"},{"country_code":"AT","state_code":"01","province_code":"108","name":"Neckenmarkt","cp":["7311","7311"],"lat":"47.5996","lng":"16.5467"},{"country_code":"AT","state_code":"01","province_code":"108","name":"Horitschon","cp":["7312","7312"],"lat":"47.5905","lng":"16.582"},{"country_code":"AT","state_code":"01","province_code":"108","name":"Lackendorf","cp":["7321"],"lat":"47.59","lng":"16.504"},{"country_code":"AT","state_code":"01","province_code":"108","name":"Raiding","cp":["7321"],"lat":"47.5658","lng":"16.5306"},{"country_code":"AT","state_code":"01","province_code":"108","name":"Unterfrauenhaid","cp":["7321"],"lat":"47.5712","lng":"16.4988"},{"country_code":"AT","state_code":"01","province_code":"108","name":"Lackenbach","cp":["7322"],"lat":"47.5904","lng":"16.4653"},{"country_code":"AT","state_code":"01","province_code":"108","name":"Ritzing","cp":["7323"],"lat":"47.6132","lng":"16.4955"},{"country_code":"AT","state_code":"01","province_code":"108","name":"Weppersdorf","cp":["7331","7331","7331"],"lat":"47.6077","lng":"16.4057"},{"country_code":"AT","state_code":"01","province_code":"108","name":"Kobersdorf","cp":["7332","7332","7341"],"lat":"47.6155","lng":"16.3765"},{"country_code":"AT","state_code":"01","province_code":"108","name":"Markt Sankt Martin","cp":["7341","7341","7341"],"lat":"47.5583","lng":"16.3314"},{"country_code":"AT","state_code":"01","province_code":"108","name":"Kaisersdorf","cp":["7342"],"lat":"47.5374","lng":"16.392"},{"country_code":"AT","state_code":"01","province_code":"108","name":"Neutal","cp":["7343"],"lat":"47.5455","lng":"16.4462"},{"country_code":"AT","state_code":"01","province_code":"108","name":"Stoob","cp":["7344"],"lat":"47.5284","lng":"16.4776"},{"country_code":"AT","state_code":"01","province_code":"108","name":"Oberpullendorf","cp":["7350"],"lat":"47.4933","lng":"16.5213"},{"country_code":"AT","state_code":"01","province_code":"108","name":"Stoob","cp":["7350"],"lat":"47.5284","lng":"16.4776"},{"country_code":"AT","state_code":"01","province_code":"108","name":"Oberpullendorf","cp":["7350"],"lat":"47.5108","lng":"16.4994"},{"country_code":"AT","state_code":"01","province_code":"108","name":"Lutzmannsburg","cp":["7361","7361"],"lat":"47.4578","lng":"16.6191"},{"country_code":"AT","state_code":"01","province_code":"108","name":"Nikitsch","cp":["7361"],"lat":"47.4914","lng":"16.6102"},{"country_code":"AT","state_code":"01","province_code":"108","name":"Frankenau-Unterpullendorf","cp":["7361"],"lat":"47.45","lng":"16.6"},{"country_code":"AT","state_code":"01","province_code":"108","name":"Dra\u00dfmarkt","cp":["7371"],"lat":"47.4929","lng":"16.3544"},{"country_code":"AT","state_code":"01","province_code":"108","name":"Unterrabnitz-Schwendgraben","cp":["7371","7371"],"lat":"47.4539","lng":"16.3768"},{"country_code":"AT","state_code":"01","province_code":"108","name":"Dra\u00dfmarkt","cp":["7372","7372"],"lat":"47.5089","lng":"16.3464"},{"country_code":"AT","state_code":"01","province_code":"108","name":"Piringsdorf","cp":["7373"],"lat":"47.4483","lng":"16.4152"},{"country_code":"AT","state_code":"01","province_code":"108","name":"Weingraben","cp":["7374"],"lat":"47.5139","lng":"16.3637"},{"country_code":"AT","state_code":"01","province_code":"108","name":"Pilgersdorf","cp":["7441","7441","7441","7441","7441","7441","7441"],"lat":"47.4453","lng":"16.2987"},{"country_code":"AT","state_code":"01","province_code":"108","name":"Lockenhaus","cp":["7442","7442","7442","7442","7442"],"lat":"47.4075","lng":"16.4162"},{"country_code":"AT","state_code":"01","province_code":"108","name":"Mannersdorf an der Rabnitz","cp":["7443","7443","7444","7444","7444"],"lat":"47.4136","lng":"16.4945"},{"country_code":"AT","state_code":"01","province_code":"108","name":"Oberloisdorf","cp":["7451"],"lat":"47.4474","lng":"16.5076"},{"country_code":"AT","state_code":"01","province_code":"108","name":"Frankenau-Unterpullendorf","cp":["7452","7452","7452"],"lat":"47.4667","lng":"16.5833"},{"country_code":"AT","state_code":"01","province_code":"108","name":"Steinberg-D\u00f6rfl","cp":["7453","7453"],"lat":"47.4833","lng":"16.4833"},{"country_code":"AT","state_code":"01","province_code":"109","name":"Obersch\u00fctzen","cp":["2852"],"lat":"47.4","lng":"16.2"},{"country_code":"AT","state_code":"01","province_code":"109","name":"Bernstein","cp":["2852"],"lat":"47.4207","lng":"16.2199"},{"country_code":"AT","state_code":"01","province_code":"109","name":"Obersch\u00fctzen","cp":["7400","7400"],"lat":"47.3189","lng":"16.2037"},{"country_code":"AT","state_code":"01","province_code":"109","name":"Oberwart","cp":["7400"],"lat":"47.3214","lng":"16.2248"},{"country_code":"AT","state_code":"01","province_code":"109","name":"Stadtschlaining","cp":["7400"],"lat":"47.3167","lng":"16.25"},{"country_code":"AT","state_code":"01","province_code":"109","name":"Oberwart","cp":["7400"],"lat":"47.2988","lng":"16.2381"},{"country_code":"AT","state_code":"01","province_code":"109","name":"Loipersdorf-Kitzladen","cp":["7410","7410"],"lat":"47.3333","lng":"16.0833"},{"country_code":"AT","state_code":"01","province_code":"109","name":"Markt Allhau","cp":["7411","7411"],"lat":"47.3167","lng":"16.1"},{"country_code":"AT","state_code":"01","province_code":"109","name":"Wolfau","cp":["7412"],"lat":"47.25","lng":"16.1"},{"country_code":"AT","state_code":"01","province_code":"109","name":"Riedlingsdorf","cp":["7422"],"lat":"47.35","lng":"16.1333"},{"country_code":"AT","state_code":"01","province_code":"109","name":"Wiesfleck","cp":["7423"],"lat":"47.3833","lng":"16.1333"},{"country_code":"AT","state_code":"01","province_code":"109","name":"Pinkafeld","cp":["7423"],"lat":"47.3667","lng":"16.1167"},{"country_code":"AT","state_code":"01","province_code":"109","name":"Grafenschachen","cp":["7423","7423"],"lat":"47.3667","lng":"16.0667"},{"country_code":"AT","state_code":"01","province_code":"109","name":"Wiesfleck","cp":["7423","7423"],"lat":"47.4167","lng":"16.1667"},{"country_code":"AT","state_code":"01","province_code":"109","name":"Pinkafeld","cp":["7423"],"lat":"47.4","lng":"16.1167"},{"country_code":"AT","state_code":"01","province_code":"109","name":"Wiesfleck","cp":["7423"],"lat":"47.3909","lng":"16.1669"},{"country_code":"AT","state_code":"01","province_code":"109","name":"Neustift an der Lafnitz","cp":["7423"],"lat":"47.3667","lng":"16.0333"},{"country_code":"AT","state_code":"01","province_code":"109","name":"Bad Tatzmannsdorf","cp":["7431","7431"],"lat":"47.3823","lng":"16.2523"},{"country_code":"AT","state_code":"01","province_code":"109","name":"Obersch\u00fctzen","cp":["7431"],"lat":"47.3514","lng":"16.2073"},{"country_code":"AT","state_code":"01","province_code":"109","name":"Bad Tatzmannsdorf","cp":["7431"],"lat":"47.35","lng":"16.2167"},{"country_code":"AT","state_code":"01","province_code":"109","name":"Obersch\u00fctzen","cp":["7432","7432","7432","7432"],"lat":"47.3514","lng":"16.2073"},{"country_code":"AT","state_code":"01","province_code":"109","name":"Mariasdorf","cp":["7433","7433","7433","7433","7433"],"lat":"47.4","lng":"16.2167"},{"country_code":"AT","state_code":"01","province_code":"109","name":"Bernstein","cp":["7434","7434","7434","7434","7434"],"lat":"47.4","lng":"16.25"},{"country_code":"AT","state_code":"01","province_code":"109","name":"Unterkohlst\u00e4tten","cp":["7434","7435","7435","7435","7435","7435"],"lat":"47.3833","lng":"16.3"},{"country_code":"AT","state_code":"01","province_code":"109","name":"Weiden bei Rechnitz","cp":["7461","7461"],"lat":"47.3167","lng":"16.3167"},{"country_code":"AT","state_code":"01","province_code":"109","name":"Stadtschlaining","cp":["7461","7461","7461"],"lat":"47.2962","lng":"16.2981"},{"country_code":"AT","state_code":"01","province_code":"109","name":"Weiden bei Rechnitz","cp":["7461"],"lat":"47.3213","lng":"16.3086"},{"country_code":"AT","state_code":"01","province_code":"109","name":"Stadtschlaining","cp":["7461"],"lat":"47.3167","lng":"16.2833"},{"country_code":"AT","state_code":"01","province_code":"109","name":"Weiden bei Rechnitz","cp":["7461","7461","7463","7463","7463","7463","7463"],"lat":"47.3126","lng":"16.3281"},{"country_code":"AT","state_code":"01","province_code":"109","name":"Markt Neuhodis","cp":["7464","7464"],"lat":"47.2956","lng":"16.3956"},{"country_code":"AT","state_code":"01","province_code":"109","name":"Rechnitz","cp":["7471"],"lat":"47.3047","lng":"16.441"},{"country_code":"AT","state_code":"01","province_code":"109","name":"Schandorf","cp":["7472"],"lat":"47.2418","lng":"16.4227"},{"country_code":"AT","state_code":"01","province_code":"109","name":"Schachendorf","cp":["7472","7472"],"lat":"47.2667","lng":"16.4333"},{"country_code":"AT","state_code":"01","province_code":"109","name":"Hannersdorf","cp":["7473","7473","7473"],"lat":"47.2","lng":"16.3833"},{"country_code":"AT","state_code":"01","province_code":"109","name":"Deutsch Sch\u00fctzen-Eisenberg","cp":["7474","7474"],"lat":"47.139","lng":"16.4154"},{"country_code":"AT","state_code":"01","province_code":"109","name":"Hannersdorf","cp":["7474"],"lat":"47.2167","lng":"16.4"},{"country_code":"AT","state_code":"01","province_code":"109","name":"Deutsch Sch\u00fctzen-Eisenberg","cp":["7474","7474","7474"],"lat":"47.1349","lng":"16.4351"},{"country_code":"AT","state_code":"01","province_code":"109","name":"Rotenturm an der Pinka","cp":["7501","7501"],"lat":"47.2485","lng":"16.2906"},{"country_code":"AT","state_code":"01","province_code":"109","name":"Unterwart","cp":["7501"],"lat":"47.2485","lng":"16.2906"},{"country_code":"AT","state_code":"01","province_code":"109","name":"Oberdorf im Burgenland","cp":["7501"],"lat":"47.2167","lng":"16.2167"},{"country_code":"AT","state_code":"01","province_code":"109","name":"Unterwart","cp":["7501"],"lat":"47.2833","lng":"16.2667"},{"country_code":"AT","state_code":"01","province_code":"109","name":"Rotenturm an der Pinka","cp":["7501"],"lat":"47.281","lng":"16.2808"},{"country_code":"AT","state_code":"01","province_code":"109","name":"Gro\u00dfpetersdorf","cp":["7503","7503"],"lat":"47.2389","lng":"16.3178"},{"country_code":"AT","state_code":"01","province_code":"109","name":"Schachendorf","cp":["7503"],"lat":"47.2485","lng":"16.2906"},{"country_code":"AT","state_code":"01","province_code":"109","name":"Gro\u00dfpetersdorf","cp":["7503","7503","7503"],"lat":"47.2167","lng":"16.3333"},{"country_code":"AT","state_code":"01","province_code":"109","name":"Weiden bei Rechnitz","cp":["7503"],"lat":"47.2485","lng":"16.2906"},{"country_code":"AT","state_code":"01","province_code":"109","name":"Jabing","cp":["7503"],"lat":"47.25","lng":"16.2833"},{"country_code":"AT","state_code":"01","province_code":"109","name":"Mischendorf","cp":["7511","7511","7511","7511","7511","7511"],"lat":"47.1833","lng":"16.3167"},{"country_code":"AT","state_code":"01","province_code":"109","name":"Badersdorf","cp":["7512"],"lat":"47.2","lng":"16.3667"},{"country_code":"AT","state_code":"01","province_code":"109","name":"Kohfidisch","cp":["7512","7512","7512"],"lat":"47.1478","lng":"16.3823"},{"country_code":"AT","state_code":"01","province_code":"109","name":"Kemeten","cp":["7531"],"lat":"47.2333","lng":"16.15"},{"country_code":"AT","state_code":"01","province_code":"109","name":"Litzelsdorf","cp":["7532"],"lat":"47.2","lng":"16.15"},{"country_code":"AT","state_code":"01","province_code":"109","name":"Pinkafeld","cp":["8240"],"lat":"47.3667","lng":"16.1167"},{"country_code":"AT","state_code":"02","province_code":"201","name":"Klagenfurt am W\u00f6rthersee","cp":["9020","9020","9020","9020","9020","9020","9020","9020","9020","9020","9020","9020","9020","9020","9061","9061","9063","9065","9073","9073","9201"],"lat":"46.6506","lng":"14.3539"},{"country_code":"AT","state_code":"02","province_code":"202","name":"Villach","cp":["9500","9500","9500","9500","9500","9500","9500","9500","9500","9500","9500","9500","9500","9500","9500","9500","9500","9500","9500","9500","9500","9500","9500","9500","9500","9500","9500","9500","9500","9500","9500","9500","9500","9500","9500","9500","9500","9504","9504","9504","9523","9523","9523","9523","9523","9523","9523","9523","9524","9524","9524","9524","9580","9580","9580","9580","9580","9580","9580","9580","9580","9580","9585","9586","9586","9586","9586","9587"],"lat":"46.6173","lng":"13.8349"},{"country_code":"AT","state_code":"02","province_code":"203","name":"St. Stefan im Gailtal","cp":["9614","9614"],"lat":"46.5969","lng":"13.5233"},{"country_code":"AT","state_code":"02","province_code":"203","name":"Hermagor-Pressegger See","cp":["9615"],"lat":"46.5974","lng":"13.5657"},{"country_code":"AT","state_code":"02","province_code":"203","name":"St. Stefan im Gailtal","cp":["9615"],"lat":"46.6167","lng":"13.5"},{"country_code":"AT","state_code":"02","province_code":"203","name":"Hermagor-Pressegger See","cp":["9615"],"lat":"46.5974","lng":"13.5657"},{"country_code":"AT","state_code":"02","province_code":"203","name":"St. Stefan im Gailtal","cp":["9615"],"lat":"46.5974","lng":"13.5657"},{"country_code":"AT","state_code":"02","province_code":"203","name":"Hermagor-Pressegger See","cp":["9615","9615","9615","9615","9615","9615","9615","9620","9620","9620","9620","9620"],"lat":"46.5974","lng":"13.5657"},{"country_code":"AT","state_code":"02","province_code":"203","name":"Gitschtal","cp":["9620","9620"],"lat":"46.65","lng":"13.3"},{"country_code":"AT","state_code":"02","province_code":"203","name":"Hermagor-Pressegger See","cp":["9620","9620"],"lat":"46.6444","lng":"13.3639"},{"country_code":"AT","state_code":"02","province_code":"203","name":"Gitschtal","cp":["9620"],"lat":"46.65","lng":"13.3167"},{"country_code":"AT","state_code":"02","province_code":"203","name":"Hermagor-Pressegger See","cp":["9620","9620"],"lat":"46.6389","lng":"13.3492"},{"country_code":"AT","state_code":"02","province_code":"203","name":"Gitschtal","cp":["9620"],"lat":"46.6619","lng":"13.3069"},{"country_code":"AT","state_code":"02","province_code":"203","name":"Hermagor-Pressegger See","cp":["9620"],"lat":"46.6272","lng":"13.3672"},{"country_code":"AT","state_code":"02","province_code":"203","name":"Gitschtal","cp":["9620"],"lat":"46.6667","lng":"13.2833"},{"country_code":"AT","state_code":"02","province_code":"203","name":"Hermagor-Pressegger See","cp":["9620","9620","9620","9620","9620","9620","9620","9620","9620","9620","9620","9620","9620","9620","9620","9620","9620","9620","9620","9620","9620","9620","9620"],"lat":"46.6194","lng":"13.31"},{"country_code":"AT","state_code":"02","province_code":"203","name":"Gitschtal","cp":["9622","9622","9622","9622","9622"],"lat":"46.6833","lng":"13.2667"},{"country_code":"AT","state_code":"02","province_code":"203","name":"St. Stefan im Gailtal","cp":["9623","9623","9623","9623","9623","9623","9623","9623","9623","9623","9623","9623","9623","9623","9623","9623","9623"],"lat":"46.6375","lng":"13.5219"},{"country_code":"AT","state_code":"02","province_code":"203","name":"Hermagor-Pressegger See","cp":["9624","9624","9624","9624","9624","9624","9624","9624","9624","9624","9624","9624","9624","9624","9631","9631","9631","9631","9631"],"lat":"46.6144","lng":"13.4086"},{"country_code":"AT","state_code":"02","province_code":"203","name":"Kirchbach","cp":["9631","9631","9631"],"lat":"46.65","lng":"13.25"},{"country_code":"AT","state_code":"02","province_code":"203","name":"Hermagor-Pressegger See","cp":["9631","9631","9631"],"lat":"46.6427","lng":"13.1595"},{"country_code":"AT","state_code":"02","province_code":"203","name":"Kirchbach","cp":["9631"],"lat":"46.6427","lng":"13.1595"},{"country_code":"AT","state_code":"02","province_code":"203","name":"Hermagor-Pressegger See","cp":["9631"],"lat":"46.6427","lng":"13.1595"},{"country_code":"AT","state_code":"02","province_code":"203","name":"Kirchbach","cp":["9632","9632","9632","9632","9632","9632","9632","9632","9632","9633","9633","9633","9633","9633","9633","9633","9634","9634","9634","9634","9634","9634","9634","9634","9634","9634","9634"],"lat":"46.6299","lng":"13.1907"},{"country_code":"AT","state_code":"02","province_code":"203","name":"Dellach","cp":["9635","9635","9635"],"lat":"46.6744","lng":"13.0703"},{"country_code":"AT","state_code":"02","province_code":"203","name":"K\u00f6tschach-Mauthen","cp":["9635"],"lat":"46.65","lng":"13.0667"},{"country_code":"AT","state_code":"02","province_code":"203","name":"Dellach","cp":["9635","9635","9635","9635"],"lat":"46.6427","lng":"13.1595"},{"country_code":"AT","state_code":"02","province_code":"203","name":"K\u00f6tschach-Mauthen","cp":["9635","9635"],"lat":"46.6427","lng":"13.1595"},{"country_code":"AT","state_code":"02","province_code":"203","name":"Dellach","cp":["9635","9635","9635"],"lat":"46.6625","lng":"13.0575"},{"country_code":"AT","state_code":"02","province_code":"203","name":"K\u00f6tschach-Mauthen","cp":["9640","9640","9640","9640","9640","9640","9640","9640","9640","9640","9640","9640","9640","9640","9640","9640"],"lat":"46.672","lng":"12.999"},{"country_code":"AT","state_code":"02","province_code":"203","name":"Dellach","cp":["9640"],"lat":"46.6666","lng":"13.0374"},{"country_code":"AT","state_code":"02","province_code":"203","name":"K\u00f6tschach-Mauthen","cp":["9640","9640","9640","9640","9640","9640","9640","9651","9651","9651","9651"],"lat":"46.6666","lng":"13.0374"},{"country_code":"AT","state_code":"02","province_code":"203","name":"Lesachtal","cp":["9652","9652"],"lat":"46.6908","lng":"12.8925"},{"country_code":"AT","state_code":"02","province_code":"203","name":"K\u00f6tschach-Mauthen","cp":["9652"],"lat":"46.6962","lng":"12.8153"},{"country_code":"AT","state_code":"02","province_code":"203","name":"Lesachtal","cp":["9652","9652","9652","9652","9653","9653","9653","9653","9653","9653","9653","9653","9653","9653","9653","9653","9654","9654","9654","9654","9654","9655","9655","9655","9655","9655","9655","9655","9655"],"lat":"46.6881","lng":"12.8683"},{"country_code":"AT","state_code":"02","province_code":"204","name":"Magdalensberg","cp":["9020","9020","9020"],"lat":"46.6506","lng":"14.3539"},{"country_code":"AT","state_code":"02","province_code":"204","name":"Maria Saal","cp":["9020"],"lat":"46.6667","lng":"14.3"},{"country_code":"AT","state_code":"02","province_code":"204","name":"Ebenthal in K\u00e4rnten","cp":["9020"],"lat":"46.6506","lng":"14.3539"},{"country_code":"AT","state_code":"02","province_code":"204","name":"Magdalensberg","cp":["9020"],"lat":"46.6556","lng":"14.3858"},{"country_code":"AT","state_code":"02","province_code":"204","name":"Ebenthal in K\u00e4rnten","cp":["9020"],"lat":"46.6167","lng":"14.4"},{"country_code":"AT","state_code":"02","province_code":"204","name":"Maria Saal","cp":["9020"],"lat":"46.6642","lng":"14.3169"},{"country_code":"AT","state_code":"02","province_code":"204","name":"Magdalensberg","cp":["9020"],"lat":"46.65","lng":"14.3667"},{"country_code":"AT","state_code":"02","province_code":"204","name":"Krumpendorf am W\u00f6rthersee","cp":["9061"],"lat":"46.65","lng":"14.2333"},{"country_code":"AT","state_code":"02","province_code":"204","name":"Moosburg","cp":["9061"],"lat":"46.6703","lng":"14.2036"},{"country_code":"AT","state_code":"02","province_code":"204","name":"Krumpendorf am W\u00f6rthersee","cp":["9061"],"lat":"46.6566","lng":"14.345"},{"country_code":"AT","state_code":"02","province_code":"204","name":"Maria Saal","cp":["9061"],"lat":"46.6667","lng":"14.3"},{"country_code":"AT","state_code":"02","province_code":"204","name":"Moosburg","cp":["9062"],"lat":"46.6566","lng":"14.345"},{"country_code":"AT","state_code":"02","province_code":"204","name":"Techelsberg am W\u00f6rther See","cp":["9062"],"lat":"46.6667","lng":"14.1167"},{"country_code":"AT","state_code":"02","province_code":"204","name":"Moosburg","cp":["9062","9062","9062","9062","9062","9062","9062","9062","9062","9062","9062","9062","9062","9062","9062","9062","9062","9062","9062","9062","9062","9062","9062","9062","9062","9062","9062","9062","9062","9062","9062","9062","9062"],"lat":"46.65","lng":"14.1833"},{"country_code":"AT","state_code":"02","province_code":"204","name":"Maria Saal","cp":["9063","9063","9063","9063","9063","9063","9063"],"lat":"46.6956","lng":"14.3672"},{"country_code":"AT","state_code":"02","province_code":"204","name":"Magdalensberg","cp":["9063"],"lat":"46.6811","lng":"14.3928"},{"country_code":"AT","state_code":"02","province_code":"204","name":"Maria Saal","cp":["9063","9063","9063","9063","9063","9063","9063","9063","9063","9063","9063","9063","9063","9063","9063","9063","9063","9063","9063","9063","9063","9063","9063","9063","9063","9063"],"lat":"46.6833","lng":"14.2833"},{"country_code":"AT","state_code":"02","province_code":"204","name":"Magdalensberg","cp":["9064","9064","9064","9064","9064","9064","9064","9064","9064","9064","9064","9064","9064","9064","9064","9064","9064","9064","9064","9064","9064","9064","9064","9064","9064","9064","9064","9064","9064","9064","9064","9064","9064","9064"],"lat":"46.6566","lng":"14.345"},{"country_code":"AT","state_code":"02","province_code":"204","name":"Ebenthal in K\u00e4rnten","cp":["9065","9065","9065","9065","9065","9065","9065","9065","9065","9065","9065","9065","9065","9065","9065","9065","9065","9065","9065","9065","9065","9065","9065","9065","9065","9065","9065","9065","9065","9065","9065","9065"],"lat":"46.575","lng":"14.4269"},{"country_code":"AT","state_code":"02","province_code":"204","name":"K\u00f6ttmannsdorf","cp":["9071","9071","9071","9071","9071","9071","9071","9071","9071","9071","9071","9071","9071"],"lat":"46.5662","lng":"14.1898"},{"country_code":"AT","state_code":"02","province_code":"204","name":"Ludmannsdorf","cp":["9072","9072","9072","9072","9072","9072","9072","9072","9072","9072","9072","9072","9072","9072","9072","9072","9072"],"lat":"46.55","lng":"14.1"},{"country_code":"AT","state_code":"02","province_code":"204","name":"Maria W\u00f6rth","cp":["9073"],"lat":"46.5662","lng":"14.1898"},{"country_code":"AT","state_code":"02","province_code":"204","name":"K\u00f6ttmannsdorf","cp":["9073","9073","9073","9073","9073","9073"],"lat":"46.5662","lng":"14.1898"},{"country_code":"AT","state_code":"02","province_code":"204","name":"Keutschach am See","cp":["9074","9074","9074","9074","9074","9074","9074","9074","9074","9074","9074","9074","9074","9074","9074"],"lat":"46.5931","lng":"14.1889"},{"country_code":"AT","state_code":"02","province_code":"204","name":"Maria W\u00f6rth","cp":["9081","9081","9081","9081","9082","9082","9082"],"lat":"46.6118","lng":"14.1724"},{"country_code":"AT","state_code":"02","province_code":"204","name":"Poggersdorf","cp":["9130","9130","9130","9130","9130","9130","9130","9130","9130","9130","9130","9130","9130","9130","9130","9130","9130","9130","9130","9130","9130","9130","9130","9130"],"lat":"46.5782","lng":"14.5256"},{"country_code":"AT","state_code":"02","province_code":"204","name":"Grafenstein","cp":["9131","9131","9131","9131","9131","9131","9131"],"lat":"46.6","lng":"14.5"},{"country_code":"AT","state_code":"02","province_code":"204","name":"Poggersdorf","cp":["9131"],"lat":"46.6397","lng":"14.4286"},{"country_code":"AT","state_code":"02","province_code":"204","name":"Grafenstein","cp":["9131","9131","9131","9131","9131","9131","9131","9131","9131","9131","9131","9131","9131","9131","9131","9131","9131","9131","9131","9131","9131","9131","9131","9131"],"lat":"46.6","lng":"14.4667"},{"country_code":"AT","state_code":"02","province_code":"204","name":"K\u00f6ttmannsdorf","cp":["9161","9161","9161"],"lat":"46.5408","lng":"14.2827"},{"country_code":"AT","state_code":"02","province_code":"204","name":"Maria Rain","cp":["9161"],"lat":"46.5667","lng":"14.3"},{"country_code":"AT","state_code":"02","province_code":"204","name":"K\u00f6ttmannsdorf","cp":["9161"],"lat":"46.5408","lng":"14.2827"},{"country_code":"AT","state_code":"02","province_code":"204","name":"Maria Rain","cp":["9161","9161"],"lat":"46.55","lng":"14.3333"},{"country_code":"AT","state_code":"02","province_code":"204","name":"K\u00f6ttmannsdorf","cp":["9161"],"lat":"46.5667","lng":"14.2667"},{"country_code":"AT","state_code":"02","province_code":"204","name":"Maria Rain","cp":["9161","9161"],"lat":"46.5667","lng":"14.3167"},{"country_code":"AT","state_code":"02","province_code":"204","name":"K\u00f6ttmannsdorf","cp":["9161"],"lat":"46.5408","lng":"14.2827"},{"country_code":"AT","state_code":"02","province_code":"204","name":"Maria Rain","cp":["9161","9161","9161","9161","9161","9161","9161","9161","9161","9161","9161","9161"],"lat":"46.5408","lng":"14.2827"},{"country_code":"AT","state_code":"02","province_code":"204","name":"Feistritz im Rosental","cp":["9162","9162"],"lat":"46.5364","lng":"14.23"},{"country_code":"AT","state_code":"02","province_code":"204","name":"Ferlach","cp":["9162","9162","9162","9162","9162","9162","9162"],"lat":"46.5333","lng":"14.25"},{"country_code":"AT","state_code":"02","province_code":"204","name":"Feistritz im Rosental","cp":["9162"],"lat":"46.5333","lng":"14.2"},{"country_code":"AT","state_code":"02","province_code":"204","name":"Ferlach","cp":["9163","9163","9163","9163","9163","9163","9170"],"lat":"46.5408","lng":"14.2827"},{"country_code":"AT","state_code":"02","province_code":"204","name":"Zell","cp":["9170","9170"],"lat":"46.4667","lng":"14.3333"},{"country_code":"AT","state_code":"02","province_code":"204","name":"Ferlach","cp":["9170","9170"],"lat":"46.5433","lng":"14.3206"},{"country_code":"AT","state_code":"02","province_code":"204","name":"Zell","cp":["9170"],"lat":"46.4667","lng":"14.3167"},{"country_code":"AT","state_code":"02","province_code":"204","name":"Ferlach","cp":["9170","9170","9170","9170","9170","9170"],"lat":"46.5333","lng":"14.3667"},{"country_code":"AT","state_code":"02","province_code":"204","name":"Zell","cp":["9170","9170"],"lat":"46.5189","lng":"14.375"},{"country_code":"AT","state_code":"02","province_code":"204","name":"Ferlach","cp":["9170","9170","9170","9170","9170"],"lat":"46.5189","lng":"14.375"},{"country_code":"AT","state_code":"02","province_code":"204","name":"Zell","cp":["9170"],"lat":"46.45","lng":"14.3833"},{"country_code":"AT","state_code":"02","province_code":"204","name":"St. Margareten im Rosental","cp":["9173","9173","9173"],"lat":"46.5333","lng":"14.45"},{"country_code":"AT","state_code":"02","province_code":"204","name":"Zell","cp":["9173"],"lat":"46.5108","lng":"14.4487"},{"country_code":"AT","state_code":"02","province_code":"204","name":"St. Margareten im Rosental","cp":["9173","9173","9173","9173","9173","9173","9173","9173","9173"],"lat":"46.5189","lng":"14.375"},{"country_code":"AT","state_code":"02","province_code":"204","name":"Feistritz im Rosental","cp":["9181","9181","9181"],"lat":"46.5167","lng":"14.1667"},{"country_code":"AT","state_code":"02","province_code":"204","name":"Ludmannsdorf","cp":["9181"],"lat":"46.5369","lng":"14.1747"},{"country_code":"AT","state_code":"02","province_code":"204","name":"Feistritz im Rosental","cp":["9181","9181"],"lat":"46.4667","lng":"14.15"},{"country_code":"AT","state_code":"02","province_code":"204","name":"Krumpendorf am W\u00f6rthersee","cp":["9201","9201"],"lat":"46.6333","lng":"14.2167"},{"country_code":"AT","state_code":"02","province_code":"204","name":"Moosburg","cp":["9201"],"lat":"46.6414","lng":"14.2028"},{"country_code":"AT","state_code":"02","province_code":"204","name":"P\u00f6rtschach am W\u00f6rther See","cp":["9201"],"lat":"46.6364","lng":"14.1464"},{"country_code":"AT","state_code":"02","province_code":"204","name":"Krumpendorf am W\u00f6rthersee","cp":["9210"],"lat":"46.6267","lng":"14.1853"},{"country_code":"AT","state_code":"02","province_code":"204","name":"P\u00f6rtschach am W\u00f6rther See","cp":["9210"],"lat":"46.6364","lng":"14.1464"},{"country_code":"AT","state_code":"02","province_code":"204","name":"Moosburg","cp":["9210"],"lat":"46.6333","lng":"14.1833"},{"country_code":"AT","state_code":"02","province_code":"204","name":"Techelsberg am W\u00f6rther See","cp":["9212","9212","9212","9212","9212","9212","9212","9212","9212","9212","9212","9212","9212","9212","9212","9212","9212"],"lat":"46.65","lng":"14.0833"},{"country_code":"AT","state_code":"02","province_code":"204","name":"Schiefling am W\u00f6rthersee","cp":["9220","9220"],"lat":"46.6132","lng":"14.0285"},{"country_code":"AT","state_code":"02","province_code":"204","name":"Techelsberg am W\u00f6rther See","cp":["9220"],"lat":"46.6267","lng":"14.0919"},{"country_code":"AT","state_code":"02","province_code":"204","name":"Schiefling am W\u00f6rthersee","cp":["9535","9535","9535","9535","9535","9535","9535","9535","9535","9535","9535","9535","9535","9535"],"lat":"46.6167","lng":"14.0833"},{"country_code":"AT","state_code":"02","province_code":"204","name":"Moosburg","cp":["9560","9560"],"lat":"46.6783","lng":"14.1436"},{"country_code":"AT","state_code":"02","province_code":"205","name":"H\u00fcttenberg","cp":["8820","8822","8822"],"lat":"46.9708","lng":"14.5286"},{"country_code":"AT","state_code":"02","province_code":"205","name":"Metnitz","cp":["8850","8850","8850"],"lat":"47.05","lng":"14.2"},{"country_code":"AT","state_code":"02","province_code":"205","name":"St. Veit an der Glan","cp":["9063","9063","9063","9063","9063","9063","9063","9063","9063","9063","9063","9063","9063"],"lat":"46.6986","lng":"14.3194"},{"country_code":"AT","state_code":"02","province_code":"205","name":"Br\u00fcckl","cp":["9064","9064","9064","9064","9102"],"lat":"46.7","lng":"14.4833"},{"country_code":"AT","state_code":"02","province_code":"205","name":"St. Veit an der Glan","cp":["9300"],"lat":"46.778","lng":"14.3445"},{"country_code":"AT","state_code":"02","province_code":"205","name":"Frauenstein","cp":["9300"],"lat":"46.778","lng":"14.3445"},{"country_code":"AT","state_code":"02","province_code":"205","name":"St. Veit an der Glan","cp":["9300"],"lat":"46.7372","lng":"14.395"},{"country_code":"AT","state_code":"02","province_code":"205","name":"Frauenstein","cp":["9300","9300","9300"],"lat":"46.778","lng":"14.3445"},{"country_code":"AT","state_code":"02","province_code":"205","name":"St. Veit an der Glan","cp":["9300","9300","9300"],"lat":"46.778","lng":"14.3445"},{"country_code":"AT","state_code":"02","province_code":"205","name":"Frauenstein","cp":["9300"],"lat":"46.778","lng":"14.3445"},{"country_code":"AT","state_code":"02","province_code":"205","name":"St. Georgen am L\u00e4ngsee","cp":["9300"],"lat":"46.778","lng":"14.3445"},{"country_code":"AT","state_code":"02","province_code":"205","name":"St. Veit an der Glan","cp":["9300","9300"],"lat":"46.7392","lng":"14.3583"},{"country_code":"AT","state_code":"02","province_code":"205","name":"Frauenstein","cp":["9300"],"lat":"46.7872","lng":"14.3816"},{"country_code":"AT","state_code":"02","province_code":"205","name":"St. Veit an der Glan","cp":["9300"],"lat":"46.778","lng":"14.3445"},{"country_code":"AT","state_code":"02","province_code":"205","name":"Frauenstein","cp":["9300","9300"],"lat":"46.778","lng":"14.3445"},{"country_code":"AT","state_code":"02","province_code":"205","name":"St. Veit an der Glan","cp":["9300"],"lat":"46.778","lng":"14.3445"},{"country_code":"AT","state_code":"02","province_code":"205","name":"Frauenstein","cp":["9300"],"lat":"46.8222","lng":"14.2944"},{"country_code":"AT","state_code":"02","province_code":"205","name":"St. Veit an der Glan","cp":["9300"],"lat":"46.778","lng":"14.3445"},{"country_code":"AT","state_code":"02","province_code":"205","name":"St. Georgen am L\u00e4ngsee","cp":["9300"],"lat":"46.7707","lng":"14.3905"},{"country_code":"AT","state_code":"02","province_code":"205","name":"St. Veit an der Glan","cp":["9300","9300","9300"],"lat":"46.778","lng":"14.3445"},{"country_code":"AT","state_code":"02","province_code":"205","name":"Frauenstein","cp":["9300"],"lat":"46.778","lng":"14.3445"},{"country_code":"AT","state_code":"02","province_code":"205","name":"St. Veit an der Glan","cp":["9300","9300"],"lat":"46.778","lng":"14.3445"},{"country_code":"AT","state_code":"02","province_code":"205","name":"Frauenstein","cp":["9300","9300","9300","9300"],"lat":"46.778","lng":"14.3445"},{"country_code":"AT","state_code":"02","province_code":"205","name":"St. Veit an der Glan","cp":["9300"],"lat":"46.778","lng":"14.3445"},{"country_code":"AT","state_code":"02","province_code":"205","name":"Liebenfels","cp":["9300"],"lat":"46.778","lng":"14.3445"},{"country_code":"AT","state_code":"02","province_code":"205","name":"Frauenstein","cp":["9300","9300","9300"],"lat":"46.778","lng":"14.3445"},{"country_code":"AT","state_code":"02","province_code":"205","name":"M\u00f6lbling","cp":["9300"],"lat":"46.778","lng":"14.3445"},{"country_code":"AT","state_code":"02","province_code":"205","name":"St. Georgen am L\u00e4ngsee","cp":["9300"],"lat":"46.778","lng":"14.3445"},{"country_code":"AT","state_code":"02","province_code":"205","name":"St. Veit an der Glan","cp":["9300","9300"],"lat":"46.778","lng":"14.3445"},{"country_code":"AT","state_code":"02","province_code":"205","name":"St. Georgen am L\u00e4ngsee","cp":["9300","9300"],"lat":"46.778","lng":"14.3445"},{"country_code":"AT","state_code":"02","province_code":"205","name":"St. Veit an der Glan","cp":["9300","9300"],"lat":"46.778","lng":"14.3445"},{"country_code":"AT","state_code":"02","province_code":"205","name":"Frauenstein","cp":["9300","9300","9300","9300"],"lat":"46.8167","lng":"14.3333"},{"country_code":"AT","state_code":"02","province_code":"205","name":"St. Georgen am L\u00e4ngsee","cp":["9300"],"lat":"46.7613","lng":"14.4007"},{"country_code":"AT","state_code":"02","province_code":"205","name":"Frauenstein","cp":["9300"],"lat":"46.778","lng":"14.3445"},{"country_code":"AT","state_code":"02","province_code":"205","name":"St. Veit an der Glan","cp":["9300"],"lat":"46.778","lng":"14.3445"},{"country_code":"AT","state_code":"02","province_code":"205","name":"Frauenstein","cp":["9300"],"lat":"46.778","lng":"14.3445"},{"country_code":"AT","state_code":"02","province_code":"205","name":"St. Georgen am L\u00e4ngsee","cp":["9300"],"lat":"46.783","lng":"14.3929"},{"country_code":"AT","state_code":"02","province_code":"205","name":"Frauenstein","cp":["9300"],"lat":"46.8","lng":"14.2833"},{"country_code":"AT","state_code":"02","province_code":"205","name":"St. Georgen am L\u00e4ngsee","cp":["9300"],"lat":"46.7947","lng":"14.39"},{"country_code":"AT","state_code":"02","province_code":"205","name":"Frauenstein","cp":["9300","9300","9300","9300"],"lat":"46.7833","lng":"14.3167"},{"country_code":"AT","state_code":"02","province_code":"205","name":"St. Veit an der Glan","cp":["9300"],"lat":"46.75","lng":"14.3833"},{"country_code":"AT","state_code":"02","province_code":"205","name":"Frauenstein","cp":["9300","9300","9300","9300"],"lat":"46.7758","lng":"14.3318"},{"country_code":"AT","state_code":"02","province_code":"205","name":"M\u00f6lbling","cp":["9300"],"lat":"46.8048","lng":"14.3929"},{"country_code":"AT","state_code":"02","province_code":"205","name":"St. Veit an der Glan","cp":["9300","9300"],"lat":"46.7167","lng":"14.35"},{"country_code":"AT","state_code":"02","province_code":"205","name":"Frauenstein","cp":["9300"],"lat":"46.7833","lng":"14.2833"},{"country_code":"AT","state_code":"02","province_code":"205","name":"St. Veit an der Glan","cp":["9300"],"lat":"46.7208","lng":"14.3311"},{"country_code":"AT","state_code":"02","province_code":"205","name":"Frauenstein","cp":["9300","9311","9311","9311","9311","9311","9311","9311","9311","9311","9311","9311","9311","9311","9311","9311","9311","9311","9311"],"lat":"46.8048","lng":"14.3929"},{"country_code":"AT","state_code":"02","province_code":"205","name":"M\u00f6lbling","cp":["9312"],"lat":"46.8029","lng":"14.3996"},{"country_code":"AT","state_code":"02","province_code":"205","name":"Frauenstein","cp":["9312"],"lat":"46.8333","lng":"14.3833"},{"country_code":"AT","state_code":"02","province_code":"205","name":"M\u00f6lbling","cp":["9312","9312","9312","9312","9312","9312","9312","9312","9312","9312"],"lat":"46.8333","lng":"14.3833"},{"country_code":"AT","state_code":"02","province_code":"205","name":"Frauenstein","cp":["9312"],"lat":"46.8167","lng":"14.3833"},{"country_code":"AT","state_code":"02","province_code":"205","name":"M\u00f6lbling","cp":["9312","9312","9312","9312","9312"],"lat":"46.8397","lng":"14.3978"},{"country_code":"AT","state_code":"02","province_code":"205","name":"St. Georgen am L\u00e4ngsee","cp":["9313","9313","9313","9313","9313","9313","9313","9313","9313","9313","9313","9313","9313"],"lat":"46.7922","lng":"14.4105"},{"country_code":"AT","state_code":"02","province_code":"205","name":"Kappel am Krappfeld","cp":["9314","9314"],"lat":"46.8029","lng":"14.3996"},{"country_code":"AT","state_code":"02","province_code":"205","name":"St. Georgen am L\u00e4ngsee","cp":["9314","9314"],"lat":"46.7333","lng":"14.45"},{"country_code":"AT","state_code":"02","province_code":"205","name":"Kappel am Krappfeld","cp":["9314"],"lat":"46.8029","lng":"14.3996"},{"country_code":"AT","state_code":"02","province_code":"205","name":"St. Georgen am L\u00e4ngsee","cp":["9314","9314","9314","9314","9314","9314","9314","9314"],"lat":"46.7667","lng":"14.4333"},{"country_code":"AT","state_code":"02","province_code":"205","name":"Kappel am Krappfeld","cp":["9314"],"lat":"46.8","lng":"14.4833"},{"country_code":"AT","state_code":"02","province_code":"205","name":"St. Georgen am L\u00e4ngsee","cp":["9314","9314","9314"],"lat":"46.7816","lng":"14.4739"},{"country_code":"AT","state_code":"02","province_code":"205","name":"Kappel am Krappfeld","cp":["9314"],"lat":"46.7816","lng":"14.4739"},{"country_code":"AT","state_code":"02","province_code":"205","name":"St. Georgen am L\u00e4ngsee","cp":["9314","9314","9314"],"lat":"46.7706","lng":"14.4519"},{"country_code":"AT","state_code":"02","province_code":"205","name":"Kappel am Krappfeld","cp":["9321"],"lat":"46.8167","lng":"14.4833"},{"country_code":"AT","state_code":"02","province_code":"205","name":"St. Georgen am L\u00e4ngsee","cp":["9321"],"lat":"46.8","lng":"14.45"},{"country_code":"AT","state_code":"02","province_code":"205","name":"Kappel am Krappfeld","cp":["9321","9321","9321","9321","9321","9321","9321","9321","9321","9321","9321","9321","9321","9321","9321","9321","9321","9321","9321","9321","9321","9321","9321","9321","9321","9321","9321","9321"],"lat":"46.8333","lng":"14.5167"},{"country_code":"AT","state_code":"02","province_code":"205","name":"Micheldorf","cp":["9322","9322","9322","9322","9322"],"lat":"46.8556","lng":"14.4596"},{"country_code":"AT","state_code":"02","province_code":"205","name":"Althofen","cp":["9322"],"lat":"46.8955","lng":"14.4513"},{"country_code":"AT","state_code":"02","province_code":"205","name":"M\u00f6lbling","cp":["9330"],"lat":"46.85","lng":"14.4333"},{"country_code":"AT","state_code":"02","province_code":"205","name":"Kappel am Krappfeld","cp":["9330"],"lat":"46.85","lng":"14.4667"},{"country_code":"AT","state_code":"02","province_code":"205","name":"Althofen","cp":["9330"],"lat":"46.8955","lng":"14.4513"},{"country_code":"AT","state_code":"02","province_code":"205","name":"M\u00f6lbling","cp":["9330","9330"],"lat":"46.8717","lng":"14.4223"},{"country_code":"AT","state_code":"02","province_code":"205","name":"Althofen","cp":["9330","9330"],"lat":"46.8928","lng":"14.4539"},{"country_code":"AT","state_code":"02","province_code":"205","name":"M\u00f6lbling","cp":["9330","9330"],"lat":"46.8862","lng":"14.4843"},{"country_code":"AT","state_code":"02","province_code":"205","name":"Althofen","cp":["9330","9330","9330","9330"],"lat":"46.873","lng":"14.4745"},{"country_code":"AT","state_code":"02","province_code":"205","name":"M\u00f6lbling","cp":["9330","9330"],"lat":"46.85","lng":"14.4333"},{"country_code":"AT","state_code":"02","province_code":"205","name":"Althofen","cp":["9330","9330","9330"],"lat":"46.8968","lng":"14.4599"},{"country_code":"AT","state_code":"02","province_code":"205","name":"Guttaring","cp":["9330","9334","9334","9334","9334","9334","9334","9334","9334","9334","9334","9334","9334","9334","9334","9334","9334","9334"],"lat":"46.8862","lng":"14.4843"},{"country_code":"AT","state_code":"02","province_code":"205","name":"Kappel am Krappfeld","cp":["9334"],"lat":"46.8517","lng":"14.4936"},{"country_code":"AT","state_code":"02","province_code":"205","name":"Guttaring","cp":["9334"],"lat":"46.8833","lng":"14.5167"},{"country_code":"AT","state_code":"02","province_code":"205","name":"H\u00fcttenberg","cp":["9335","9335","9335","9335","9335","9335"],"lat":"46.9167","lng":"14.55"},{"country_code":"AT","state_code":"02","province_code":"205","name":"Stra\u00dfburg","cp":["9341"],"lat":"46.8773","lng":"14.2191"},{"country_code":"AT","state_code":"02","province_code":"205","name":"M\u00f6lbling","cp":["9341"],"lat":"46.8773","lng":"14.2191"},{"country_code":"AT","state_code":"02","province_code":"205","name":"Stra\u00dfburg","cp":["9341","9341","9341","9341","9341","9341"],"lat":"46.8773","lng":"14.2191"},{"country_code":"AT","state_code":"02","province_code":"205","name":"M\u00f6lbling","cp":["9341"],"lat":"46.8667","lng":"14.3667"},{"country_code":"AT","state_code":"02","province_code":"205","name":"Stra\u00dfburg","cp":["9341","9341","9341","9341","9341","9341","9341","9341","9341","9341","9341","9341","9341","9341","9341"],"lat":"46.8773","lng":"14.2191"},{"country_code":"AT","state_code":"02","province_code":"205","name":"Gurk","cp":["9341"],"lat":"46.8773","lng":"14.2191"},{"country_code":"AT","state_code":"02","province_code":"205","name":"Stra\u00dfburg","cp":["9341","9341","9341","9341","9341"],"lat":"46.8773","lng":"14.2191"},{"country_code":"AT","state_code":"02","province_code":"205","name":"M\u00f6lbling","cp":["9341"],"lat":"46.8773","lng":"14.2191"},{"country_code":"AT","state_code":"02","province_code":"205","name":"Stra\u00dfburg","cp":["9341","9341","9341","9341","9341","9341","9341","9341","9341"],"lat":"46.8773","lng":"14.2191"},{"country_code":"AT","state_code":"02","province_code":"205","name":"M\u00f6lbling","cp":["9341"],"lat":"46.8773","lng":"14.2191"},{"country_code":"AT","state_code":"02","province_code":"205","name":"Stra\u00dfburg","cp":["9341","9341","9341","9341","9341","9341","9341","9341","9341","9341","9341","9341","9341","9341"],"lat":"46.8773","lng":"14.2191"},{"country_code":"AT","state_code":"02","province_code":"205","name":"Gurk","cp":["9342","9342","9342","9342","9342","9342","9342","9342","9342","9342","9342","9342","9342","9342","9342","9342","9342","9342","9342","9342","9342"],"lat":"46.8333","lng":"14.25"},{"country_code":"AT","state_code":"02","province_code":"205","name":"Weitensfeld im Gurktal","cp":["9343","9343","9343","9343","9343","9343","9343","9343","9343","9343","9343","9343","9343","9343","9344","9344","9344","9344","9344","9344","9344","9344","9344","9344","9344","9344","9344","9344","9344","9344","9344"],"lat":"46.8719","lng":"14.1722"},{"country_code":"AT","state_code":"02","province_code":"205","name":"Gurk","cp":["9344"],"lat":"46.8773","lng":"14.2191"},{"country_code":"AT","state_code":"02","province_code":"205","name":"Weitensfeld im Gurktal","cp":["9344","9344","9345","9345","9345","9345"],"lat":"46.8773","lng":"14.2191"},{"country_code":"AT","state_code":"02","province_code":"205","name":"Gl\u00f6dnitz","cp":["9345","9345","9345"],"lat":"46.8773","lng":"14.2191"},{"country_code":"AT","state_code":"02","province_code":"205","name":"Weitensfeld im Gurktal","cp":["9345"],"lat":"46.8773","lng":"14.2191"},{"country_code":"AT","state_code":"02","province_code":"205","name":"Gl\u00f6dnitz","cp":["9345"],"lat":"46.8773","lng":"14.2191"},{"country_code":"AT","state_code":"02","province_code":"205","name":"Weitensfeld im Gurktal","cp":["9345","9345","9345","9345"],"lat":"46.8667","lng":"14.1667"},{"country_code":"AT","state_code":"02","province_code":"205","name":"Gl\u00f6dnitz","cp":["9345","9346","9346","9346","9346","9346","9346","9346","9346","9346","9346","9346","9346","9346","9346","9346"],"lat":"46.85","lng":"14.1333"},{"country_code":"AT","state_code":"02","province_code":"205","name":"Micheldorf","cp":["9360"],"lat":"46.9325","lng":"14.4411"},{"country_code":"AT","state_code":"02","province_code":"205","name":"Friesach","cp":["9360","9360","9360","9360","9360","9360","9360","9360","9360","9360","9360","9360"],"lat":"46.9553","lng":"14.4058"},{"country_code":"AT","state_code":"02","province_code":"205","name":"Guttaring","cp":["9360"],"lat":"46.9167","lng":"14.4833"},{"country_code":"AT","state_code":"02","province_code":"205","name":"Friesach","cp":["9360","9360","9360","9360","9360"],"lat":"46.9722","lng":"14.3178"},{"country_code":"AT","state_code":"02","province_code":"205","name":"Micheldorf","cp":["9360"],"lat":"46.9167","lng":"14.4333"},{"country_code":"AT","state_code":"02","province_code":"205","name":"Friesach","cp":["9360","9360","9360","9360","9360"],"lat":"46.9806","lng":"14.4372"},{"country_code":"AT","state_code":"02","province_code":"205","name":"Micheldorf","cp":["9360"],"lat":"46.9275","lng":"14.4228"},{"country_code":"AT","state_code":"02","province_code":"205","name":"Friesach","cp":["9360","9361","9361","9361","9361","9361","9361","9361","9361","9361","9361","9361","9361","9361","9361","9361","9361","9361","9361","9361","9361","9361"],"lat":"46.9667","lng":"14.4333"},{"country_code":"AT","state_code":"02","province_code":"205","name":"Metnitz","cp":["9362","9362","9362","9362","9362","9363","9363","9363","9363","9363","9363","9363","9363","9363","9363","9363","9363","9363","9363","9363"],"lat":"46.9667","lng":"14.2833"},{"country_code":"AT","state_code":"02","province_code":"205","name":"Br\u00fcckl","cp":["9371","9371","9371","9371","9371","9371","9371","9371","9371","9371","9371"],"lat":"46.75","lng":"14.5833"},{"country_code":"AT","state_code":"02","province_code":"205","name":"Eberstein","cp":["9371"],"lat":"46.7725","lng":"14.5439"},{"country_code":"AT","state_code":"02","province_code":"205","name":"Br\u00fcckl","cp":["9371","9371","9371","9371","9371"],"lat":"46.7139","lng":"14.515"},{"country_code":"AT","state_code":"02","province_code":"205","name":"Eberstein","cp":["9372"],"lat":"46.8167","lng":"14.5833"},{"country_code":"AT","state_code":"02","province_code":"205","name":"Klein St. Paul","cp":["9372"],"lat":"46.8333","lng":"14.5833"},{"country_code":"AT","state_code":"02","province_code":"205","name":"Eberstein","cp":["9372","9372","9372","9372","9372","9372","9372","9372"],"lat":"46.7667","lng":"14.5667"},{"country_code":"AT","state_code":"02","province_code":"205","name":"Klein St. Paul","cp":["9372","9372","9373","9373"],"lat":"46.8167","lng":"14.5333"},{"country_code":"AT","state_code":"02","province_code":"205","name":"Kappel am Krappfeld","cp":["9373"],"lat":"46.8362","lng":"14.5504"},{"country_code":"AT","state_code":"02","province_code":"205","name":"Klein St. Paul","cp":["9373"],"lat":"46.8333","lng":"14.5833"},{"country_code":"AT","state_code":"02","province_code":"205","name":"Kappel am Krappfeld","cp":["9373"],"lat":"46.8","lng":"14.5167"},{"country_code":"AT","state_code":"02","province_code":"205","name":"Klein St. Paul","cp":["9373","9373","9374","9374","9374","9374","9374","9374","9374","9374"],"lat":"46.8508","lng":"14.5358"},{"country_code":"AT","state_code":"02","province_code":"205","name":"Guttaring","cp":["9374"],"lat":"46.8362","lng":"14.5504"},{"country_code":"AT","state_code":"02","province_code":"205","name":"Klein St. Paul","cp":["9374","9374","9374","9374"],"lat":"46.8362","lng":"14.5504"},{"country_code":"AT","state_code":"02","province_code":"205","name":"H\u00fcttenberg","cp":["9375","9375","9375"],"lat":"46.9667","lng":"14.5833"},{"country_code":"AT","state_code":"02","province_code":"205","name":"Guttaring","cp":["9375","9375","9375"],"lat":"46.8362","lng":"14.5504"},{"country_code":"AT","state_code":"02","province_code":"205","name":"Friesach","cp":["9375"],"lat":"46.8362","lng":"14.5504"},{"country_code":"AT","state_code":"02","province_code":"205","name":"Guttaring","cp":["9375","9375","9375"],"lat":"46.9333","lng":"14.5333"},{"country_code":"AT","state_code":"02","province_code":"205","name":"H\u00fcttenberg","cp":["9375","9375","9375","9375","9375","9375","9376","9376","9376","9376","9376","9376","9376"],"lat":"46.9578","lng":"14.5542"},{"country_code":"AT","state_code":"02","province_code":"205","name":"Liebenfels","cp":["9555","9555","9556","9556","9556"],"lat":"46.7318","lng":"14.1825"},{"country_code":"AT","state_code":"02","province_code":"205","name":"Frauenstein","cp":["9556"],"lat":"46.8","lng":"14.1833"},{"country_code":"AT","state_code":"02","province_code":"205","name":"Liebenfels","cp":["9556"],"lat":"46.7472","lng":"14.3108"},{"country_code":"AT","state_code":"02","province_code":"205","name":"Frauenstein","cp":["9556"],"lat":"46.7667","lng":"14.3"},{"country_code":"AT","state_code":"02","province_code":"205","name":"Liebenfels","cp":["9556","9556"],"lat":"46.7693","lng":"14.2171"},{"country_code":"AT","state_code":"02","province_code":"205","name":"St. Veit an der Glan","cp":["9556"],"lat":"46.7333","lng":"14.3"},{"country_code":"AT","state_code":"02","province_code":"205","name":"Liebenfels","cp":["9556","9556","9556","9556","9556","9556","9556","9556"],"lat":"46.7833","lng":"14.25"},{"country_code":"AT","state_code":"02","province_code":"205","name":"Frauenstein","cp":["9556"],"lat":"46.7561","lng":"14.3169"},{"country_code":"AT","state_code":"02","province_code":"205","name":"Liebenfels","cp":["9556","9556","9556","9556","9556","9556","9556"],"lat":"46.75","lng":"14.2667"},{"country_code":"AT","state_code":"02","province_code":"205","name":"St. Veit an der Glan","cp":["9556"],"lat":"46.7318","lng":"14.1825"},{"country_code":"AT","state_code":"02","province_code":"205","name":"Liebenfels","cp":["9556","9556","9556","9556","9556","9556","9556","9556","9556","9556","9556"],"lat":"46.7318","lng":"14.1825"},{"country_code":"AT","state_code":"02","province_code":"205","name":"St. Veit an der Glan","cp":["9556"],"lat":"46.7318","lng":"14.1825"},{"country_code":"AT","state_code":"02","province_code":"205","name":"Liebenfels","cp":["9556","9556"],"lat":"46.7318","lng":"14.1825"},{"country_code":"AT","state_code":"02","province_code":"205","name":"St. Veit an der Glan","cp":["9556"],"lat":"46.7318","lng":"14.1825"},{"country_code":"AT","state_code":"02","province_code":"205","name":"Liebenfels","cp":["9556","9556","9556","9556","9556","9556","9556","9556","9556","9556","9556"],"lat":"46.7318","lng":"14.1825"},{"country_code":"AT","state_code":"02","province_code":"205","name":"Deutsch-Griffen","cp":["9571","9571","9572","9572","9572","9572","9572","9572","9572","9572","9572","9572","9572","9572","9572","9572","9572","9572","9572","9572","9572","9572","9572","9572","9572"],"lat":"46.8333","lng":"14.1"},{"country_code":"AT","state_code":"02","province_code":"206","name":"Radenthein","cp":["9545","9545","9545","9545","9545","9545","9545","9545","9545","9545","9545","9545","9545","9545"],"lat":"46.8006","lng":"13.7117"},{"country_code":"AT","state_code":"02","province_code":"206","name":"Bad Kleinkirchheim","cp":["9546","9546","9546","9546","9546"],"lat":"46.8197","lng":"13.8411"},{"country_code":"AT","state_code":"02","province_code":"206","name":"Radenthein","cp":["9546"],"lat":"46.7601","lng":"13.7976"},{"country_code":"AT","state_code":"02","province_code":"206","name":"Bad Kleinkirchheim","cp":["9546","9546","9546","9546"],"lat":"46.8106","lng":"13.7886"},{"country_code":"AT","state_code":"02","province_code":"206","name":"Spittal an der Drau","cp":["9701","9701","9701","9701","9701","9701","9701","9701","9701","9701","9701","9701","9701","9701","9702"],"lat":"46.7536","lng":"13.5839"},{"country_code":"AT","state_code":"02","province_code":"206","name":"Sachsenburg","cp":["9751","9751","9751","9751","9751"],"lat":"46.7759","lng":"13.3243"},{"country_code":"AT","state_code":"02","province_code":"206","name":"Kleblach-Lind","cp":["9753","9753"],"lat":"46.7833","lng":"13.35"},{"country_code":"AT","state_code":"02","province_code":"206","name":"Steinfeld","cp":["9753"],"lat":"46.7556","lng":"13.3311"},{"country_code":"AT","state_code":"02","province_code":"206","name":"Kleblach-Lind","cp":["9753"],"lat":"46.7897","lng":"13.3453"},{"country_code":"AT","state_code":"02","province_code":"206","name":"Steinfeld","cp":["9753"],"lat":"46.7603","lng":"13.3453"},{"country_code":"AT","state_code":"02","province_code":"206","name":"Kleblach-Lind","cp":["9753","9753","9753","9753","9753"],"lat":"46.7759","lng":"13.3243"},{"country_code":"AT","state_code":"02","province_code":"206","name":"Steinfeld","cp":["9753"],"lat":"46.7759","lng":"13.3243"},{"country_code":"AT","state_code":"02","province_code":"206","name":"Kleblach-Lind","cp":["9753","9753"],"lat":"46.7669","lng":"13.3031"},{"country_code":"AT","state_code":"02","province_code":"206","name":"Steinfeld","cp":["9753","9753","9754","9754","9754","9754","9754","9754","9754"],"lat":"46.75","lng":"13.3833"},{"country_code":"AT","state_code":"02","province_code":"206","name":"Greifenburg","cp":["9761","9761","9761","9761","9761","9761","9761","9761","9761"],"lat":"46.7381","lng":"13.1961"},{"country_code":"AT","state_code":"02","province_code":"206","name":"Berg im Drautal","cp":["9761"],"lat":"46.7365","lng":"13.2219"},{"country_code":"AT","state_code":"02","province_code":"206","name":"Greifenburg","cp":["9761","9761","9761"],"lat":"46.7365","lng":"13.2219"},{"country_code":"AT","state_code":"02","province_code":"206","name":"Berg im Drautal","cp":["9761"],"lat":"46.7549","lng":"13.1554"},{"country_code":"AT","state_code":"02","province_code":"206","name":"Greifenburg","cp":["9761","9761","9761","9761","9761","9761"],"lat":"46.75","lng":"13.1667"},{"country_code":"AT","state_code":"02","province_code":"206","name":"Wei\u00dfensee","cp":["9762","9762","9762","9762","9762","9762","9762"],"lat":"46.7185","lng":"13.2949"},{"country_code":"AT","state_code":"02","province_code":"206","name":"Berg im Drautal","cp":["9771","9771","9771","9771","9771","9771","9771","9771"],"lat":"46.7333","lng":"13.15"},{"country_code":"AT","state_code":"02","province_code":"206","name":"Dellach im Drautal","cp":["9772","9772","9772","9772","9772","9772","9772","9772","9772","9772","9772","9772"],"lat":"46.7503","lng":"13.1013"},{"country_code":"AT","state_code":"02","province_code":"206","name":"Irschen","cp":["9773","9773","9773","9773","9773","9773","9773","9773","9773","9773","9773","9773","9773","9773"],"lat":"46.7511","lng":"13.0344"},{"country_code":"AT","state_code":"02","province_code":"206","name":"Oberdrauburg","cp":["9781","9781"],"lat":"46.7702","lng":"12.9371"},{"country_code":"AT","state_code":"02","province_code":"206","name":"Irschen","cp":["9781"],"lat":"46.75","lng":"13"},{"country_code":"AT","state_code":"02","province_code":"206","name":"Oberdrauburg","cp":["9781","9781","9781","9781","9781","9781","9781"],"lat":"46.7564","lng":"12.9258"},{"country_code":"AT","state_code":"02","province_code":"206","name":"Spittal an der Drau","cp":["9800","9800"],"lat":"46.7833","lng":"13.55"},{"country_code":"AT","state_code":"02","province_code":"206","name":"Seeboden am Millst\u00e4tter See","cp":["9800"],"lat":"46.8167","lng":"13.4833"},{"country_code":"AT","state_code":"02","province_code":"206","name":"Spittal an der Drau","cp":["9800"],"lat":"46.8","lng":"13.5"},{"country_code":"AT","state_code":"02","province_code":"206","name":"Baldramsdorf","cp":["9800"],"lat":"46.7961","lng":"13.4974"},{"country_code":"AT","state_code":"02","province_code":"206","name":"Spittal an der Drau","cp":["9800","9800"],"lat":"46.7961","lng":"13.4974"},{"country_code":"AT","state_code":"02","province_code":"206","name":"Seeboden am Millst\u00e4tter See","cp":["9800"],"lat":"46.8167","lng":"13.5167"},{"country_code":"AT","state_code":"02","province_code":"206","name":"Spittal an der Drau","cp":["9800","9800","9800","9800","9800"],"lat":"46.8167","lng":"13.4833"},{"country_code":"AT","state_code":"02","province_code":"206","name":"Lendorf","cp":["9800"],"lat":"46.7961","lng":"13.4974"},{"country_code":"AT","state_code":"02","province_code":"206","name":"Spittal an der Drau","cp":["9800","9800","9800","9800"],"lat":"46.7633","lng":"13.5475"},{"country_code":"AT","state_code":"02","province_code":"206","name":"Baldramsdorf","cp":["9805","9805","9805","9805","9805","9805","9805"],"lat":"46.7961","lng":"13.4974"},{"country_code":"AT","state_code":"02","province_code":"206","name":"Lendorf","cp":["9811","9811","9811","9811","9811","9811","9811","9811"],"lat":"46.8167","lng":"13.4667"},{"country_code":"AT","state_code":"02","province_code":"206","name":"Lurnfeld","cp":["9811","9812","9812","9812","9812","9812","9812","9812","9813","9813","9813","9813","9813","9813"],"lat":"46.866","lng":"13.3462"},{"country_code":"AT","state_code":"02","province_code":"206","name":"M\u00fchldorf","cp":["9814","9814","9814"],"lat":"46.8333","lng":"13.35"},{"country_code":"AT","state_code":"02","province_code":"206","name":"Rei\u00dfeck","cp":["9815","9815","9815","9815","9815","9815","9815","9815","9815","9815","9816","9816","9816","9816","9816","9816","9816"],"lat":"46.866","lng":"13.3462"},{"country_code":"AT","state_code":"02","province_code":"206","name":"Obervellach","cp":["9821","9821","9821","9821","9821","9821","9821","9821","9821","9821","9821","9821","9821","9821","9821","9821","9821","9821","9821"],"lat":"46.9499","lng":"13.2027"},{"country_code":"AT","state_code":"02","province_code":"206","name":"Mallnitz","cp":["9822","9822","9822","9822"],"lat":"46.9778","lng":"13.1922"},{"country_code":"AT","state_code":"02","province_code":"206","name":"Flattach","cp":["9831","9831","9831","9831","9831","9831","9831","9831","9831"],"lat":"46.95","lng":"13.1167"},{"country_code":"AT","state_code":"02","province_code":"206","name":"Stall","cp":["9832","9832","9832","9832","9832","9832","9832","9832","9832","9832","9832","9832","9832","9832","9832"],"lat":"46.9333","lng":"13.05"},{"country_code":"AT","state_code":"02","province_code":"206","name":"Rangersdorf","cp":["9833","9833","9833"],"lat":"46.8758","lng":"12.9897"},{"country_code":"AT","state_code":"02","province_code":"206","name":"Winklern","cp":["9833"],"lat":"46.8833","lng":"12.9"},{"country_code":"AT","state_code":"02","province_code":"206","name":"Rangersdorf","cp":["9833","9833","9833","9833","9833","9833"],"lat":"46.9015","lng":"13.0252"},{"country_code":"AT","state_code":"02","province_code":"206","name":"Winklern","cp":["9841"],"lat":"46.8647","lng":"12.8803"},{"country_code":"AT","state_code":"02","province_code":"206","name":"Rangersdorf","cp":["9841"],"lat":"46.865","lng":"12.9111"},{"country_code":"AT","state_code":"02","province_code":"206","name":"Winklern","cp":["9841","9841","9841","9841"],"lat":"46.8833","lng":"12.8667"},{"country_code":"AT","state_code":"02","province_code":"206","name":"M\u00f6rtschach","cp":["9841"],"lat":"46.9443","lng":"12.891"},{"country_code":"AT","state_code":"02","province_code":"206","name":"Winklern","cp":["9841"],"lat":"46.9443","lng":"12.891"},{"country_code":"AT","state_code":"02","province_code":"206","name":"M\u00f6rtschach","cp":["9842","9842","9842","9842","9842","9842","9842","9842","9842"],"lat":"46.9443","lng":"12.891"},{"country_code":"AT","state_code":"02","province_code":"206","name":"Gro\u00dfkirchheim","cp":["9843","9843","9843","9843","9843","9843","9843","9843","9843","9843","9843","9843","9843","9843"],"lat":"46.9667","lng":"12.9"},{"country_code":"AT","state_code":"02","province_code":"206","name":"Heiligenblut am Gro\u00dfglockner","cp":["9844","9844","9844","9844","9844","9844","9844","9844","9844","9844","9844"],"lat":"47.0167","lng":"12.8833"},{"country_code":"AT","state_code":"02","province_code":"206","name":"Seeboden am Millst\u00e4tter See","cp":["9851","9851","9851","9851","9851","9851","9851","9851","9851"],"lat":"46.8364","lng":"13.4884"},{"country_code":"AT","state_code":"02","province_code":"206","name":"Trebesing","cp":["9852","9852","9852","9852","9852","9852","9852","9852","9852","9852","9852","9852"],"lat":"46.9026","lng":"13.5034"},{"country_code":"AT","state_code":"02","province_code":"206","name":"Gm\u00fcnd in K\u00e4rnten","cp":["9853"],"lat":"46.9167","lng":"13.5333"},{"country_code":"AT","state_code":"02","province_code":"206","name":"Malta","cp":["9853"],"lat":"46.9167","lng":"13.5167"},{"country_code":"AT","state_code":"02","province_code":"206","name":"Gm\u00fcnd in K\u00e4rnten","cp":["9853","9853","9853","9853"],"lat":"46.9","lng":"13.55"},{"country_code":"AT","state_code":"02","province_code":"206","name":"Malta","cp":["9853","9853"],"lat":"46.9347","lng":"13.5103"},{"country_code":"AT","state_code":"02","province_code":"206","name":"Gm\u00fcnd in K\u00e4rnten","cp":["9853","9853","9853","9853"],"lat":"46.9026","lng":"13.5034"},{"country_code":"AT","state_code":"02","province_code":"206","name":"Malta","cp":["9853"],"lat":"46.9026","lng":"13.5034"},{"country_code":"AT","state_code":"02","province_code":"206","name":"Gm\u00fcnd in K\u00e4rnten","cp":["9853"],"lat":"46.9026","lng":"13.5034"},{"country_code":"AT","state_code":"02","province_code":"206","name":"Malta","cp":["9853"],"lat":"46.9026","lng":"13.5034"},{"country_code":"AT","state_code":"02","province_code":"206","name":"Trebesing","cp":["9853"],"lat":"46.9026","lng":"13.5034"},{"country_code":"AT","state_code":"02","province_code":"206","name":"Gm\u00fcnd in K\u00e4rnten","cp":["9853","9853","9853","9853","9853"],"lat":"46.9026","lng":"13.5034"},{"country_code":"AT","state_code":"02","province_code":"206","name":"Malta","cp":["9854","9854","9854","9854","9854","9854","9854","9854","9854","9854","9854"],"lat":"46.9026","lng":"13.5034"},{"country_code":"AT","state_code":"02","province_code":"206","name":"Krems in K\u00e4rnten","cp":["9861","9861","9861","9861","9861","9861","9861","9861","9861","9861","9861","9861","9861","9861","9861","9861"],"lat":"46.9083","lng":"13.5936"},{"country_code":"AT","state_code":"02","province_code":"206","name":"Rennweg am Katschberg","cp":["9862"],"lat":"46.976","lng":"13.6111"},{"country_code":"AT","state_code":"02","province_code":"206","name":"Krems in K\u00e4rnten","cp":["9862","9862","9862","9862","9862","9862","9862","9862","9862","9862","9862","9862","9862","9862","9862","9862"],"lat":"46.9667","lng":"13.6333"},{"country_code":"AT","state_code":"02","province_code":"206","name":"Rennweg am Katschberg","cp":["9863","9863","9863","9863","9863","9863","9863","9863","9863","9863","9863","9863","9863","9863","9863","9863","9863","9863","9863","9863","9863","9863","9863","9863","9863"],"lat":"47.0333","lng":"13.6167"},{"country_code":"AT","state_code":"02","province_code":"206","name":"Seeboden am Millst\u00e4tter See","cp":["9871","9871","9871","9871","9871","9871","9871","9871","9871","9871","9871","9871"],"lat":"46.8536","lng":"13.5222"},{"country_code":"AT","state_code":"02","province_code":"206","name":"Millstatt am See","cp":["9872","9872"],"lat":"46.8208","lng":"13.5633"},{"country_code":"AT","state_code":"02","province_code":"206","name":"Seeboden am Millst\u00e4tter See","cp":["9872"],"lat":"46.8267","lng":"13.5475"},{"country_code":"AT","state_code":"02","province_code":"206","name":"Millstatt am See","cp":["9872","9872","9872","9872","9872","9872","9872","9872","9872","9872","9872"],"lat":"46.8028","lng":"13.6092"},{"country_code":"AT","state_code":"02","province_code":"206","name":"Radenthein","cp":["9872"],"lat":"46.8154","lng":"13.5747"},{"country_code":"AT","state_code":"02","province_code":"206","name":"Millstatt am See","cp":["9872","9872","9872","9872","9872"],"lat":"46.8154","lng":"13.5747"},{"country_code":"AT","state_code":"02","province_code":"206","name":"Radenthein","cp":["9873","9873"],"lat":"46.8154","lng":"13.5747"},{"country_code":"AT","state_code":"02","province_code":"207","name":"St. Jakob im Rosental","cp":["9182","9182","9182","9182","9182","9182","9183","9183","9183","9183","9183","9183","9184","9184","9184","9184","9184","9184","9184"],"lat":"46.5322","lng":"14.0858"},{"country_code":"AT","state_code":"02","province_code":"207","name":"Rosegg","cp":["9184"],"lat":"46.536","lng":"14.0819"},{"country_code":"AT","state_code":"02","province_code":"207","name":"St. Jakob im Rosental","cp":["9184","9184","9184"],"lat":"46.5667","lng":"14.0333"},{"country_code":"AT","state_code":"02","province_code":"207","name":"Velden am W\u00f6rther See","cp":["9220","9220","9220","9220","9220","9220","9220","9220","9220","9220","9220"],"lat":"46.6132","lng":"14.0285"},{"country_code":"AT","state_code":"02","province_code":"207","name":"Wernberg","cp":["9220"],"lat":"46.6225","lng":"13.99"},{"country_code":"AT","state_code":"02","province_code":"207","name":"Velden am W\u00f6rther See","cp":["9220","9220","9220","9220","9220","9220","9220","9220","9220","9231","9231","9231","9231","9231"],"lat":"46.6253","lng":"14.0472"},{"country_code":"AT","state_code":"02","province_code":"207","name":"Rosegg","cp":["9232","9232","9232","9232","9232","9232","9232","9232","9232","9232","9232","9232","9232","9232","9232","9232","9232"],"lat":"46.6071","lng":"14.0068"},{"country_code":"AT","state_code":"02","province_code":"207","name":"Wernberg","cp":["9241","9241","9241","9241","9241","9241","9241","9241","9241","9241","9241","9241","9241","9241","9241","9241","9241","9241","9241","9241","9241","9241","9241"],"lat":"46.6356","lng":"13.9772"},{"country_code":"AT","state_code":"02","province_code":"207","name":"Wei\u00dfenstein","cp":["9500"],"lat":"46.65","lng":"13.7833"},{"country_code":"AT","state_code":"02","province_code":"207","name":"Treffen am Ossiacher See","cp":["9520","9520","9520","9520","9521","9521","9521","9521","9521","9521","9521","9521","9521","9521","9521","9521","9521","9521"],"lat":"46.6667","lng":"13.9"},{"country_code":"AT","state_code":"02","province_code":"207","name":"Bad Bleiberg","cp":["9530","9530","9530","9530"],"lat":"46.6003","lng":"13.9396"},{"country_code":"AT","state_code":"02","province_code":"207","name":"N\u00f6tsch im Gailtal","cp":["9531"],"lat":"46.6","lng":"13.6167"},{"country_code":"AT","state_code":"02","province_code":"207","name":"Bad Bleiberg","cp":["9531","9531"],"lat":"46.6244","lng":"13.6469"},{"country_code":"AT","state_code":"02","province_code":"207","name":"N\u00f6tsch im Gailtal","cp":["9531"],"lat":"46.6044","lng":"13.6147"},{"country_code":"AT","state_code":"02","province_code":"207","name":"Velden am W\u00f6rther See","cp":["9535","9536","9536","9536","9536","9536"],"lat":"46.6","lng":"14.0667"},{"country_code":"AT","state_code":"02","province_code":"207","name":"Treffen am Ossiacher See","cp":["9541","9541","9541","9541","9541","9541","9542"],"lat":"46.7039","lng":"13.855"},{"country_code":"AT","state_code":"02","province_code":"207","name":"Afritz am See","cp":["9542","9542","9542"],"lat":"46.7601","lng":"13.7976"},{"country_code":"AT","state_code":"02","province_code":"207","name":"Treffen am Ossiacher See","cp":["9542"],"lat":"46.7","lng":"13.8167"},{"country_code":"AT","state_code":"02","province_code":"207","name":"Afritz am See","cp":["9542","9542","9542","9542","9542","9542","9542","9542"],"lat":"46.7601","lng":"13.7976"},{"country_code":"AT","state_code":"02","province_code":"207","name":"Arriach","cp":["9543","9543","9543","9543","9543","9543","9543","9543","9543","9543","9543","9543","9543","9543"],"lat":"46.7277","lng":"13.8653"},{"country_code":"AT","state_code":"02","province_code":"207","name":"Feld am See","cp":["9544","9544","9544","9544","9544","9544","9544","9544"],"lat":"46.7656","lng":"13.7572"},{"country_code":"AT","state_code":"02","province_code":"207","name":"Treffen am Ossiacher See","cp":["9551","9551"],"lat":"46.6767","lng":"13.9333"},{"country_code":"AT","state_code":"02","province_code":"207","name":"Finkenstein am Faaker See","cp":["9581","9581"],"lat":"46.55","lng":"13.9833"},{"country_code":"AT","state_code":"02","province_code":"207","name":"Rosegg","cp":["9581"],"lat":"46.5667","lng":"14"},{"country_code":"AT","state_code":"02","province_code":"207","name":"Finkenstein am Faaker See","cp":["9581","9581","9581","9581","9581","9582","9582","9582","9582","9582","9582","9582","9582","9583","9583","9584","9584","9584","9585","9585","9585","9585","9585","9585","9586","9586","9586"],"lat":"46.55","lng":"13.95"},{"country_code":"AT","state_code":"02","province_code":"207","name":"Arnoldstein","cp":["9586"],"lat":"46.5667","lng":"13.8"},{"country_code":"AT","state_code":"02","province_code":"207","name":"Finkenstein am Faaker See","cp":["9586"],"lat":"46.5645","lng":"13.8748"},{"country_code":"AT","state_code":"02","province_code":"207","name":"Arnoldstein","cp":["9587","9587","9587","9587","9587","9587","9587","9587","9587"],"lat":"46.5333","lng":"13.7833"},{"country_code":"AT","state_code":"02","province_code":"207","name":"Finkenstein am Faaker See","cp":["9587"],"lat":"46.5436","lng":"13.8072"},{"country_code":"AT","state_code":"02","province_code":"207","name":"Arnoldstein","cp":["9601","9601","9601","9601"],"lat":"46.5387","lng":"13.7028"},{"country_code":"AT","state_code":"02","province_code":"207","name":"Hohenthurn","cp":["9601"],"lat":"46.55","lng":"13.6833"},{"country_code":"AT","state_code":"02","province_code":"207","name":"Arnoldstein","cp":["9601","9601","9601","9602","9602","9602","9602"],"lat":"46.5455","lng":"13.7039"},{"country_code":"AT","state_code":"02","province_code":"207","name":"Hohenthurn","cp":["9602","9602"],"lat":"46.5583","lng":"13.6678"},{"country_code":"AT","state_code":"02","province_code":"207","name":"Arnoldstein","cp":["9602"],"lat":"46.5333","lng":"13.65"},{"country_code":"AT","state_code":"02","province_code":"207","name":"N\u00f6tsch im Gailtal","cp":["9611","9611","9611","9611","9611","9612","9612","9612","9612","9612","9612","9612","9612","9612","9612","9612"],"lat":"46.6006","lng":"13.5719"},{"country_code":"AT","state_code":"02","province_code":"207","name":"Hohenthurn","cp":["9613","9613"],"lat":"46.5628","lng":"13.6389"},{"country_code":"AT","state_code":"02","province_code":"207","name":"Feistritz an der Gail","cp":["9613"],"lat":"46.5775","lng":"13.6067"},{"country_code":"AT","state_code":"02","province_code":"207","name":"Hohenthurn","cp":["9613","9613"],"lat":"46.5617","lng":"13.6158"},{"country_code":"AT","state_code":"02","province_code":"207","name":"N\u00f6tsch im Gailtal","cp":["9623"],"lat":"46.6208","lng":"13.5678"},{"country_code":"AT","state_code":"02","province_code":"207","name":"Paternion","cp":["9701"],"lat":"46.7383","lng":"13.5997"},{"country_code":"AT","state_code":"02","province_code":"207","name":"Stockenboi","cp":["9701"],"lat":"46.7419","lng":"13.5519"},{"country_code":"AT","state_code":"02","province_code":"207","name":"Ferndorf","cp":["9701","9702","9702","9702","9702","9702","9702","9702","9702"],"lat":"46.756","lng":"13.6103"},{"country_code":"AT","state_code":"02","province_code":"207","name":"Fresach","cp":["9702"],"lat":"46.7292","lng":"13.6544"},{"country_code":"AT","state_code":"02","province_code":"207","name":"Ferndorf","cp":["9702","9702","9702"],"lat":"46.7397","lng":"13.6375"},{"country_code":"AT","state_code":"02","province_code":"207","name":"Paternion","cp":["9710"],"lat":"46.6947","lng":"13.6383"},{"country_code":"AT","state_code":"02","province_code":"207","name":"Wei\u00dfenstein","cp":["9710"],"lat":"46.7","lng":"13.6833"},{"country_code":"AT","state_code":"02","province_code":"207","name":"Paternion","cp":["9710","9710","9710","9710","9710","9710","9710","9710","9710","9710","9711"],"lat":"46.6925","lng":"13.6897"},{"country_code":"AT","state_code":"02","province_code":"207","name":"Stockenboi","cp":["9711"],"lat":"46.7104","lng":"13.6183"},{"country_code":"AT","state_code":"02","province_code":"207","name":"Paternion","cp":["9711","9711","9711","9711"],"lat":"46.7058","lng":"13.6464"},{"country_code":"AT","state_code":"02","province_code":"207","name":"Stockenboi","cp":["9711"],"lat":"46.6975","lng":"13.6064"},{"country_code":"AT","state_code":"02","province_code":"207","name":"Paternion","cp":["9711"],"lat":"46.7383","lng":"13.5997"},{"country_code":"AT","state_code":"02","province_code":"207","name":"Stockenboi","cp":["9711"],"lat":"46.7061","lng":"13.6186"},{"country_code":"AT","state_code":"02","province_code":"207","name":"Paternion","cp":["9711"],"lat":"46.7167","lng":"13.6333"},{"country_code":"AT","state_code":"02","province_code":"207","name":"Fresach","cp":["9712","9712","9712","9712","9712","9712"],"lat":"46.7292","lng":"13.6544"},{"country_code":"AT","state_code":"02","province_code":"207","name":"Stockenboi","cp":["9713","9713","9713","9713","9713","9713","9713","9713","9713","9713","9714","9714","9714","9714","9714"],"lat":"46.7078","lng":"13.5953"},{"country_code":"AT","state_code":"02","province_code":"207","name":"Paternion","cp":["9714"],"lat":"46.6803","lng":"13.4978"},{"country_code":"AT","state_code":"02","province_code":"207","name":"Stockenboi","cp":["9714","9714","9714"],"lat":"46.7261","lng":"13.5231"},{"country_code":"AT","state_code":"02","province_code":"207","name":"Wei\u00dfenstein","cp":["9721","9721","9721","9721","9721","9722","9722","9722","9722","9722","9722"],"lat":"46.6669","lng":"13.7413"},{"country_code":"AT","state_code":"02","province_code":"208","name":"V\u00f6lkermarkt","cp":["9064","9064","9064","9064","9100","9100","9100","9100","9100","9100","9100","9100","9100","9100","9100","9100","9100","9100","9100","9100","9100","9100","9100","9100","9100","9100","9100","9100","9100","9100","9100","9100","9102","9102","9102","9102","9102","9102","9102","9102","9102","9102","9102","9102"],"lat":"46.6566","lng":"14.345"},{"country_code":"AT","state_code":"02","province_code":"208","name":"Diex","cp":["9102"],"lat":"46.7194","lng":"14.5878"},{"country_code":"AT","state_code":"02","province_code":"208","name":"V\u00f6lkermarkt","cp":["9102","9102","9102","9102","9102","9102"],"lat":"46.7","lng":"14.55"},{"country_code":"AT","state_code":"02","province_code":"208","name":"Diex","cp":["9103","9103"],"lat":"46.7167","lng":"14.65"},{"country_code":"AT","state_code":"02","province_code":"208","name":"V\u00f6lkermarkt","cp":["9103"],"lat":"46.7","lng":"14.6333"},{"country_code":"AT","state_code":"02","province_code":"208","name":"Diex","cp":["9103","9103","9103","9103"],"lat":"46.7167","lng":"14.6833"},{"country_code":"AT","state_code":"02","province_code":"208","name":"V\u00f6lkermarkt","cp":["9111","9111","9111","9111","9111","9111","9111","9111","9111","9111","9111","9111"],"lat":"46.7002","lng":"14.7274"},{"country_code":"AT","state_code":"02","province_code":"208","name":"Diex","cp":["9111","9111"],"lat":"46.7167","lng":"14.65"},{"country_code":"AT","state_code":"02","province_code":"208","name":"V\u00f6lkermarkt","cp":["9111"],"lat":"46.6833","lng":"14.6333"},{"country_code":"AT","state_code":"02","province_code":"208","name":"Griffen","cp":["9112","9112"],"lat":"46.6833","lng":"14.7667"},{"country_code":"AT","state_code":"02","province_code":"208","name":"Diex","cp":["9112"],"lat":"46.7167","lng":"14.6833"},{"country_code":"AT","state_code":"02","province_code":"208","name":"Griffen","cp":["9112","9112","9112"],"lat":"46.7167","lng":"14.6833"},{"country_code":"AT","state_code":"02","province_code":"208","name":"Diex","cp":["9112"],"lat":"46.75","lng":"14.7"},{"country_code":"AT","state_code":"02","province_code":"208","name":"Griffen","cp":["9112","9112","9112","9112","9112","9112","9112","9112","9112","9112","9112","9112","9112","9112","9112","9112","9112","9112","9112","9112","9112","9112","9112","9112","9112","9112","9112","9112","9112","9112"],"lat":"46.7","lng":"14.7667"},{"country_code":"AT","state_code":"02","province_code":"208","name":"Ruden","cp":["9113","9113","9113"],"lat":"46.6667","lng":"14.75"},{"country_code":"AT","state_code":"02","province_code":"208","name":"V\u00f6lkermarkt","cp":["9113"],"lat":"46.7002","lng":"14.7274"},{"country_code":"AT","state_code":"02","province_code":"208","name":"Ruden","cp":["9113"],"lat":"46.65","lng":"14.75"},{"country_code":"AT","state_code":"02","province_code":"208","name":"V\u00f6lkermarkt","cp":["9113"],"lat":"46.7002","lng":"14.7274"},{"country_code":"AT","state_code":"02","province_code":"208","name":"Ruden","cp":["9113","9113","9113","9113","9113","9113","9113","9113","9113","9113","9113","9113","9113","9113"],"lat":"46.7002","lng":"14.7274"},{"country_code":"AT","state_code":"02","province_code":"208","name":"V\u00f6lkermarkt","cp":["9121","9121","9121","9121","9121","9121","9121","9121","9121","9121","9121","9121","9121","9121","9121"],"lat":"46.6597","lng":"14.5408"},{"country_code":"AT","state_code":"02","province_code":"208","name":"St. Kanzian am Klopeiner See","cp":["9122","9122","9122","9122","9122","9122","9122","9122","9122","9122","9122","9122","9122","9122","9122","9122","9122","9122","9122","9122","9122","9122","9122","9122","9122","9122","9122","9122","9122","9122","9122","9122","9122","9122","9122","9122","9122"],"lat":"46.6171","lng":"14.5953"},{"country_code":"AT","state_code":"02","province_code":"208","name":"Gallizien","cp":["9123"],"lat":"46.6171","lng":"14.5953"},{"country_code":"AT","state_code":"02","province_code":"208","name":"Eberndorf","cp":["9125","9125","9125","9125","9125","9125","9125","9125","9125","9125"],"lat":"46.6206","lng":"14.705"},{"country_code":"AT","state_code":"02","province_code":"208","name":"Gallizien","cp":["9131"],"lat":"46.5782","lng":"14.5256"},{"country_code":"AT","state_code":"02","province_code":"208","name":"V\u00f6lkermarkt","cp":["9131"],"lat":"46.5782","lng":"14.5256"},{"country_code":"AT","state_code":"02","province_code":"208","name":"Gallizien","cp":["9132","9132","9132","9132","9132","9132","9132","9132","9132","9132","9132","9132","9132","9132","9132","9132","9132","9132"],"lat":"46.5782","lng":"14.5256"},{"country_code":"AT","state_code":"02","province_code":"208","name":"Sittersdorf","cp":["9133","9133","9133","9133","9133","9133","9133","9133","9133","9133","9133","9133","9133","9133","9133"],"lat":"46.5408","lng":"14.5608"},{"country_code":"AT","state_code":"02","province_code":"208","name":"St. Kanzian am Klopeiner See","cp":["9133"],"lat":"46.5782","lng":"14.5256"},{"country_code":"AT","state_code":"02","province_code":"208","name":"Sittersdorf","cp":["9133"],"lat":"46.5782","lng":"14.5256"},{"country_code":"AT","state_code":"02","province_code":"208","name":"Gallizien","cp":["9133"],"lat":"46.5782","lng":"14.5256"},{"country_code":"AT","state_code":"02","province_code":"208","name":"Sittersdorf","cp":["9133","9133","9133","9133","9133","9133","9133","9133","9133","9133","9133"],"lat":"46.55","lng":"14.5667"},{"country_code":"AT","state_code":"02","province_code":"208","name":"Eisenkappel-Vellach","cp":["9135","9135","9135","9135","9135","9135","9135","9135","9135","9135","9135","9135","9135","9135"],"lat":"46.5782","lng":"14.5256"},{"country_code":"AT","state_code":"02","province_code":"208","name":"Eberndorf","cp":["9141","9141","9141","9141","9141","9141","9141","9141","9141","9141","9141","9141","9141","9141"],"lat":"46.5686","lng":"14.6686"},{"country_code":"AT","state_code":"02","province_code":"208","name":"Globasnitz","cp":["9142","9142","9142","9142","9142","9142","9142","9142","9142"],"lat":"46.5667","lng":"14.6833"},{"country_code":"AT","state_code":"02","province_code":"208","name":"Feistritz ob Bleiburg","cp":["9143","9143","9143","9143","9143","9143","9143"],"lat":"46.5667","lng":"14.75"},{"country_code":"AT","state_code":"02","province_code":"208","name":"Globasnitz","cp":["9143"],"lat":"46.5722","lng":"14.7033"},{"country_code":"AT","state_code":"02","province_code":"208","name":"Feistritz ob Bleiburg","cp":["9143","9143","9143","9143","9143","9143"],"lat":"46.5722","lng":"14.7033"},{"country_code":"AT","state_code":"02","province_code":"208","name":"Bleiburg","cp":["9150","9150"],"lat":"46.5833","lng":"14.8167"},