[{"country_code":"AX","state_code":"211","province_code":"478","name":"Mariehamn","cp":["22100","22101","22110","22111"],"lat":"60.1007","lng":"19.9438"},{"country_code":"AX","state_code":"212","province_code":"043","name":"Ecker\u00f6","cp":["22270"],"lat":"60.2203","lng":"19.6263"},{"country_code":"AX","state_code":"212","province_code":"060","name":"Emkarby","cp":["22220"],"lat":"60.2394","lng":"19.848"},{"country_code":"AX","state_code":"212","province_code":"060","name":"P\u00e5lsb\u00f6le","cp":["22310"],"lat":"60.2756","lng":"19.9057"},{"country_code":"AX","state_code":"212","province_code":"060","name":"Tjud\u00f6","cp":["22330"],"lat":"60.3398","lng":"19.9382"},{"country_code":"AX","state_code":"212","province_code":"060","name":"Godby","cp":["22410","22411"],"lat":"60.2294","lng":"19.982"},{"country_code":"AX","state_code":"212","province_code":"065","name":"Geta","cp":["22340"],"lat":"60.3791","lng":"19.8878"},{"country_code":"AX","state_code":"212","province_code":"076","name":"Hammarland","cp":["22240"],"lat":"60.2286","lng":"19.7396"},{"country_code":"AX","state_code":"212","province_code":"170","name":"Mariehamn","cp":["22120"],"lat":"60.1141","lng":"19.913"},{"country_code":"AX","state_code":"212","province_code":"170","name":"Gottby","cp":["22130"],"lat":"60.1253","lng":"19.8285"},{"country_code":"AX","state_code":"212","province_code":"170","name":"Mariehamn","cp":["22140"],"lat":"60.1109","lng":"19.9898"},{"country_code":"AX","state_code":"212","province_code":"170","name":"Jomala","cp":["22150","22151"],"lat":"60.1617","lng":"19.9602"},{"country_code":"AX","state_code":"212","province_code":"417","name":"Mariehamn","cp":["22160"],"lat":"60.0314","lng":"20.0036"},{"country_code":"AX","state_code":"212","province_code":"417","name":"Lemland","cp":["22610"],"lat":"60.0491","lng":"20.1232"},{"country_code":"AX","state_code":"212","province_code":"438","name":"Lumparland","cp":["22630"],"lat":"60.1204","lng":"20.2616"},{"country_code":"AX","state_code":"212","province_code":"736","name":"\u00d6dkarby","cp":["22320"],"lat":"60.3162","lng":"20.0054"},{"country_code":"AX","state_code":"212","province_code":"736","name":"Saltvik","cp":["22430"],"lat":"60.3146","lng":"20.1073"},{"country_code":"AX","state_code":"212","province_code":"771","name":"Kastelholm","cp":["22520"],"lat":"60.2383","lng":"20.1013"},{"country_code":"AX","state_code":"212","province_code":"771","name":"Sund","cp":["22530"],"lat":"60.2275","lng":"20.1999"},{"country_code":"AX","state_code":"213","province_code":"035","name":"Lappo","cp":["22840"],"lat":"60.3107","lng":"20.9895"},{"country_code":"AX","state_code":"213","province_code":"035","name":"Torsholma","cp":["22910"],"lat":"60.3556","lng":"21.0648"},{"country_code":"AX","state_code":"213","province_code":"035","name":"Br\u00e4nd\u00f6","cp":["22920"],"lat":"60.4138","lng":"21.039"},{"country_code":"AX","state_code":"213","province_code":"035","name":"Fisk\u00f6","cp":["22930"],"lat":"60.4525","lng":"21.0695"},{"country_code":"AX","state_code":"213","province_code":"035","name":"\u00c5va","cp":["22940"],"lat":"60.4588","lng":"21.1607"},{"country_code":"AX","state_code":"213","province_code":"035","name":"Jurmo","cp":["22950"],"lat":"60.5196","lng":"21.0717"},{"country_code":"AX","state_code":"213","province_code":"062","name":"F\u00f6gl\u00f6","cp":["22710"],"lat":"60.0316","lng":"20.4605"},{"country_code":"AX","state_code":"213","province_code":"295","name":"Seglinge","cp":["22810"],"lat":"60.2018","lng":"20.7098"},{"country_code":"AX","state_code":"213","province_code":"295","name":"Kumlinge","cp":["22820"],"lat":"60.261","lng":"20.7934"},{"country_code":"AX","state_code":"213","province_code":"295","name":"Enklinge","cp":["22830"],"lat":"60.3349","lng":"20.758"},{"country_code":"AX","state_code":"213","province_code":"318","name":"K\u00f6kar","cp":["22730"],"lat":"59.9345","lng":"20.9298"},{"country_code":"AX","state_code":"213","province_code":"766","name":"Sottunga","cp":["22720"],"lat":"60.1248","lng":"20.6751"},{"country_code":"AX","state_code":"213","province_code":"941","name":"V\u00e5rd\u00f6","cp":["22550"],"lat":"60.2607","lng":"20.3725"}]