[{"country_code":"BR","state_code":"01","province_code":"1200013","name":"Acrel\u00e2ndia","cp":["69945-000"],"lat":"-9.9805","lng":"-66.8439"},{"country_code":"BR","state_code":"01","province_code":"1200054","name":"Assis Brasil","cp":["69935-000"],"lat":"-10.8833","lng":"-70.0131"},{"country_code":"BR","state_code":"01","province_code":"1200104","name":"Brasil\u00e9ia","cp":["69932-000"],"lat":"-10.7677","lng":"-69.0114"},{"country_code":"BR","state_code":"01","province_code":"1200138","name":"Bujari","cp":["69923-000"],"lat":"-9.5786","lng":"-68.172"},{"country_code":"BR","state_code":"01","province_code":"1200179","name":"Capixaba","cp":["69922-000"],"lat":"-10.4878","lng":"-67.8483"},{"country_code":"BR","state_code":"01","province_code":"1200203","name":"Cruzeiro do Sul","cp":["69980-000"],"lat":"-8.0159","lng":"-72.9298"},{"country_code":"BR","state_code":"01","province_code":"1200252","name":"Epitaciol\u00e2ndia","cp":["69934-000"],"lat":"-10.9354","lng":"-68.4441"},{"country_code":"BR","state_code":"01","province_code":"1200302","name":"Feij\u00f3","cp":["69960-000"],"lat":"-8.905","lng":"-70.9149"},{"country_code":"BR","state_code":"01","province_code":"1200328","name":"Jord\u00e3o","cp":["69975-000"],"lat":"-9.0917","lng":"-71.8407"},{"country_code":"BR","state_code":"01","province_code":"1200336","name":"M\u00e2ncio Lima","cp":["69990-000"],"lat":"-7.5396","lng":"-73.4583"},{"country_code":"BR","state_code":"01","province_code":"1200344","name":"Manoel Urbano","cp":["69950-000"],"lat":"-9.4895","lng":"-70.0124"},{"country_code":"BR","state_code":"01","province_code":"1200351","name":"Marechal Thaumaturgo","cp":["69983-000"],"lat":"-9.1899","lng":"-72.5685"},{"country_code":"BR","state_code":"01","province_code":"1200385","name":"Pl\u00e1cido de Castro","cp":["69928-000"],"lat":"-10.2943","lng":"-67.2682"},{"country_code":"BR","state_code":"01","province_code":"1200393","name":"Porto Walter","cp":["69982-000"],"lat":"-8.5247","lng":"-72.8207"},{"country_code":"BR","state_code":"01","province_code":"1200401","name":"Rio Branco","cp":["69900-000"],"lat":"-10.0699","lng":"-68.1553"},{"country_code":"BR","state_code":"01","province_code":"1200427","name":"Rodrigues Alves","cp":["69985-000"],"lat":"-7.8529","lng":"-73.2361"},{"country_code":"BR","state_code":"01","province_code":"1200435","name":"Santa Rosa do Purus","cp":["69955-000"],"lat":"-9.4773","lng":"-70.3903"},{"country_code":"BR","state_code":"01","province_code":"1200450","name":"Senador Guiomard","cp":["69925-000"],"lat":"-9.9408","lng":"-67.3931"},{"country_code":"BR","state_code":"01","province_code":"1200500","name":"Sena Madureira","cp":["69940-000"],"lat":"-10.0357","lng":"-69.5497"},{"country_code":"BR","state_code":"01","province_code":"1200609","name":"Tarauac\u00e1","cp":["69970-000"],"lat":"-8.6552","lng":"-71.4234"},{"country_code":"BR","state_code":"01","province_code":"1200708","name":"Xapuri","cp":["69930-000"],"lat":"-10.5966","lng":"-68.6489"},{"country_code":"BR","state_code":"01","province_code":"1200807","name":"Porto Acre","cp":["69921-000"],"lat":"-9.6504","lng":"-67.7773"},{"country_code":"BR","state_code":"02","province_code":"2700102","name":"\u00c1gua Branca","cp":["57490-000"],"lat":"-9.2699","lng":"-37.9192"},{"country_code":"BR","state_code":"02","province_code":"2700201","name":"Anadia","cp":["57660-000"],"lat":"-9.6749","lng":"-36.3379"},{"country_code":"BR","state_code":"02","province_code":"2700300","name":"Arapiraca","cp":["57300-000"],"lat":"-9.7438","lng":"-36.5931"},{"country_code":"BR","state_code":"02","province_code":"2700409","name":"Atalaia","cp":["57690-000"],"lat":"-9.5298","lng":"-36.0746"},{"country_code":"BR","state_code":"02","province_code":"2700508","name":"Barra de Santo Ant\u00f4nio","cp":["57925-000"],"lat":"-9.3975","lng":"-35.5654"},{"country_code":"BR","state_code":"02","province_code":"2700607","name":"Barra de S\u00e3o Miguel","cp":["57180-000"],"lat":"-9.8123","lng":"-35.9609"},{"country_code":"BR","state_code":"02","province_code":"2700706","name":"Batalha","cp":["57420-000"],"lat":"-9.7326","lng":"-37.0888"},{"country_code":"BR","state_code":"02","province_code":"2700805","name":"Bel\u00e9m","cp":["57630-000"],"lat":"-9.5442","lng":"-36.502"},{"country_code":"BR","state_code":"02","province_code":"2700904","name":"Belo Monte","cp":["57435-000"],"lat":"-9.8052","lng":"-37.1916"},{"country_code":"BR","state_code":"02","province_code":"2701001","name":"Boca da Mata","cp":["57680-000"],"lat":"-9.6465","lng":"-36.1413"},{"country_code":"BR","state_code":"02","province_code":"2701100","name":"Branquinha","cp":["57830-000"],"lat":"-9.2117","lng":"-36.0896"},{"country_code":"BR","state_code":"02","province_code":"2701209","name":"Cacimbinhas","cp":["57570-000"],"lat":"-9.449","lng":"-36.9047"},{"country_code":"BR","state_code":"02","province_code":"2701308","name":"Cajueiro","cp":["57770-000"],"lat":"-9.3763","lng":"-36.1577"},{"country_code":"BR","state_code":"02","province_code":"2701357","name":"Campestre","cp":["57968-000"],"lat":"-8.8939","lng":"-35.5324"},{"country_code":"BR","state_code":"02","province_code":"2701407","name":"Campo Alegre","cp":["57250-000"],"lat":"-9.7933","lng":"-36.2857"},{"country_code":"BR","state_code":"02","province_code":"2701506","name":"Campo Grande","cp":["57350-000"],"lat":"-9.95","lng":"-36.7559"},{"country_code":"BR","state_code":"02","province_code":"2701605","name":"Canapi","cp":["57530-000"],"lat":"-9.1733","lng":"-37.5199"},{"country_code":"BR","state_code":"02","province_code":"2701704","name":"Capela","cp":["57780-000"],"lat":"-9.3934","lng":"-36.1239"},{"country_code":"BR","state_code":"02","province_code":"2701803","name":"Carneiros","cp":["57535-000"],"lat":"-9.4647","lng":"-37.3556"},{"country_code":"BR","state_code":"02","province_code":"2701902","name":"Ch\u00e3 Preta","cp":["57760-000"],"lat":"-9.2292","lng":"-36.3305"},{"country_code":"BR","state_code":"02","province_code":"2702009","name":"Coit\u00e9 do N\u00f3ia","cp":["57325-000"],"lat":"-9.6262","lng":"-36.6004"},{"country_code":"BR","state_code":"02","province_code":"2702108","name":"Col\u00f4nia Leopoldina","cp":["57975-000"],"lat":"-8.8921","lng":"-35.7423"},{"country_code":"BR","state_code":"02","province_code":"2702207","name":"Coqueiro Seco","cp":["57140-000"],"lat":"-9.6466","lng":"-35.8094"},{"country_code":"BR","state_code":"02","province_code":"2702306","name":"Coruripe","cp":["57230-000"],"lat":"-10.0745","lng":"-36.1996"},{"country_code":"BR","state_code":"02","province_code":"2702355","name":"Cra\u00edbas","cp":["57320-000"],"lat":"-9.6011","lng":"-36.8027"},{"country_code":"BR","state_code":"02","province_code":"2702405","name":"Delmiro Gouveia","cp":["57480-000"],"lat":"-9.4445","lng":"-38.0248"},{"country_code":"BR","state_code":"02","province_code":"2702504","name":"Dois Riachos","cp":["57560-000"],"lat":"-9.3582","lng":"-37.0657"},{"country_code":"BR","state_code":"02","province_code":"2702553","name":"Estrela de Alagoas","cp":["57625-000"],"lat":"-9.3986","lng":"-36.7622"},{"country_code":"BR","state_code":"02","province_code":"2702603","name":"Feira Grande","cp":["57340-000"],"lat":"-9.9247","lng":"-36.6695"},{"country_code":"BR","state_code":"02","province_code":"2702702","name":"Feliz Deserto","cp":["57220-000"],"lat":"-10.2908","lng":"-36.3537"},{"country_code":"BR","state_code":"02","province_code":"2702801","name":"Flexeiras","cp":["57995-000"],"lat":"-9.2006","lng":"-35.78"},{"country_code":"BR","state_code":"02","province_code":"2702900","name":"Girau do Ponciano","cp":["57360-000"],"lat":"-9.7838","lng":"-36.842"},{"country_code":"BR","state_code":"02","province_code":"2703007","name":"Ibateguara","cp":["57890-000"],"lat":"-8.8969","lng":"-35.9096"},{"country_code":"BR","state_code":"02","province_code":"2703106","name":"Igaci","cp":["57620-000"],"lat":"-9.58","lng":"-36.6742"},{"country_code":"BR","state_code":"02","province_code":"2703205","name":"Igreja Nova","cp":["57280-000"],"lat":"-10.1666","lng":"-36.6172"},{"country_code":"BR","state_code":"02","province_code":"2703304","name":"Inhapi","cp":["57545-000"],"lat":"-9.2773","lng":"-37.6362"},{"country_code":"BR","state_code":"02","province_code":"2703403","name":"Jacar\u00e9 dos Homens","cp":["57430-000"],"lat":"-9.6728","lng":"-37.2228"},{"country_code":"BR","state_code":"02","province_code":"2703502","name":"Jacu\u00edpe","cp":["57960-000"],"lat":"-8.8772","lng":"-35.4588"},{"country_code":"BR","state_code":"02","province_code":"2703601","name":"Japaratinga","cp":["57950-000"],"lat":"-9.099","lng":"-35.2963"},{"country_code":"BR","state_code":"02","province_code":"2703700","name":"Jaramataia","cp":["57425-000"],"lat":"-9.6505","lng":"-36.9604"},{"country_code":"BR","state_code":"02","province_code":"2703809","name":"Joaquim Gomes","cp":["57980-000"],"lat":"-9.1035","lng":"-35.7374"},{"country_code":"BR","state_code":"02","province_code":"2703908","name":"Jundi\u00e1","cp":["57965-000"],"lat":"-8.9406","lng":"-35.4996"},{"country_code":"BR","state_code":"02","province_code":"2704005","name":"Junqueiro","cp":["57270-000"],"lat":"-9.8852","lng":"-36.4564"},{"country_code":"BR","state_code":"02","province_code":"2704104","name":"Lagoa da Canoa","cp":["57330-000"],"lat":"-9.8072","lng":"-36.7481"},{"country_code":"BR","state_code":"02","province_code":"2704203","name":"Limoeiro de Anadia","cp":["57260-000"],"lat":"-9.7268","lng":"-36.4541"},{"country_code":"BR","state_code":"02","province_code":"2704302","name":"Macei\u00f3","cp":["57000-000"],"lat":"-9.5713","lng":"-35.6899"},{"country_code":"BR","state_code":"02","province_code":"2704401","name":"Major Isidoro","cp":["57580-000"],"lat":"-9.5168","lng":"-36.9649"},{"country_code":"BR","state_code":"02","province_code":"2704500","name":"Maragogi","cp":["57955-000"],"lat":"-8.9586","lng":"-35.276"},{"country_code":"BR","state_code":"02","province_code":"2704609","name":"Maravilha","cp":["57520-000"],"lat":"-9.2231","lng":"-37.3794"},{"country_code":"BR","state_code":"02","province_code":"2704708","name":"Marechal Deodoro","cp":["57160-000"],"lat":"-9.709","lng":"-35.9031"},{"country_code":"BR","state_code":"02","province_code":"2704807","name":"Maribondo","cp":["57670-000"],"lat":"-9.5509","lng":"-36.3403"},{"country_code":"BR","state_code":"02","province_code":"2704906","name":"Mar Vermelho","cp":["57730-000"],"lat":"-9.4925","lng":"-36.3504"},{"country_code":"BR","state_code":"02","province_code":"2705002","name":"Mata Grande","cp":["57540-000"],"lat":"-8.9854","lng":"-37.7615"},{"country_code":"BR","state_code":"02","province_code":"2705101","name":"Matriz de Camaragibe","cp":["57910-000"],"lat":"-9.1383","lng":"-35.5761"},{"country_code":"BR","state_code":"02","province_code":"2705200","name":"Messias","cp":["57990-000"],"lat":"-9.3211","lng":"-35.8222"},{"country_code":"BR","state_code":"02","province_code":"2705309","name":"Minador do Negr\u00e3o","cp":["57615-000"],"lat":"-9.3186","lng":"-36.8863"},{"country_code":"BR","state_code":"02","province_code":"2705408","name":"Monteir\u00f3polis","cp":["57440-000"],"lat":"-9.6202","lng":"-37.2935"},{"country_code":"BR","state_code":"02","province_code":"2705507","name":"Murici","cp":["57820-000"],"lat":"-9.2983","lng":"-35.9"},{"country_code":"BR","state_code":"02","province_code":"2705606","name":"Novo Lino","cp":["57970-000"],"lat":"-8.8809","lng":"-35.6195"},{"country_code":"BR","state_code":"02","province_code":"2705705","name":"Olho d'\u00c1gua das Flores","cp":["57442-000"],"lat":"-9.5403","lng":"-37.2521"},{"country_code":"BR","state_code":"02","province_code":"2705804","name":"Olho d'\u00c1gua do Casado","cp":["57470-000"],"lat":"-9.4565","lng":"-37.835"},{"country_code":"BR","state_code":"02","province_code":"2705903","name":"Olho d'\u00c1gua Grande","cp":["57390-000"],"lat":"-10.0562","lng":"-36.7952"},{"country_code":"BR","state_code":"02","province_code":"2706000","name":"Oliven\u00e7a","cp":["57550-000"],"lat":"-9.4695","lng":"-37.1668"},{"country_code":"BR","state_code":"02","province_code":"2706109","name":"Ouro Branco","cp":["57525-000"],"lat":"-9.129","lng":"-37.3737"},{"country_code":"BR","state_code":"02","province_code":"2706208","name":"Palestina","cp":["57410-000"],"lat":"-9.675","lng":"-37.331"},{"country_code":"BR","state_code":"02","province_code":"2706307","name":"Palmeira dos \u00cdndios","cp":["57600-000"],"lat":"-9.409","lng":"-36.6065"},{"country_code":"BR","state_code":"02","province_code":"2706406","name":"P\u00e3o de A\u00e7\u00facar","cp":["57400-000"],"lat":"-9.6835","lng":"-37.4543"},{"country_code":"BR","state_code":"02","province_code":"2706422","name":"Pariconha","cp":["57475-000"],"lat":"-9.2204","lng":"-38.0167"},{"country_code":"BR","state_code":"02","province_code":"2706448","name":"Paripueira","cp":["57935-000"],"lat":"-9.4294","lng":"-35.5898"},{"country_code":"BR","state_code":"02","province_code":"2706505","name":"Passo de Camaragibe","cp":["57930-000"],"lat":"-9.2987","lng":"-35.4279"},{"country_code":"BR","state_code":"02","province_code":"2706604","name":"Paulo Jacinto","cp":["57740-000"],"lat":"-9.3684","lng":"-36.3929"},{"country_code":"BR","state_code":"02","province_code":"2706703","name":"Penedo","cp":["57200-000"],"lat":"-10.2445","lng":"-36.4699"},{"country_code":"BR","state_code":"02","province_code":"2706802","name":"Pia\u00e7abu\u00e7u","cp":["57210-000"],"lat":"-10.3739","lng":"-36.419"},{"country_code":"BR","state_code":"02","province_code":"2706901","name":"Pilar","cp":["57150-000"],"lat":"-9.6175","lng":"-36.0632"},{"country_code":"BR","state_code":"02","province_code":"2707008","name":"Pindoba","cp":["57720-000"],"lat":"-9.4749","lng":"-36.3034"},{"country_code":"BR","state_code":"02","province_code":"2707107","name":"Piranhas","cp":["57460-000"],"lat":"-9.5481","lng":"-37.7453"},{"country_code":"BR","state_code":"02","province_code":"2707206","name":"Po\u00e7o das Trincheiras","cp":["57510-000"],"lat":"-9.2926","lng":"-37.3199"},{"country_code":"BR","state_code":"02","province_code":"2707305","name":"Porto Calvo","cp":["57900-000"],"lat":"-9.0706","lng":"-35.3734"},{"country_code":"BR","state_code":"02","province_code":"2707404","name":"Porto de Pedras","cp":["57945-000"],"lat":"-9.1156","lng":"-35.3916"},{"country_code":"BR","state_code":"02","province_code":"2707503","name":"Porto Real do Col\u00e9gio","cp":["57290-000"],"lat":"-10.1054","lng":"-36.7269"},{"country_code":"BR","state_code":"02","province_code":"2707602","name":"Quebrangulo","cp":["57750-000"],"lat":"-9.2923","lng":"-36.4979"},{"country_code":"BR","state_code":"02","province_code":"2707701","name":"Rio Largo","cp":["57100-000"],"lat":"-9.5139","lng":"-35.9106"},{"country_code":"BR","state_code":"02","province_code":"2707800","name":"Roteiro","cp":["57246-000"],"lat":"-9.8591","lng":"-35.9831"},{"country_code":"BR","state_code":"02","province_code":"2707909","name":"Santa Luzia do Norte","cp":["57130-000"],"lat":"-9.6108","lng":"-35.8292"},{"country_code":"BR","state_code":"02","province_code":"2708006","name":"Santana do Ipanema","cp":["57500-000"],"lat":"-9.3443","lng":"-37.194"},{"country_code":"BR","state_code":"02","province_code":"2708105","name":"Santana do Munda\u00fa","cp":["57840-000"],"lat":"-9.1243","lng":"-36.2267"},{"country_code":"BR","state_code":"02","province_code":"2708204","name":"S\u00e3o Br\u00e1s","cp":["57380-000"],"lat":"-10.1241","lng":"-36.8504"},{"country_code":"BR","state_code":"02","province_code":"2708303","name":"S\u00e3o Jos\u00e9 da Laje","cp":["57860-000"],"lat":"-8.975","lng":"-36.0339"},{"country_code":"BR","state_code":"02","province_code":"2708402","name":"S\u00e3o Jos\u00e9 da Tapera","cp":["57445-000"],"lat":"-9.5134","lng":"-37.6088"},{"country_code":"BR","state_code":"02","province_code":"2708501","name":"S\u00e3o Lu\u00eds do Quitunde","cp":["57920-000"],"lat":"-9.2628","lng":"-35.5719"},{"country_code":"BR","state_code":"02","province_code":"2708600","name":"S\u00e3o Miguel dos Campos","cp":["57240-000"],"lat":"-9.8288","lng":"-36.1138"},{"country_code":"BR","state_code":"02","province_code":"2708709","name":"S\u00e3o Miguel dos Milagres","cp":["57940-000"],"lat":"-9.2542","lng":"-35.3842"},{"country_code":"BR","state_code":"02","province_code":"2708808","name":"S\u00e3o Sebasti\u00e3o","cp":["57275-000"],"lat":"-9.967","lng":"-36.5528"},{"country_code":"BR","state_code":"02","province_code":"2708907","name":"Satuba","cp":["57120-000"],"lat":"-9.5853","lng":"-35.8456"},{"country_code":"BR","state_code":"02","province_code":"2708956","name":"Senador Rui Palmeira","cp":["57515-000"],"lat":"-9.3383","lng":"-37.5597"},{"country_code":"BR","state_code":"02","province_code":"2709004","name":"Tanque d'Arca","cp":["57635-000"],"lat":"-9.5607","lng":"-36.4082"},{"country_code":"BR","state_code":"02","province_code":"2709103","name":"Taquarana","cp":["57640-000"],"lat":"-9.5977","lng":"-36.4878"},{"country_code":"BR","state_code":"02","province_code":"2709152","name":"Teot\u00f4nio Vilela","cp":["57265-000"],"lat":"-9.9901","lng":"-36.4327"},{"country_code":"BR","state_code":"02","province_code":"2709202","name":"Traipu","cp":["57370-000"],"lat":"-9.8924","lng":"-36.9785"},{"country_code":"BR","state_code":"02","province_code":"2709301","name":"Uni\u00e3o dos Palmares","cp":["57800-000"],"lat":"-9.1325","lng":"-36.0818"},{"country_code":"BR","state_code":"02","province_code":"2709400","name":"Vi\u00e7osa","cp":["57700-000"],"lat":"-9.3602","lng":"-36.3209"},{"country_code":"BR","state_code":"03","province_code":"1600105","name":"Amap\u00e1","cp":["68950-000"],"lat":"1.8571","lng":"-50.8437"},{"country_code":"BR","state_code":"03","province_code":"1600154","name":"Pedra Branca do Amapar\u00ed","cp":["68948-000"],"lat":"1.1484","lng":"-52.4012"},{"country_code":"BR","state_code":"03","province_code":"1600204","name":"Cal\u00e7oene","cp":["68960-000"],"lat":"2.361","lng":"-51.4529"},{"country_code":"BR","state_code":"03","province_code":"1600212","name":"Cutias","cp":["68973-000"],"lat":"0.9971","lng":"-50.5204"},{"country_code":"BR","state_code":"03","province_code":"1600238","name":"Ferreira Gomes","cp":["68915-000"],"lat":"0.9101","lng":"-51.3544"},{"country_code":"BR","state_code":"03","province_code":"1600253","name":"Itaubal","cp":["68976-000"],"lat":"0.5773","lng":"-50.6783"},{"country_code":"BR","state_code":"03","province_code":"1600279","name":"Laranjal do Jari","cp":["68920-000"],"lat":"0.9383","lng":"-53.2295"},{"country_code":"BR","state_code":"03","province_code":"1600303","name":"Macap\u00e1","cp":["68900-000"],"lat":"0.5987","lng":"-50.7685"},{"country_code":"BR","state_code":"03","province_code":"1600402","name":"Mazag\u00e3o","cp":["68940-000"],"lat":"0.0399","lng":"-52.1163"},{"country_code":"BR","state_code":"03","province_code":"1600501","name":"Oiapoque","cp":["68980-000"],"lat":"2.7079","lng":"-52.1696"},{"country_code":"BR","state_code":"03","province_code":"1600535","name":"Porto Grande","cp":["68997-000"],"lat":"0.5655","lng":"-51.7118"},{"country_code":"BR","state_code":"03","province_code":"1600550","name":"Pracu\u00faba","cp":["68918-000"],"lat":"1.6708","lng":"-51.2449"},{"country_code":"BR","state_code":"03","province_code":"1600600","name":"Santana","cp":["68925-000"],"lat":"0.1813","lng":"-51.3884"},{"country_code":"BR","state_code":"03","province_code":"1600709","name":"Tartarugalzinho","cp":["68990-000"],"lat":"1.263","lng":"-51.1097"},{"country_code":"BR","state_code":"03","province_code":"1600808","name":"Vit\u00f3ria do Jari","cp":["68924-000"],"lat":"-0.9565","lng":"-52.0344"},{"country_code":"BR","state_code":"03","province_code":"","name":"Amapari","cp":["68945-000"],"lat":"0.6167","lng":"-51.65"},{"country_code":"BR","state_code":"04","province_code":"1300029","name":"Alvar\u00e3es","cp":["69475-000"],"lat":"-3.7149","lng":"-65.3041"},{"country_code":"BR","state_code":"04","province_code":"1300060","name":"Amatur\u00e1","cp":["69620-000"],"lat":"-3.3893","lng":"-68.227"},{"country_code":"BR","state_code":"04","province_code":"1300086","name":"Anam\u00e3","cp":["69445-000"],"lat":"-3.4799","lng":"-61.7169"},{"country_code":"BR","state_code":"04","province_code":"1300102","name":"Anori","cp":["69440-000"],"lat":"-4.2132","lng":"-62.1556"},{"country_code":"BR","state_code":"04","province_code":"1300144","name":"Apu\u00ed","cp":["69265-000"],"lat":"-7.7892","lng":"-59.341"},{"country_code":"BR","state_code":"04","province_code":"1300201","name":"Atalaia do Norte","cp":["69650-000"],"lat":"-5.6645","lng":"-71.8278"},{"country_code":"BR","state_code":"04","province_code":"1300300","name":"Autazes","cp":["69240-000"],"lat":"-3.873","lng":"-59.6814"},{"country_code":"BR","state_code":"04","province_code":"1300409","name":"Barcelos","cp":["69700-000"],"lat":"-0.3929","lng":"-63.5371"},{"country_code":"BR","state_code":"04","province_code":"1300508","name":"Barreirinha","cp":["69160-000"],"lat":"-3.0656","lng":"-57.1662"},{"country_code":"BR","state_code":"04","province_code":"1300607","name":"Benjamin Constant","cp":["69630-000"],"lat":"-5.6484","lng":"-70.4068"},{"country_code":"BR","state_code":"04","province_code":"1300631","name":"Beruri","cp":["69430-000"],"lat":"-4.3437","lng":"-61.7513"},{"country_code":"BR","state_code":"04","province_code":"1300680","name":"Boa Vista do Ramos","cp":["69195-000"],"lat":"-3.1478","lng":"-57.625"},{"country_code":"BR","state_code":"04","province_code":"1300706","name":"Boca do Acre","cp":["69850-000"],"lat":"-8.5542","lng":"-68.0359"},{"country_code":"BR","state_code":"04","province_code":"1300805","name":"Borba","cp":["69200-000"],"lat":"-5.1124","lng":"-59.3054"},{"country_code":"BR","state_code":"04","province_code":"1300839","name":"Caapiranga","cp":["69410-000"],"lat":"-3.1298","lng":"-61.7441"},{"country_code":"BR","state_code":"04","province_code":"1300904","name":"Canutama","cp":["69820-000"],"lat":"-7.5897","lng":"-64.1294"},{"country_code":"BR","state_code":"04","province_code":"1301001","name":"Carauari","cp":["69500-000"],"lat":"-5.1159","lng":"-67.3578"},{"country_code":"BR","state_code":"04","province_code":"1301100","name":"Careiro","cp":["69250-000"],"lat":"-3.8332","lng":"-60.2047"},{"country_code":"BR","state_code":"04","province_code":"1301159","name":"Careiro da V\u00e1rzea","cp":["69255-000"],"lat":"-3.3515","lng":"-59.6553"},{"country_code":"BR","state_code":"04","province_code":"1301209","name":"Coari","cp":["69460-000"],"lat":"-4.085","lng":"-63.1414"},{"country_code":"BR","state_code":"04","province_code":"1301308","name":"Codaj\u00e1s","cp":["69450-000"],"lat":"-3.1626","lng":"-63.1473"},{"country_code":"BR","state_code":"04","province_code":"1301407","name":"Eirunep\u00e9","cp":["69880-000"],"lat":"-7.1585","lng":"-70.4155"},{"country_code":"BR","state_code":"04","province_code":"1301506","name":"Envira","cp":["69870-000"],"lat":"-7.6421","lng":"-70.1408"},{"country_code":"BR","state_code":"04","province_code":"1301605","name":"Fonte Boa","cp":["69670-000"],"lat":"-2.4959","lng":"-66.2662"},{"country_code":"BR","state_code":"04","province_code":"1301654","name":"Guajar\u00e1","cp":["69895-000"],"lat":"-7.1365","lng":"-72.7151"},{"country_code":"BR","state_code":"04","province_code":"1301704","name":"Humait\u00e1","cp":["69800-000"],"lat":"-7.4387","lng":"-62.3248"},{"country_code":"BR","state_code":"04","province_code":"1301803","name":"Ipixuna","cp":["69890-000"],"lat":"-7.1191","lng":"-71.3759"},{"country_code":"BR","state_code":"04","province_code":"1301852","name":"Iranduba","cp":["69405-000"],"lat":"-3.1014","lng":"-60.4464"},{"country_code":"BR","state_code":"04","province_code":"1301902","name":"Itacoatiara","cp":["69100-000"],"lat":"-3.1598","lng":"-58.812"},{"country_code":"BR","state_code":"04","province_code":"1301951","name":"Itamarati","cp":["69510-000"],"lat":"-6.7647","lng":"-68.0393"},{"country_code":"BR","state_code":"04","province_code":"1302009","name":"Itapiranga","cp":["69120-000"],"lat":"-2.516","lng":"-58.5573"},{"country_code":"BR","state_code":"04","province_code":"1302108","name":"Japur\u00e1","cp":["69495-000"],"lat":"-1.5535","lng":"-68.2453"},{"country_code":"BR","state_code":"04","province_code":"1302207","name":"Juru\u00e1","cp":["69520-000"],"lat":"-3.2753","lng":"-66.2421"},{"country_code":"BR","state_code":"04","province_code":"1302306","name":"Juta\u00ed","cp":["69660-000"],"lat":"-4.6548","lng":"-68.2803"},{"country_code":"BR","state_code":"04","province_code":"1302405","name":"L\u00e1brea","cp":["69830-000"],"lat":"-8.1844","lng":"-66.075"},{"country_code":"BR","state_code":"04","province_code":"1302504","name":"Manacapuru","cp":["69400-000"],"lat":"-3.2475","lng":"-61.0079"},{"country_code":"BR","state_code":"04","province_code":"1302553","name":"Manaquiri","cp":["69435-000"],"lat":"-3.7905","lng":"-60.7072"},{"country_code":"BR","state_code":"04","province_code":"1302603","name":"Manaus","cp":["69000-000"],"lat":"-2.6638","lng":"-60.135"},{"country_code":"BR","state_code":"04","province_code":"1302702","name":"Manicor\u00e9","cp":["69280-000"],"lat":"-7.0664","lng":"-61.557"},{"country_code":"BR","state_code":"04","province_code":"1302801","name":"Mara\u00e3","cp":["69490-000"],"lat":"-2.6379","lng":"-64.8042"},{"country_code":"BR","state_code":"04","province_code":"1302900","name":"Mau\u00e9s","cp":["69190-000"],"lat":"-5.0633","lng":"-58.3028"},{"country_code":"BR","state_code":"04","province_code":"1303007","name":"Nhamund\u00e1","cp":["69140-000"],"lat":"-1.3665","lng":"-57.8879"},{"country_code":"BR","state_code":"04","province_code":"1303106","name":"Nova Olinda do Norte","cp":["69230-000"],"lat":"-3.9464","lng":"-58.5974"},{"country_code":"BR","state_code":"04","province_code":"1303205","name":"Novo Air\u00e3o","cp":["69730-000"],"lat":"-1.9839","lng":"-61.7851"},{"country_code":"BR","state_code":"04","province_code":"1303304","name":"Novo Aripuan\u00e3","cp":["69260-000"],"lat":"-7.001","lng":"-60.6302"},{"country_code":"BR","state_code":"04","province_code":"1303403","name":"Parintins","cp":["69150-000"],"lat":"-2.6634","lng":"-56.9341"},{"country_code":"BR","state_code":"04","province_code":"1303502","name":"Pauini","cp":["69860-000"],"lat":"-7.6893","lng":"-68.1422"},{"country_code":"BR","state_code":"04","province_code":"1303536","name":"Presidente Figueiredo","cp":["69735-000"],"lat":"-1.2834","lng":"-59.9832"},{"country_code":"BR","state_code":"04","province_code":"1303569","name":"Rio Preto da Eva","cp":["69115-000"],"lat":"-2.4929","lng":"-59.6078"},{"country_code":"BR","state_code":"04","province_code":"1303601","name":"Santa Isabel do Rio Negro","cp":["69740-000"],"lat":"-0.2548","lng":"-65.5512"},{"country_code":"BR","state_code":"04","province_code":"1303700","name":"Santo Ant\u00f4nio do I\u00e7\u00e1","cp":["69680-000"],"lat":"-3.09","lng":"-68.7592"},{"country_code":"BR","state_code":"04","province_code":"1303809","name":"S\u00e3o Gabriel da Cachoeira","cp":["69750-000"],"lat":"0.2404","lng":"-68.0324"},{"country_code":"BR","state_code":"04","province_code":"1303908","name":"S\u00e3o Paulo de Oliven\u00e7a","cp":["69600-000"],"lat":"-4.6509","lng":"-69.5814"},{"country_code":"BR","state_code":"04","province_code":"1303957","name":"S\u00e3o Sebasti\u00e3o do Uatum\u00e3","cp":["69135-000"],"lat":"-1.932","lng":"-58.7422"},{"country_code":"BR","state_code":"04","province_code":"1304005","name":"Silves","cp":["69110-000"],"lat":"-2.7685","lng":"-58.6275"},{"country_code":"BR","state_code":"04","province_code":"1304062","name":"Tabatinga","cp":["69640-000"],"lat":"-3.963","lng":"-69.6027"},{"country_code":"BR","state_code":"04","province_code":"1304104","name":"Tapau\u00e1","cp":["69480-000"],"lat":"-6.2142","lng":"-65.6998"},{"country_code":"BR","state_code":"04","province_code":"1304203","name":"Tef\u00e9","cp":["69470-000"],"lat":"-4.5223","lng":"-65.6045"},{"country_code":"BR","state_code":"04","province_code":"1304237","name":"Tonantins","cp":["69685-000"],"lat":"-2.6409","lng":"-67.8461"},{"country_code":"BR","state_code":"04","province_code":"1304260","name":"Uarini","cp":["69485-000"],"lat":"-3.1474","lng":"-65.4204"},{"country_code":"BR","state_code":"04","province_code":"1304302","name":"Urucar\u00e1","cp":["69130-000"],"lat":"-1.1928","lng":"-58.8043"},{"country_code":"BR","state_code":"04","province_code":"1304401","name":"Urucurituba","cp":["69180-000"],"lat":"-2.8327","lng":"-57.7501"},{"country_code":"BR","state_code":"05","province_code":"2900108","name":"Aba\u00edra","cp":["46690-000"],"lat":"-13.3213","lng":"-41.6976"},{"country_code":"BR","state_code":"05","province_code":"2900207","name":"Abar\u00e9","cp":["48680-000"],"lat":"-8.8096","lng":"-39.2706"},{"country_code":"BR","state_code":"05","province_code":"2900306","name":"Acajutiba","cp":["48360-000"],"lat":"-11.6068","lng":"-38.0359"},{"country_code":"BR","state_code":"05","province_code":"2900355","name":"Adustina","cp":["48435-000"],"lat":"-10.4823","lng":"-37.9845"},{"country_code":"BR","state_code":"05","province_code":"2900405","name":"\u00c1gua Fria","cp":["48170-000"],"lat":"-11.7476","lng":"-38.735"},{"country_code":"BR","state_code":"05","province_code":"2900504","name":"\u00c9rico Cardoso","cp":["46180-000"],"lat":"-13.4369","lng":"-42.1033"},{"country_code":"BR","state_code":"05","province_code":"2900603","name":"Aiquara","cp":["45220-000"],"lat":"-14.1114","lng":"-39.8764"},{"country_code":"BR","state_code":"05","province_code":"2900702","name":"Alagoinhas","cp":["48000-000"],"lat":"-12.0058","lng":"-38.3615"},{"country_code":"BR","state_code":"05","province_code":"2900801","name":"Alcoba\u00e7a","cp":["45990-000"],"lat":"-17.4636","lng":"-39.374"},{"country_code":"BR","state_code":"05","province_code":"2900900","name":"Almadina","cp":["45640-000"],"lat":"-14.6761","lng":"-39.6907"},{"country_code":"BR","state_code":"05","province_code":"2901007","name":"Amargosa","cp":["45300-000"],"lat":"-13.0497","lng":"-39.6072"},{"country_code":"BR","state_code":"05","province_code":"2901106","name":"Am\u00e9lia Rodrigues","cp":["44230-000"],"lat":"-12.3118","lng":"-38.7385"},{"country_code":"BR","state_code":"05","province_code":"2901155","name":"Am\u00e9rica Dourada","cp":["44910-000"],"lat":"-11.4694","lng":"-41.4733"},{"country_code":"BR","state_code":"05","province_code":"2901205","name":"Anag\u00e9","cp":["45180-000"],"lat":"-14.6617","lng":"-41.147"},{"country_code":"BR","state_code":"05","province_code":"2901304","name":"Andara\u00ed","cp":["46830-000"],"lat":"-12.8417","lng":"-41.2768"},{"country_code":"BR","state_code":"05","province_code":"2901353","name":"Andorinha","cp":["48990-000"],"lat":"-10.2222","lng":"-39.8639"},{"country_code":"BR","state_code":"05","province_code":"2901403","name":"Angical","cp":["47960-000"],"lat":"-11.9628","lng":"-44.7498"},{"country_code":"BR","state_code":"05","province_code":"2901502","name":"Anguera","cp":["44670-000"],"lat":"-12.1822","lng":"-39.2138"},{"country_code":"BR","state_code":"05","province_code":"2901601","name":"Antas","cp":["48420-000"],"lat":"-10.4214","lng":"-38.3034"},{"country_code":"BR","state_code":"05","province_code":"2901700","name":"Ant\u00f4nio Cardoso","cp":["44180-000"],"lat":"-12.3864","lng":"-39.1455"},{"country_code":"BR","state_code":"05","province_code":"2901809","name":"Ant\u00f4nio Gon\u00e7alves","cp":["44780-000"],"lat":"-10.6228","lng":"-40.4093"},{"country_code":"BR","state_code":"05","province_code":"2901908","name":"Apor\u00e1","cp":["48350-000"],"lat":"-11.7544","lng":"-38.2278"},{"country_code":"BR","state_code":"05","province_code":"2901957","name":"Apuarema","cp":["45355-000"],"lat":"-13.83","lng":"-39.7344"},{"country_code":"BR","state_code":"05","province_code":"2902005","name":"Aracatu","cp":["46130-000"],"lat":"-14.3901","lng":"-41.3633"},{"country_code":"BR","state_code":"05","province_code":"2902054","name":"Ara\u00e7as","cp":["48108-000"],"lat":"-12.1468","lng":"-38.1723"},{"country_code":"BR","state_code":"05","province_code":"2902104","name":"Araci","cp":["48760-000"],"lat":"-11.1356","lng":"-39.07"},{"country_code":"BR","state_code":"05","province_code":"2902203","name":"Aramari","cp":["48130-000"],"lat":"-12.0462","lng":"-38.5576"},{"country_code":"BR","state_code":"05","province_code":"2902252","name":"Arataca","cp":["45695-000"],"lat":"-15.2461","lng":"-39.4248"},{"country_code":"BR","state_code":"05","province_code":"2902302","name":"Aratu\u00edpe","cp":["44490-000"],"lat":"-13.0936","lng":"-39.0826"},{"country_code":"BR","state_code":"05","province_code":"2902401","name":"Aurelino Leal","cp":["45675-000"],"lat":"-14.3317","lng":"-39.5099"},{"country_code":"BR","state_code":"05","province_code":"2902500","name":"Baian\u00f3polis","cp":["47830-000"],"lat":"-12.4833","lng":"-44.5311"},{"country_code":"BR","state_code":"05","province_code":"2902609","name":"Baixa Grande","cp":["44620-000"],"lat":"-11.9774","lng":"-40.1799"},{"country_code":"BR","state_code":"05","province_code":"2902658","name":"Banza\u00ea","cp":["48405-000"],"lat":"-10.6158","lng":"-38.6269"},{"country_code":"BR","state_code":"05","province_code":"2902708","name":"Barra","cp":["47100-000"],"lat":"-11.3183","lng":"-43.4688"},{"country_code":"BR","state_code":"05","province_code":"2902807","name":"Barra da Estiva","cp":["46650-000"],"lat":"-13.7178","lng":"-41.0838"},{"country_code":"BR","state_code":"05","province_code":"2902906","name":"Barra do Cho\u00e7a","cp":["45120-000"],"lat":"-15.0102","lng":"-40.6673"},{"country_code":"BR","state_code":"05","province_code":"2903003","name":"Barra do Mendes","cp":["44990-000"],"lat":"-12.1609","lng":"-42.0354"},{"country_code":"BR","state_code":"05","province_code":"2903102","name":"Barra do Rocha","cp":["45560-000"],"lat":"-14.0603","lng":"-39.6138"},{"country_code":"BR","state_code":"05","province_code":"2903201","name":"Barreiras","cp":["47800-000"],"lat":"-11.9333","lng":"-45.4924"},{"country_code":"BR","state_code":"05","province_code":"2903235","name":"Barro Alto","cp":["44895-000"],"lat":"-11.7739","lng":"-41.9132"},{"country_code":"BR","state_code":"05","province_code":"2903409","name":"Belmonte","cp":["45800-000"],"lat":"-15.8916","lng":"-39.3227"},{"country_code":"BR","state_code":"05","province_code":"2903508","name":"Belo Campo","cp":["45160-000"],"lat":"-14.8742","lng":"-41.2267"},{"country_code":"BR","state_code":"05","province_code":"2903607","name":"Biritinga","cp":["48780-000"],"lat":"-11.6708","lng":"-38.7893"},{"country_code":"BR","state_code":"05","province_code":"2903706","name":"Boa Nova","cp":["45250-000"],"lat":"-14.3641","lng":"-40.2238"},{"country_code":"BR","state_code":"05","province_code":"2903805","name":"Boa Vista do Tupim","cp":["46850-000"],"lat":"-12.8731","lng":"-40.6282"},{"country_code":"BR","state_code":"05","province_code":"2903904","name":"Bom Jesus da Lapa","cp":["47600-000"],"lat":"-13.2085","lng":"-43.2962"},{"country_code":"BR","state_code":"05","province_code":"2903953","name":"Bom Jesus da Serra","cp":["45263-000"],"lat":"-14.3838","lng":"-40.5398"},{"country_code":"BR","state_code":"05","province_code":"2904001","name":"Boninal","cp":["46740-000"],"lat":"-12.8036","lng":"-41.6834"},{"country_code":"BR","state_code":"05","province_code":"2904050","name":"Bonito","cp":["46820-000"],"lat":"-12.0049","lng":"-41.3178"},{"country_code":"BR","state_code":"05","province_code":"2904100","name":"Boquira","cp":["46530-000"],"lat":"-12.7394","lng":"-42.6417"},{"country_code":"BR","state_code":"05","province_code":"2904209","name":"Botupor\u00e3","cp":["46570-000"],"lat":"-13.2507","lng":"-42.4108"},{"country_code":"BR","state_code":"05","province_code":"2904308","name":"Brej\u00f5es","cp":["45325-000"],"lat":"-13.0706","lng":"-39.821"},{"country_code":"BR","state_code":"05","province_code":"2904407","name":"Brejol\u00e2ndia","cp":["47750-000"],"lat":"-12.4124","lng":"-43.9282"},{"country_code":"BR","state_code":"05","province_code":"2904506","name":"Brotas de Maca\u00fabas","cp":["47560-000"],"lat":"-12.1061","lng":"-42.5111"},{"country_code":"BR","state_code":"05","province_code":"2904605","name":"Brumado","cp":["46100-000"],"lat":"-14.1526","lng":"-41.6037"},{"country_code":"BR","state_code":"05","province_code":"2904704","name":"Buerarema","cp":["45615-000"],"lat":"-14.9907","lng":"-39.3059"},{"country_code":"BR","state_code":"05","province_code":"2904753","name":"Buritirama","cp":["47120-000"],"lat":"-10.5708","lng":"-43.6886"},{"country_code":"BR","state_code":"05","province_code":"2904803","name":"Caatiba","cp":["45130-000"],"lat":"-15.0485","lng":"-40.1459"},{"country_code":"BR","state_code":"05","province_code":"2904852","name":"Cabaceiras do Paragua\u00e7u","cp":["44345-000"],"lat":"-12.5542","lng":"-39.196"},{"country_code":"BR","state_code":"05","province_code":"2904902","name":"Cachoeira","cp":["44300-000"],"lat":"-12.676","lng":"-38.8541"},{"country_code":"BR","state_code":"05","province_code":"2905008","name":"Cacul\u00e9","cp":["46300-000"],"lat":"-14.3883","lng":"-42.4152"},{"country_code":"BR","state_code":"05","province_code":"2905107","name":"Ca\u00e9m","cp":["44730-000"],"lat":"-11.194","lng":"-40.2574"},{"country_code":"BR","state_code":"05","province_code":"2905156","name":"Caetanos","cp":["45265-000"],"lat":"-14.2923","lng":"-41.01"},{"country_code":"BR","state_code":"05","province_code":"2905206","name":"Caetit\u00e9","cp":["46400-000"],"lat":"-13.9078","lng":"-42.5223"},{"country_code":"BR","state_code":"05","province_code":"2905305","name":"Cafarnaum","cp":["44880-000"],"lat":"-11.8067","lng":"-41.384"},{"country_code":"BR","state_code":"05","province_code":"2905404","name":"Cairu","cp":["45420-000"],"lat":"-13.5266","lng":"-38.9481"},{"country_code":"BR","state_code":"05","province_code":"2905503","name":"Caldeir\u00e3o Grande","cp":["44750-000"],"lat":"-11.0435","lng":"-40.2951"},{"country_code":"BR","state_code":"05","province_code":"2905602","name":"Camacan","cp":["45880-000"],"lat":"-15.4277","lng":"-39.5082"},{"country_code":"BR","state_code":"05","province_code":"2905701","name":"Cama\u00e7ari","cp":["42800-000"],"lat":"-12.619","lng":"-38.2057"},{"country_code":"BR","state_code":"05","province_code":"2905800","name":"Camamu","cp":["45445-000"],"lat":"-14.0181","lng":"-39.224"},{"country_code":"BR","state_code":"05","province_code":"2905909","name":"Campo Alegre de Lourdes","cp":["47220-000"],"lat":"-9.501","lng":"-42.9828"},{"country_code":"BR","state_code":"05","province_code":"2906006","name":"Campo Formoso","cp":["44790-000"],"lat":"-10.3101","lng":"-40.8108"},{"country_code":"BR","state_code":"05","province_code":"2906105","name":"Can\u00e1polis","cp":["47730-000"],"lat":"-13.1252","lng":"-44.251"},{"country_code":"BR","state_code":"05","province_code":"2906204","name":"Canarana","cp":["44890-000"],"lat":"-11.6678","lng":"-41.7376"},{"country_code":"BR","state_code":"05","province_code":"2906303","name":"Canavieiras","cp":["45860-000"],"lat":"-15.6483","lng":"-39.1709"},{"country_code":"BR","state_code":"05","province_code":"2906402","name":"Candeal","cp":["48710-000"],"lat":"-11.895","lng":"-39.2039"},{"country_code":"BR","state_code":"05","province_code":"2906501","name":"Candeias","cp":["43800-000"],"lat":"-12.6557","lng":"-38.487"},{"country_code":"BR","state_code":"05","province_code":"2906600","name":"Candiba","cp":["46380-000"],"lat":"-14.4697","lng":"-42.8739"},{"country_code":"BR","state_code":"05","province_code":"2906709","name":"C\u00e2ndido Sales","cp":["45157-000"],"lat":"-15.4608","lng":"-41.1635"},{"country_code":"BR","state_code":"05","province_code":"2906808","name":"Cansan\u00e7\u00e3o","cp":["48840-000"],"lat":"-10.8118","lng":"-39.4146"},{"country_code":"BR","state_code":"05","province_code":"2906824","name":"Canudos","cp":["48520-000"],"lat":"-9.8798","lng":"-39.1472"},{"country_code":"BR","state_code":"05","province_code":"2906857","name":"Capela do Alto Alegre","cp":["44645-000"],"lat":"-11.6184","lng":"-39.8323"},{"country_code":"BR","state_code":"05","province_code":"2906873","name":"Capim Grosso","cp":["44695-000"],"lat":"-11.2942","lng":"-39.9557"},{"country_code":"BR","state_code":"05","province_code":"2906899","name":"Cara\u00edbas","cp":["45177-000"],"lat":"-14.6063","lng":"-41.2576"},{"country_code":"BR","state_code":"05","province_code":"2906907","name":"Caravelas","cp":["45900-000"],"lat":"-17.6677","lng":"-39.7562"},{"country_code":"BR","state_code":"05","province_code":"2907004","name":"Cardeal da Silva","cp":["48390-000"],"lat":"-11.998","lng":"-37.9247"},{"country_code":"BR","state_code":"05","province_code":"2907103","name":"Carinhanha","cp":["46445-000"],"lat":"-14.2139","lng":"-43.8471"},{"country_code":"BR","state_code":"05","province_code":"2907202","name":"Casa Nova","cp":["47300-000"],"lat":"-9.1044","lng":"-41.1574"},{"country_code":"BR","state_code":"05","province_code":"2907301","name":"Castro Alves","cp":["44500-000"],"lat":"-12.7494","lng":"-39.3769"},{"country_code":"BR","state_code":"05","province_code":"2907400","name":"Catol\u00e2ndia","cp":["47815-000"],"lat":"-12.2961","lng":"-44.6753"},{"country_code":"BR","state_code":"05","province_code":"2907509","name":"Catu","cp":["48110-000"],"lat":"-12.3776","lng":"-38.4005"},{"country_code":"BR","state_code":"05","province_code":"2907558","name":"Caturama","cp":["46575-000"],"lat":"-13.186","lng":"-42.3025"},{"country_code":"BR","state_code":"05","province_code":"2907608","name":"Central","cp":["44940-000"],"lat":"-11.1542","lng":"-42.0815"},{"country_code":"BR","state_code":"05","province_code":"2907707","name":"Chorroch\u00f3","cp":["48660-000"],"lat":"-9.3055","lng":"-39.1565"},{"country_code":"BR","state_code":"05","province_code":"2907806","name":"C\u00edcero Dantas","cp":["48410-000"],"lat":"-10.5388","lng":"-38.4214"},{"country_code":"BR","state_code":"05","province_code":"2907905","name":"Cip\u00f3","cp":["48450-000"],"lat":"-11.1104","lng":"-38.5095"},{"country_code":"BR","state_code":"05","province_code":"2908002","name":"Coaraci","cp":["45638-000"],"lat":"-14.6449","lng":"-39.5938"},{"country_code":"BR","state_code":"05","province_code":"2908101","name":"Cocos","cp":["47680-000"],"lat":"-14.5944","lng":"-45.2796"},{"country_code":"BR","state_code":"05","province_code":"2908200","name":"Concei\u00e7\u00e3o da Feira","cp":["44320-000"],"lat":"-12.5069","lng":"-38.9947"},{"country_code":"BR","state_code":"05","province_code":"2908309","name":"Concei\u00e7\u00e3o do Almeida","cp":["44540-000"],"lat":"-12.855","lng":"-39.2409"},{"country_code":"BR","state_code":"05","province_code":"2908408","name":"Concei\u00e7\u00e3o do Coit\u00e9","cp":["48730-000"],"lat":"-11.6321","lng":"-39.1911"},{"country_code":"BR","state_code":"05","province_code":"2908507","name":"Concei\u00e7\u00e3o do Jacu\u00edpe","cp":["44245-000"],"lat":"-12.4217","lng":"-38.6986"},{"country_code":"BR","state_code":"05","province_code":"2908606","name":"Conde","cp":["48300-000"],"lat":"-11.8033","lng":"-37.6482"},{"country_code":"BR","state_code":"05","province_code":"2908705","name":"Conde\u00faba","cp":["46200-000"],"lat":"-14.9327","lng":"-42.0069"},{"country_code":"BR","state_code":"05","province_code":"2908804","name":"Contendas do Sincor\u00e1","cp":["46620-000"],"lat":"-13.796","lng":"-41.05"},{"country_code":"BR","state_code":"05","province_code":"2908903","name":"Cora\u00e7\u00e3o de Maria","cp":["44250-000"],"lat":"-12.2427","lng":"-38.7824"},{"country_code":"BR","state_code":"05","province_code":"2909000","name":"Cordeiros","cp":["46280-000"],"lat":"-14.9985","lng":"-41.8975"},{"country_code":"BR","state_code":"05","province_code":"2909109","name":"Coribe","cp":["47690-000"],"lat":"-13.7234","lng":"-44.4354"},{"country_code":"BR","state_code":"05","province_code":"2909208","name":"Coronel Jo\u00e3o S\u00e1","cp":["48590-000"],"lat":"-10.3888","lng":"-37.9428"},{"country_code":"BR","state_code":"05","province_code":"2909307","name":"Correntina","cp":["47650-000"],"lat":"-13.2899","lng":"-45.1319"},{"country_code":"BR","state_code":"05","province_code":"2909406","name":"Cotegipe","cp":["47900-000"],"lat":"-11.5884","lng":"-44.17"},{"country_code":"BR","state_code":"05","province_code":"2909505","name":"Cravol\u00e2ndia","cp":["45330-000"],"lat":"-13.4702","lng":"-39.7549"},{"country_code":"BR","state_code":"05","province_code":"2909604","name":"Cris\u00f3polis","cp":["48480-000"],"lat":"-11.4553","lng":"-38.1393"},{"country_code":"BR","state_code":"05","province_code":"2909703","name":"Crist\u00f3polis","cp":["47950-000"],"lat":"-12.2179","lng":"-44.2499"},{"country_code":"BR","state_code":"05","province_code":"2909802","name":"Cruz das Almas","cp":["44380-000"],"lat":"-12.6703","lng":"-39.1144"},{"country_code":"BR","state_code":"05","province_code":"2909901","name":"Cura\u00e7\u00e1","cp":["48930-000"],"lat":"-9.1346","lng":"-39.6685"},{"country_code":"BR","state_code":"05","province_code":"2910008","name":"D\u00e1rio Meira","cp":["45590-000"],"lat":"-14.4234","lng":"-39.9593"},{"country_code":"BR","state_code":"05","province_code":"2910057","name":"Dias d'\u00c1vila","cp":["42850-000"],"lat":"-12.5968","lng":"-38.2807"},{"country_code":"BR","state_code":"05","province_code":"2910107","name":"Dom Bas\u00edlio","cp":["46165-000"],"lat":"-13.7972","lng":"-41.7088"},{"country_code":"BR","state_code":"05","province_code":"2910206","name":"Dom Macedo Costa","cp":["44560-000"],"lat":"-12.9338","lng":"-39.1462"},{"country_code":"BR","state_code":"05","province_code":"2910305","name":"El\u00edsio Medrado","cp":["45305-000"],"lat":"-12.9543","lng":"-39.5058"},{"country_code":"BR","state_code":"05","province_code":"2910404","name":"Encruzilhada","cp":["45150-000"],"lat":"-15.5684","lng":"-40.9079"},{"country_code":"BR","state_code":"05","province_code":"2910503","name":"Entre Rios","cp":["48180-000"],"lat":"-12.0697","lng":"-38.0299"},{"country_code":"BR","state_code":"05","province_code":"2910602","name":"Esplanada","cp":["48370-000"],"lat":"-11.9547","lng":"-37.8936"},{"country_code":"BR","state_code":"05","province_code":"2910701","name":"Euclides da Cunha","cp":["48500-000"],"lat":"-10.4051","lng":"-39.0337"},{"country_code":"BR","state_code":"05","province_code":"2910727","name":"Eun\u00e1polis","cp":["45820-000"],"lat":"-16.3122","lng":"-39.6702"},{"country_code":"BR","state_code":"05","province_code":"2910750","name":"F\u00e1tima","cp":["48415-000"],"lat":"-10.546","lng":"-38.2237"},{"country_code":"BR","state_code":"05","province_code":"2910776","name":"Feira da Mata","cp":["46446-000"],"lat":"-14.132","lng":"-44.2528"},{"country_code":"BR","state_code":"05","province_code":"2910800","name":"Feira de Santana","cp":["44000-000"],"lat":"-12.2337","lng":"-39.0656"},{"country_code":"BR","state_code":"05","province_code":"2910859","name":"Filad\u00e9lfia","cp":["44775-000"],"lat":"-10.7663","lng":"-40.2056"},{"country_code":"BR","state_code":"05","province_code":"2910909","name":"Firmino Alves","cp":["45720-000"],"lat":"-14.9136","lng":"-39.9119"},{"country_code":"BR","state_code":"05","province_code":"2911006","name":"Floresta Azul","cp":["45740-000"],"lat":"-14.8445","lng":"-39.755"},{"country_code":"BR","state_code":"05","province_code":"2911105","name":"Formosa do Rio Preto","cp":["47990-000"],"lat":"-10.8886","lng":"-45.9121"},{"country_code":"BR","state_code":"05","province_code":"2911204","name":"Gandu","cp":["45450-000"],"lat":"-13.8156","lng":"-39.4474"},{"country_code":"BR","state_code":"05","province_code":"2911253","name":"Gavi\u00e3o","cp":["44650-000"],"lat":"-11.4889","lng":"-39.7741"},{"country_code":"BR","state_code":"05","province_code":"2911303","name":"Gentio do Ouro","cp":["47450-000"],"lat":"-11.3628","lng":"-42.5483"},{"country_code":"BR","state_code":"05","province_code":"2911402","name":"Gl\u00f3ria","cp":["48610-000"],"lat":"-9.111","lng":"-38.4065"},{"country_code":"BR","state_code":"05","province_code":"2911501","name":"Gongogi","cp":["45540-000"],"lat":"-14.3","lng":"-39.6014"},{"country_code":"BR","state_code":"05","province_code":"2911600","name":"Governador Mangabeira","cp":["44350-000"],"lat":"-12.5772","lng":"-39.0311"},{"country_code":"BR","state_code":"05","province_code":"2911659","name":"Guajeru","cp":["46205-000"],"lat":"-14.5788","lng":"-42.0399"},{"country_code":"BR","state_code":"05","province_code":"2911709","name":"Guanambi","cp":["46430-000"],"lat":"-14.133","lng":"-42.824"},{"country_code":"BR","state_code":"05","province_code":"2911808","name":"Guaratinga","cp":["45840-000"],"lat":"-16.5699","lng":"-39.9782"},{"country_code":"BR","state_code":"05","province_code":"2911857","name":"Heli\u00f3polis","cp":["48445-000"],"lat":"-10.7286","lng":"-38.2549"},{"country_code":"BR","state_code":"05","province_code":"2911907","name":"Ia\u00e7u","cp":["46860-000"],"lat":"-12.7698","lng":"-40.1834"},{"country_code":"BR","state_code":"05","province_code":"2912004","name":"Ibiassuc\u00ea","cp":["46390-000"],"lat":"-14.2029","lng":"-42.3021"},{"country_code":"BR","state_code":"05","province_code":"2912103","name":"Ibicara\u00ed","cp":["45745-000"],"lat":"-14.8744","lng":"-39.5598"},{"country_code":"BR","state_code":"05","province_code":"2912202","name":"Ibicoara","cp":["46760-000"],"lat":"-13.3766","lng":"-41.3408"},{"country_code":"BR","state_code":"05","province_code":"2912301","name":"Ibicu\u00ed","cp":["45290-000"],"lat":"-14.6097","lng":"-39.8557"},{"country_code":"BR","state_code":"05","province_code":"2912400","name":"Ibipeba","cp":["44970-000"],"lat":"-11.4978","lng":"-42.1908"},{"country_code":"BR","state_code":"05","province_code":"2912509","name":"Ibipitanga","cp":["46540-000"],"lat":"-12.8865","lng":"-42.3711"},{"country_code":"BR","state_code":"05","province_code":"2912608","name":"Ibiquera","cp":["46840-000"],"lat":"-12.5726","lng":"-40.8416"},{"country_code":"BR","state_code":"05","province_code":"2912707","name":"Ibirapitanga","cp":["45500-000"],"lat":"-14.0589","lng":"-39.4082"},{"country_code":"BR","state_code":"05","province_code":"2912806","name":"Ibirapu\u00e3","cp":["45940-000"],"lat":"-17.7557","lng":"-39.9737"},{"country_code":"BR","state_code":"05","province_code":"2912905","name":"Ibirataia","cp":["45580-000"],"lat":"-13.9729","lng":"-39.6371"},{"country_code":"BR","state_code":"05","province_code":"2913002","name":"Ibitiara","cp":["46700-000"],"lat":"-12.5658","lng":"-42.3899"},{"country_code":"BR","state_code":"05","province_code":"2913101","name":"Ibitit\u00e1","cp":["44960-000"],"lat":"-11.6935","lng":"-41.8415"},{"country_code":"BR","state_code":"05","province_code":"2913200","name":"Ibotirama","cp":["47520-000"],"lat":"-11.8862","lng":"-43.2529"},{"country_code":"BR","state_code":"05","province_code":"2913309","name":"Ichu","cp":["48725-000"],"lat":"-11.7034","lng":"-39.1872"},{"country_code":"BR","state_code":"05","province_code":"2913408","name":"Igapor\u00e3","cp":["46490-000"],"lat":"-13.8906","lng":"-42.7605"},{"country_code":"BR","state_code":"05","province_code":"2913457","name":"Igrapi\u00fana","cp":["45443-000"],"lat":"-13.8561","lng":"-39.1936"},{"country_code":"BR","state_code":"05","province_code":"2913507","name":"Igua\u00ed","cp":["45280-000"],"lat":"-14.6182","lng":"-40.0616"},{"country_code":"BR","state_code":"05","province_code":"2913606","name":"Ilh\u00e9us","cp":["45650-000"],"lat":"-14.7594","lng":"-39.2179"},{"country_code":"BR","state_code":"05","province_code":"2913705","name":"Inhambupe","cp":["48490-000"],"lat":"-11.7966","lng":"-38.3704"},{"country_code":"BR","state_code":"05","province_code":"2913804","name":"Ipecaet\u00e1","cp":["44680-000"],"lat":"-12.3378","lng":"-39.3283"},{"country_code":"BR","state_code":"05","province_code":"2913903","name":"Ipia\u00fa","cp":["45570-000"],"lat":"-14.0571","lng":"-39.7255"},{"country_code":"BR","state_code":"05","province_code":"2914000","name":"Ipir\u00e1","cp":["44600-000"],"lat":"-12.2741","lng":"-39.9164"},{"country_code":"BR","state_code":"05","province_code":"2914109","name":"Ipupiara","cp":["47590-000"],"lat":"-11.7695","lng":"-42.433"},{"country_code":"BR","state_code":"05","province_code":"2914208","name":"Irajuba","cp":["45370-000"],"lat":"-13.18","lng":"-39.9953"},{"country_code":"BR","state_code":"05","province_code":"2914307","name":"Iramaia","cp":["46770-000"],"lat":"-13.5463","lng":"-40.8283"},{"country_code":"BR","state_code":"05","province_code":"2914406","name":"Iraquara","cp":["46980-000"],"lat":"-12.2862","lng":"-41.5915"},{"country_code":"BR","state_code":"05","province_code":"2914505","name":"Irar\u00e1","cp":["44255-000"],"lat":"-12.049","lng":"-38.7362"},{"country_code":"BR","state_code":"05","province_code":"2914604","name":"Irec\u00ea","cp":["44900-000"],"lat":"-11.3032","lng":"-41.8344"},{"country_code":"BR","state_code":"05","province_code":"2914653","name":"Itabela","cp":["45848-000"],"lat":"-16.7164","lng":"-39.5733"},{"country_code":"BR","state_code":"05","province_code":"2914703","name":"Itaberaba","cp":["46880-000"],"lat":"-12.451","lng":"-40.2031"},{"country_code":"BR","state_code":"05","province_code":"2914802","name":"Itabuna","cp":["45600-000"],"lat":"-14.8815","lng":"-39.3671"},{"country_code":"BR","state_code":"05","province_code":"2914901","name":"Itacar\u00e9","cp":["45530-000"],"lat":"-14.3695","lng":"-39.1251"},{"country_code":"BR","state_code":"05","province_code":"2915007","name":"Itaet\u00e9","cp":["46790-000"],"lat":"-12.9807","lng":"-40.9551"},{"country_code":"BR","state_code":"05","province_code":"2915106","name":"Itagi","cp":["45230-000"],"lat":"-14.197","lng":"-40.033"},{"country_code":"BR","state_code":"05","province_code":"2915205","name":"Itagib\u00e1","cp":["45585-000"],"lat":"-14.2464","lng":"-39.8497"},{"country_code":"BR","state_code":"05","province_code":"2915304","name":"Itagimirim","cp":["45850-000"],"lat":"-16.1347","lng":"-39.8165"},{"country_code":"BR","state_code":"05","province_code":"2915353","name":"Itagua\u00e7u da Bahia","cp":["47440-000"],"lat":"-10.6426","lng":"-42.2108"},{"country_code":"BR","state_code":"05","province_code":"2915403","name":"Itaju do Col\u00f4nia","cp":["45730-000"],"lat":"-15.1551","lng":"-39.716"},{"country_code":"BR","state_code":"05","province_code":"2915502","name":"Itaju\u00edpe","cp":["45630-000"],"lat":"-14.6919","lng":"-39.4292"},{"country_code":"BR","state_code":"05","province_code":"2915601","name":"Itamaraju","cp":["45836-000"],"lat":"-16.9452","lng":"-39.8127"},{"country_code":"BR","state_code":"05","province_code":"2915700","name":"Itamari","cp":["45455-000"],"lat":"-13.7859","lng":"-39.6842"},{"country_code":"BR","state_code":"05","province_code":"2915809","name":"Itamb\u00e9","cp":["45140-000"],"lat":"-15.2248","lng":"-40.4951"},{"country_code":"BR","state_code":"05","province_code":"2915908","name":"Itanagra","cp":["48290-000"],"lat":"-12.3098","lng":"-38.1133"},{"country_code":"BR","state_code":"05","province_code":"2916005","name":"Itanh\u00e9m","cp":["45970-000"],"lat":"-17.0811","lng":"-40.361"},{"country_code":"BR","state_code":"05","province_code":"2916104","name":"Itaparica","cp":["44460-000"],"lat":"-12.906","lng":"-38.6638"},{"country_code":"BR","state_code":"05","province_code":"2916203","name":"Itap\u00e9","cp":["45750-000"],"lat":"-14.9185","lng":"-39.4864"},{"country_code":"BR","state_code":"05","province_code":"2916302","name":"Itapebi","cp":["45855-000"],"lat":"-15.8875","lng":"-39.6879"},{"country_code":"BR","state_code":"05","province_code":"2916401","name":"Itapetinga","cp":["45700-000"],"lat":"-15.3341","lng":"-40.0863"},{"country_code":"BR","state_code":"05","province_code":"2916500","name":"Itapicuru","cp":["48475-000"],"lat":"-11.181","lng":"-38.1499"},{"country_code":"BR","state_code":"05","province_code":"2916609","name":"Itapitanga","cp":["45645-000"],"lat":"-14.4637","lng":"-39.6256"},{"country_code":"BR","state_code":"05","province_code":"2916708","name":"Itaquara","cp":["45340-000"],"lat":"-13.4472","lng":"-39.9103"},{"country_code":"BR","state_code":"05","province_code":"2916807","name":"Itarantim","cp":["45780-000"],"lat":"-15.708","lng":"-40.0305"},{"country_code":"BR","state_code":"05","province_code":"2916856","name":"Itatim","cp":["46875-000"],"lat":"-12.6283","lng":"-39.6823"},{"country_code":"BR","state_code":"05","province_code":"2916906","name":"Itiru\u00e7u","cp":["45350-000"],"lat":"-13.5209","lng":"-40.1641"},{"country_code":"BR","state_code":"05","province_code":"2917003","name":"Iti\u00faba","cp":["48850-000"],"lat":"-10.7936","lng":"-39.8038"},{"country_code":"BR","state_code":"05","province_code":"2917102","name":"Itoror\u00f3","cp":["45710-000"],"lat":"-15.0672","lng":"-40.0194"},{"country_code":"BR","state_code":"05","province_code":"2917201","name":"Itua\u00e7u","cp":["46640-000"],"lat":"-13.9036","lng":"-41.3969"},{"country_code":"BR","state_code":"05","province_code":"2917300","name":"Ituber\u00e1","cp":["45435-000"],"lat":"-13.7874","lng":"-39.1469"},{"country_code":"BR","state_code":"05","province_code":"2917334","name":"Iui\u00fa","cp":["46438-000"],"lat":"-14.6501","lng":"-43.6487"},{"country_code":"BR","state_code":"05","province_code":"2917359","name":"Jaborandi","cp":["47655-000"],"lat":"-14.0385","lng":"-45.1841"},{"country_code":"BR","state_code":"05","province_code":"2917409","name":"Jacaraci","cp":["46310-000"],"lat":"-14.8352","lng":"-42.4011"},{"country_code":"BR","state_code":"05","province_code":"2917508","name":"Jacobina","cp":["44700-000"],"lat":"-11.1479","lng":"-40.4311"},{"country_code":"BR","state_code":"05","province_code":"2917607","name":"Jaguaquara","cp":["45345-000"],"lat":"-13.5957","lng":"-39.9293"},{"country_code":"BR","state_code":"05","province_code":"2917706","name":"Jaguarari","cp":["48960-000"],"lat":"-10.148","lng":"-40.1043"},{"country_code":"BR","state_code":"05","province_code":"2917805","name":"Jaguaripe","cp":["44480-000"],"lat":"-13.1283","lng":"-39.0134"},{"country_code":"BR","state_code":"05","province_code":"2917904","name":"Janda\u00edra","cp":["48310-000"],"lat":"-11.611","lng":"-37.6184"},{"country_code":"BR","state_code":"05","province_code":"2918001","name":"Jequi\u00e9","cp":["45200-000"],"lat":"-13.923","lng":"-40.0837"},{"country_code":"BR","state_code":"05","province_code":"2918100","name":"Jeremoabo","cp":["48540-000"],"lat":"-9.9209","lng":"-38.7263"},{"country_code":"BR","state_code":"05","province_code":"2918209","name":"Jiquiri\u00e7\u00e1","cp":["45470-000"],"lat":"-13.3108","lng":"-39.5809"},{"country_code":"BR","state_code":"05","province_code":"2918308","name":"Jita\u00fana","cp":["45225-000"],"lat":"-13.979","lng":"-39.9006"},{"country_code":"BR","state_code":"05","province_code":"2918357","name":"Jo\u00e3o Dourado","cp":["44920-000"],"lat":"-11.1488","lng":"-41.4044"},{"country_code":"BR","state_code":"05","province_code":"2918407","name":"Juazeiro","cp":["48900-000"],"lat":"-9.3968","lng":"-40.2338"},{"country_code":"BR","state_code":"05","province_code":"2918456","name":"Jucuru\u00e7u","cp":["45834-000"],"lat":"-16.8483","lng":"-40.0841"},{"country_code":"BR","state_code":"05","province_code":"2918506","name":"Jussara","cp":["44925-000"],"lat":"-10.9641","lng":"-41.8557"},{"country_code":"BR","state_code":"05","province_code":"2918555","name":"Jussari","cp":["45610-000"],"lat":"-15.1545","lng":"-39.5156"},{"country_code":"BR","state_code":"05","province_code":"2918605","name":"Jussiape","cp":["46670-000"],"lat":"-13.4881","lng":"-41.6234"},{"country_code":"BR","state_code":"05","province_code":"2918704","name":"Lafaiete Coutinho","cp":["45215-000"],"lat":"-13.6203","lng":"-40.2044"},{"country_code":"BR","state_code":"05","province_code":"2918753","name":"Lagoa Real","cp":["46425-000"],"lat":"-14.1099","lng":"-42.217"},{"country_code":"BR","state_code":"05","province_code":"2918803","name":"Laje","cp":["45490-000"],"lat":"-13.1846","lng":"-39.2975"},{"country_code":"BR","state_code":"05","province_code":"2918902","name":"Lajed\u00e3o","cp":["45950-000"],"lat":"-17.5711","lng":"-40.3112"},{"country_code":"BR","state_code":"05","province_code":"2919009","name":"Lajedinho","cp":["46825-000"],"lat":"-12.427","lng":"-41.151"},{"country_code":"BR","state_code":"05","province_code":"2919058","name":"Lajedo do Tabocal","cp":["45365-000"],"lat":"-13.3712","lng":"-40.23"},{"country_code":"BR","state_code":"05","province_code":"2919108","name":"Lamar\u00e3o","cp":["48720-000"],"lat":"-11.8452","lng":"-38.9771"},{"country_code":"BR","state_code":"05","province_code":"2919157","name":"Lap\u00e3o","cp":["44905-000"],"lat":"-11.6158","lng":"-41.7052"},{"country_code":"BR","state_code":"05","province_code":"2919207","name":"Lauro de Freitas","cp":["42700-000"],"lat":"-12.8425","lng":"-38.3273"},{"country_code":"BR","state_code":"05","province_code":"2919306","name":"Len\u00e7\u00f3is","cp":["46960-000"],"lat":"-12.4726","lng":"-41.3082"},{"country_code":"BR","state_code":"05","province_code":"2919405","name":"Lic\u00ednio de Almeida","cp":["46330-000"],"lat":"-14.7064","lng":"-42.5044"},{"country_code":"BR","state_code":"05","province_code":"2919603","name":"Macajuba","cp":["46805-000"],"lat":"-12.1437","lng":"-40.302"},{"country_code":"BR","state_code":"05","province_code":"2919702","name":"Macarani","cp":["45760-000"],"lat":"-15.557","lng":"-40.3905"},{"country_code":"BR","state_code":"05","province_code":"2919801","name":"Maca\u00fabas","cp":["46500-000"],"lat":"-13.1917","lng":"-42.6833"},{"country_code":"BR","state_code":"05","province_code":"2919900","name":"Macurur\u00e9","cp":["48650-000"],"lat":"-9.3677","lng":"-39.0411"},{"country_code":"BR","state_code":"05","province_code":"2919926","name":"Madre de Deus","cp":["42600-000"],"lat":"-12.7381","lng":"-38.6254"},{"country_code":"BR","state_code":"05","province_code":"2919959","name":"Maetinga","cp":["46255-000"],"lat":"-14.5788","lng":"-41.696"},{"country_code":"BR","state_code":"05","province_code":"2920007","name":"Maiquinique","cp":["45770-000"],"lat":"-15.699","lng":"-40.2641"},{"country_code":"BR","state_code":"05","province_code":"2920106","name":"Mairi","cp":["44630-000"],"lat":"-11.6349","lng":"-40.2134"},{"country_code":"BR","state_code":"05","province_code":"2920205","name":"Malhada","cp":["46440-000"],"lat":"-14.3891","lng":"-43.7149"},{"country_code":"BR","state_code":"05","province_code":"2920304","name":"Malhada de Pedras","cp":["46110-000"],"lat":"-14.2777","lng":"-41.8921"},{"country_code":"BR","state_code":"05","province_code":"2920403","name":"Manoel Vitorino","cp":["45240-000"],"lat":"-14.0049","lng":"-40.4801"},{"country_code":"BR","state_code":"05","province_code":"2920452","name":"Mansid\u00e3o","cp":["47160-000"],"lat":"-11.2078","lng":"-44.1411"},{"country_code":"BR","state_code":"05","province_code":"2920502","name":"Marac\u00e1s","cp":["45360-000"],"lat":"-13.6501","lng":"-40.6199"},{"country_code":"BR","state_code":"05","province_code":"2920601","name":"Maragogipe","cp":["44420-000"],"lat":"-12.8351","lng":"-38.9402"},{"country_code":"BR","state_code":"05","province_code":"2920700","name":"Mara\u00fa","cp":["45520-000"],"lat":"-14.0992","lng":"-39.0836"},{"country_code":"BR","state_code":"05","province_code":"2920809","name":"Marcion\u00edlio Souza","cp":["46780-000"],"lat":"-13.1158","lng":"-40.6291"},{"country_code":"BR","state_code":"05","province_code":"2920908","name":"Mascote","cp":["45870-000"],"lat":"-15.6404","lng":"-39.428"},{"country_code":"BR","state_code":"05","province_code":"2921005","name":"Mata de S\u00e3o Jo\u00e3o","cp":["48280-000"],"lat":"-12.4846","lng":"-38.1791"},{"country_code":"BR","state_code":"05","province_code":"2921054","name":"Matina","cp":["46480-000"],"lat":"-13.8934","lng":"-42.9828"},{"country_code":"BR","state_code":"05","province_code":"2921104","name":"Medeiros Neto","cp":["45960-000"],"lat":"-17.3902","lng":"-40.2757"},{"country_code":"BR","state_code":"05","province_code":"2921203","name":"Miguel Calmon","cp":["44720-000"],"lat":"-11.5255","lng":"-40.579"},{"country_code":"BR","state_code":"05","province_code":"2921302","name":"Milagres","cp":["45315-000"],"lat":"-12.9559","lng":"-39.8178"},{"country_code":"BR","state_code":"05","province_code":"2921401","name":"Mirangaba","cp":["44745-000"],"lat":"-10.8036","lng":"-40.6706"},{"country_code":"BR","state_code":"05","province_code":"2921450","name":"Mirante","cp":["45255-000"],"lat":"-14.1861","lng":"-40.7831"},{"country_code":"BR","state_code":"05","province_code":"2921500","name":"Monte Santo","cp":["48800-000"],"lat":"-10.2665","lng":"-39.5684"},{"country_code":"BR","state_code":"05","province_code":"2921609","name":"Morpar\u00e1","cp":["47580-000"],"lat":"-11.7527","lng":"-43.0913"},{"country_code":"BR","state_code":"05","province_code":"2921708","name":"Morro do Chap\u00e9u","cp":["44850-000"],"lat":"-11.2541","lng":"-41.3636"},{"country_code":"BR","state_code":"05","province_code":"2921807","name":"Mortugaba","cp":["46290-000"],"lat":"-14.9848","lng":"-42.4055"},{"country_code":"BR","state_code":"05","province_code":"2921906","name":"Mucug\u00ea","cp":["46750-000"],"lat":"-13.1487","lng":"-41.5174"},{"country_code":"BR","state_code":"05","province_code":"2922003","name":"Mucuri","cp":["45930-000"],"lat":"-18.0058","lng":"-39.7981"},{"country_code":"BR","state_code":"05","province_code":"2922052","name":"Mulungu do Morro","cp":["44885-000"],"lat":"-12.008","lng":"-41.4258"},{"country_code":"BR","state_code":"05","province_code":"2922102","name":"Mundo Novo","cp":["44800-000"],"lat":"-11.9193","lng":"-40.5231"},{"country_code":"BR","state_code":"05","province_code":"2922201","name":"Muniz Ferreira","cp":["44575-000"],"lat":"-13.0015","lng":"-39.106"},{"country_code":"BR","state_code":"05","province_code":"2922250","name":"Muqu\u00e9m de S\u00e3o Francisco","cp":["47115-000"],"lat":"-12.1989","lng":"-43.5131"},{"country_code":"BR","state_code":"05","province_code":"2922300","name":"Muritiba","cp":["44340-000"],"lat":"-12.6345","lng":"-39.0665"},{"country_code":"BR","state_code":"05","province_code":"2922409","name":"Mutu\u00edpe","cp":["45480-000"],"lat":"-13.3328","lng":"-39.5085"},{"country_code":"BR","state_code":"05","province_code":"2922508","name":"Nazar\u00e9","cp":["44400-000"],"lat":"-12.95","lng":"-38.9787"},{"country_code":"BR","state_code":"05","province_code":"2922607","name":"Nilo Pe\u00e7anha","cp":["45440-000"],"lat":"-13.6481","lng":"-39.2388"},{"country_code":"BR","state_code":"05","province_code":"2922656","name":"Nordestina","cp":["48870-000"],"lat":"-10.8969","lng":"-39.4514"},{"country_code":"BR","state_code":"05","province_code":"2922706","name":"Nova Cana\u00e3","cp":["45270-000"],"lat":"-14.8462","lng":"-40.1783"},{"country_code":"BR","state_code":"05","province_code":"2922730","name":"Nova F\u00e1tima","cp":["44642-000"],"lat":"-11.5661","lng":"-39.5861"},{"country_code":"BR","state_code":"05","province_code":"2922755","name":"Nova Ibi\u00e1","cp":["45452-000"],"lat":"-13.8623","lng":"-39.5888"},{"country_code":"BR","state_code":"05","province_code":"2922805","name":"Nova Itarana","cp":["45390-000"],"lat":"-13.0403","lng":"-40.0078"},{"country_code":"BR","state_code":"05","province_code":"2922854","name":"Nova Reden\u00e7\u00e3o","cp":["46835-000"],"lat":"-12.874","lng":"-41.1233"},{"country_code":"BR","state_code":"05","province_code":"2922904","name":"Nova Soure","cp":["48460-000"],"lat":"-11.3189","lng":"-38.4621"},{"country_code":"BR","state_code":"05","province_code":"2923001","name":"Nova Vi\u00e7osa","cp":["45920-000"],"lat":"-17.8745","lng":"-39.6652"},{"country_code":"BR","state_code":"05","province_code":"2923035","name":"Novo Horizonte","cp":["46730-000"],"lat":"-12.8789","lng":"-42.1383"},{"country_code":"BR","state_code":"05","province_code":"2923050","name":"Novo Triunfo","cp":["48455-000"],"lat":"-10.3479","lng":"-38.4021"},{"country_code":"BR","state_code":"05","province_code":"2923100","name":"Olindina","cp":["48470-000"],"lat":"-11.3724","lng":"-38.3859"},{"country_code":"BR","state_code":"05","province_code":"2923209","name":"Oliveira dos Brejinhos","cp":["47530-000"],"lat":"-12.3063","lng":"-42.6963"},{"country_code":"BR","state_code":"05","province_code":"2923308","name":"Ouri\u00e7angas","cp":["48150-000"],"lat":"-12.0034","lng":"-38.6521"},{"country_code":"BR","state_code":"05","province_code":"2923357","name":"Ourol\u00e2ndia","cp":["44718-000"],"lat":"-10.838","lng":"-41.0284"},{"country_code":"BR","state_code":"05","province_code":"2923407","name":"Palmas de Monte Alto","cp":["46460-000"],"lat":"-13.9629","lng":"-43.2459"},{"country_code":"BR","state_code":"05","province_code":"2923506","name":"Palmeiras","cp":["46930-000"],"lat":"-12.5148","lng":"-41.5771"},{"country_code":"BR","state_code":"05","province_code":"2923605","name":"Paramirim","cp":["46190-000"],"lat":"-13.5143","lng":"-42.2312"},{"country_code":"BR","state_code":"05","province_code":"2923704","name":"Paratinga","cp":["47500-000"],"lat":"-12.7356","lng":"-43.0697"},{"country_code":"BR","state_code":"05","province_code":"2923803","name":"Paripiranga","cp":["48430-000"],"lat":"-10.5828","lng":"-37.886"},{"country_code":"BR","state_code":"05","province_code":"2923902","name":"Pau Brasil","cp":["45890-000"],"lat":"-15.4432","lng":"-39.6897"},{"country_code":"BR","state_code":"05","province_code":"2924009","name":"Paulo Afonso","cp":["48600-000"],"lat":"-9.5523","lng":"-38.1691"},{"country_code":"BR","state_code":"05","province_code":"2924058","name":"P\u00e9 de Serra","cp":["44655-000"],"lat":"-11.8897","lng":"-39.6194"},{"country_code":"BR","state_code":"05","province_code":"2924108","name":"Pedr\u00e3o","cp":["48140-000"],"lat":"-12.1331","lng":"-38.6062"},{"country_code":"BR","state_code":"05","province_code":"2924207","name":"Pedro Alexandre","cp":["48580-000"],"lat":"-9.9769","lng":"-37.9149"},{"country_code":"BR","state_code":"05","province_code":"2924306","name":"Piat\u00e3","cp":["46765-000"],"lat":"-13.121","lng":"-41.8909"},{"country_code":"BR","state_code":"05","province_code":"2924405","name":"Pil\u00e3o Arcado","cp":["47240-000"],"lat":"-10.002","lng":"-43.3937"},{"country_code":"BR","state_code":"05","province_code":"2924504","name":"Pinda\u00ed","cp":["46360-000"],"lat":"-14.5232","lng":"-42.6782"},{"country_code":"BR","state_code":"05","province_code":"2924603","name":"Pindoba\u00e7u","cp":["44770-000"],"lat":"-10.7385","lng":"-40.3274"},{"country_code":"BR","state_code":"05","province_code":"2924652","name":"Pintadas","cp":["44610-000"],"lat":"-11.9231","lng":"-39.9778"},{"country_code":"BR","state_code":"05","province_code":"2924678","name":"Pira\u00ed do Norte","cp":["45436-000"],"lat":"-13.8497","lng":"-39.3921"},{"country_code":"BR","state_code":"05","province_code":"2924702","name":"Pirip\u00e1","cp":["46270-000"],"lat":"-14.9262","lng":"-41.753"},{"country_code":"BR","state_code":"05","province_code":"2924801","name":"Piritiba","cp":["44830-000"],"lat":"-11.6285","lng":"-40.5149"},{"country_code":"BR","state_code":"05","province_code":"2924900","name":"Planaltino","cp":["45375-000"],"lat":"-13.2735","lng":"-40.2232"},{"country_code":"BR","state_code":"05","province_code":"2925006","name":"Planalto","cp":["45190-000"],"lat":"-14.7926","lng":"-40.2842"},{"country_code":"BR","state_code":"05","province_code":"2925105","name":"Po\u00e7\u00f5es","cp":["45260-000"],"lat":"-14.5829","lng":"-40.2762"},{"country_code":"BR","state_code":"05","province_code":"2925204","name":"Pojuca","cp":["48120-000"],"lat":"-12.3659","lng":"-38.2433"},{"country_code":"BR","state_code":"05","province_code":"2925253","name":"Ponto Novo","cp":["44755-000"],"lat":"-10.8547","lng":"-40.162"},{"country_code":"BR","state_code":"05","province_code":"2925303","name":"Porto Seguro","cp":["45810-000"],"lat":"-16.6718","lng":"-39.2642"},{"country_code":"BR","state_code":"05","province_code":"2925402","name":"Potiragu\u00e1","cp":["45790-000"],"lat":"-15.7012","lng":"-39.7669"},{"country_code":"BR","state_code":"05","province_code":"2925501","name":"Prado","cp":["45980-000"],"lat":"-17.1182","lng":"-39.3495"},{"country_code":"BR","state_code":"05","province_code":"2925600","name":"Presidente Dutra","cp":["44930-000"],"lat":"-11.2533","lng":"-42.113"},{"country_code":"BR","state_code":"05","province_code":"2925709","name":"Presidente J\u00e2nio Quadros","cp":["46250-000"],"lat":"-14.8294","lng":"-41.7862"},{"country_code":"BR","state_code":"05","province_code":"2925758","name":"Presidente Tancredo Neves","cp":["45416-000"],"lat":"-13.4615","lng":"-39.4213"},{"country_code":"BR","state_code":"05","province_code":"2925808","name":"Queimadas","cp":["48860-000"],"lat":"-10.963","lng":"-39.7187"},{"country_code":"BR","state_code":"05","province_code":"2925907","name":"Quijingue","cp":["48830-000"],"lat":"-10.788","lng":"-39.0339"},{"country_code":"BR","state_code":"05","province_code":"2925931","name":"Quixabeira","cp":["44713-000"],"lat":"-11.4134","lng":"-40.133"},{"country_code":"BR","state_code":"05","province_code":"2925956","name":"Rafael Jambeiro","cp":["44520-000"],"lat":"-12.5009","lng":"-39.5091"},{"country_code":"BR","state_code":"05","province_code":"2926004","name":"Remanso","cp":["47200-000"],"lat":"-9.5411","lng":"-42.3696"},{"country_code":"BR","state_code":"05","province_code":"2926103","name":"Retirol\u00e2ndia","cp":["48750-000"],"lat":"-11.4773","lng":"-39.4065"},{"country_code":"BR","state_code":"05","province_code":"2926202","name":"Riach\u00e3o das Neves","cp":["47970-000"],"lat":"-11.7748","lng":"-45.125"},{"country_code":"BR","state_code":"05","province_code":"2926301","name":"Riach\u00e3o do Jacu\u00edpe","cp":["44640-000"],"lat":"-11.8456","lng":"-39.381"},{"country_code":"BR","state_code":"05","province_code":"2926400","name":"Riacho de Santana","cp":["46470-000"],"lat":"-13.8429","lng":"-43.1747"},{"country_code":"BR","state_code":"05","province_code":"2926509","name":"Ribeira do Amparo","cp":["48440-000"],"lat":"-11.0056","lng":"-38.3873"},{"country_code":"BR","state_code":"05","province_code":"2926608","name":"Ribeira do Pombal","cp":["48400-000"],"lat":"-10.6331","lng":"-38.5012"},{"country_code":"BR","state_code":"05","province_code":"2926657","name":"Ribeir\u00e3o do Largo","cp":["45155-000"],"lat":"-15.3856","lng":"-40.6589"},{"country_code":"BR","state_code":"05","province_code":"2926707","name":"Rio de Contas","cp":["46170-000"],"lat":"-13.6217","lng":"-41.687"},{"country_code":"BR","state_code":"05","province_code":"2926806","name":"Rio do Ant\u00f4nio","cp":["46220-000"],"lat":"-14.2267","lng":"-42.1661"},{"country_code":"BR","state_code":"05","province_code":"2926905","name":"Rio do Pires","cp":["46550-000"],"lat":"-13.1113","lng":"-42.1775"},{"country_code":"BR","state_code":"05","province_code":"2927002","name":"Rio Real","cp":["48330-000"],"lat":"-11.53","lng":"-37.9039"},{"country_code":"BR","state_code":"05","province_code":"2927101","name":"Rodelas","cp":["48630-000"],"lat":"-8.9363","lng":"-38.6837"},{"country_code":"BR","state_code":"05","province_code":"2927200","name":"Ruy Barbosa","cp":["46800-000"],"lat":"-12.2465","lng":"-40.3267"},{"country_code":"BR","state_code":"05","province_code":"2927309","name":"Salinas da Margarida","cp":["44450-000"],"lat":"-12.9067","lng":"-38.7804"},{"country_code":"BR","state_code":"05","province_code":"2927408","name":"Salvador","cp":["40000-000"],"lat":"-12.8665","lng":"-38.4858"},{"country_code":"BR","state_code":"05","province_code":"2927507","name":"Santa B\u00e1rbara","cp":["44150-000"],"lat":"-11.9177","lng":"-38.9921"},{"country_code":"BR","state_code":"05","province_code":"2927606","name":"Santa Br\u00edgida","cp":["48570-000"],"lat":"-9.679","lng":"-38.1137"},{"country_code":"BR","state_code":"05","province_code":"2927705","name":"Santa Cruz Cabr\u00e1lia","cp":["45807-000"],"lat":"-16.2785","lng":"-39.1726"},{"country_code":"BR","state_code":"05","province_code":"2927804","name":"Santa Cruz da Vit\u00f3ria","cp":["45725-000"],"lat":"-14.9031","lng":"-39.7915"},{"country_code":"BR","state_code":"05","province_code":"2927903","name":"Santa In\u00eas","cp":["45320-000"],"lat":"-13.2662","lng":"-39.8331"},{"country_code":"BR","state_code":"05","province_code":"2928000","name":"Santaluz","cp":["48880-000"],"lat":"-11.1279","lng":"-39.5086"},{"country_code":"BR","state_code":"05","province_code":"2928059","name":"Santa Luzia","cp":["45865-000"],"lat":"-15.4639","lng":"-39.2767"},{"country_code":"BR","state_code":"05","province_code":"2928109","name":"Santa Maria da Vit\u00f3ria","cp":["47640-000"],"lat":"-13.2614","lng":"-44.378"},{"country_code":"BR","state_code":"05","province_code":"2928208","name":"Santana","cp":["47700-000"],"lat":"-13.0894","lng":"-43.8476"},{"country_code":"BR","state_code":"05","province_code":"2928307","name":"Santan\u00f3polis","cp":["44260-000"],"lat":"-12.0242","lng":"-38.8801"},{"country_code":"BR","state_code":"05","province_code":"2928406","name":"Santa Rita de C\u00e1ssia","cp":["47150-000"],"lat":"-11.0271","lng":"-44.5958"},{"country_code":"BR","state_code":"05","province_code":"2928505","name":"Santa Teresinha","cp":["44590-000"],"lat":"-12.6712","lng":"-39.5508"},{"country_code":"BR","state_code":"05","province_code":"2928604","name":"Santo Amaro","cp":["44200-000"],"lat":"-12.6137","lng":"-38.7743"},{"country_code":"BR","state_code":"05","province_code":"2928703","name":"Santo Ant\u00f4nio de Jesus","cp":["44570-000"],"lat":"-13.008","lng":"-39.2268"},{"country_code":"BR","state_code":"05","province_code":"2928802","name":"Santo Est\u00eav\u00e3o","cp":["44190-000"],"lat":"-12.4642","lng":"-39.2681"},{"country_code":"BR","state_code":"05","province_code":"2928901","name":"S\u00e3o Desid\u00e9rio","cp":["47820-000"],"lat":"-12.8927","lng":"-45.5638"},{"country_code":"BR","state_code":"05","province_code":"2928950","name":"S\u00e3o Domingos","cp":["48895-000"],"lat":"-11.4846","lng":"-39.5992"},{"country_code":"BR","state_code":"05","province_code":"2929008","name":"S\u00e3o F\u00e9lix","cp":["44360-000"],"lat":"-12.6781","lng":"-38.9998"},{"country_code":"BR","state_code":"05","province_code":"2929057","name":"S\u00e3o F\u00e9lix do Coribe","cp":["47665-000"],"lat":"-13.4147","lng":"-43.9814"},{"country_code":"BR","state_code":"05","province_code":"2929107","name":"S\u00e3o Felipe","cp":["44550-000"],"lat":"-12.8653","lng":"-39.0962"},{"country_code":"BR","state_code":"05","province_code":"2929206","name":"S\u00e3o Francisco do Conde","cp":["43900-000"],"lat":"-12.6456","lng":"-38.6333"},{"country_code":"BR","state_code":"05","province_code":"2929255","name":"S\u00e3o Gabriel","cp":["44915-000"],"lat":"-10.9558","lng":"-41.5541"},{"country_code":"BR","state_code":"05","province_code":"2929305","name":"S\u00e3o Gon\u00e7alo dos Campos","cp":["44330-000"],"lat":"-12.4085","lng":"-38.9777"},{"country_code":"BR","state_code":"05","province_code":"2929354","name":"S\u00e3o Jos\u00e9 da Vit\u00f3ria","cp":["45620-000"],"lat":"-15.0719","lng":"-39.3502"},{"country_code":"BR","state_code":"05","province_code":"2929370","name":"S\u00e3o Jos\u00e9 do Jacu\u00edpe","cp":["44698-000"],"lat":"-11.4683","lng":"-39.9038"},{"country_code":"BR","state_code":"05","province_code":"2929404","name":"S\u00e3o Miguel das Matas","cp":["44580-000"],"lat":"-13.0431","lng":"-39.434"},{"country_code":"BR","state_code":"05","province_code":"2929503","name":"S\u00e3o Sebasti\u00e3o do Pass\u00e9","cp":["43850-000"],"lat":"-12.5036","lng":"-38.4517"},{"country_code":"BR","state_code":"05","province_code":"2929602","name":"Sapea\u00e7u","cp":["44530-000"],"lat":"-12.772","lng":"-39.2385"},{"country_code":"BR","state_code":"05","province_code":"2929701","name":"S\u00e1tiro Dias","cp":["48485-000"],"lat":"-11.6317","lng":"-38.4889"},{"country_code":"BR","state_code":"05","province_code":"2929750","name":"Saubara","cp":["44220-000"],"lat":"-12.7662","lng":"-38.8017"},{"country_code":"BR","state_code":"05","province_code":"2929800","name":"Sa\u00fade","cp":["44740-000"],"lat":"-10.8446","lng":"-40.3751"},{"country_code":"BR","state_code":"05","province_code":"2929909","name":"Seabra","cp":["46900-000"],"lat":"-12.383","lng":"-41.9168"},{"country_code":"BR","state_code":"05","province_code":"2930006","name":"Sebasti\u00e3o Laranjeiras","cp":["46450-000"],"lat":"-14.6681","lng":"-43.1659"},{"country_code":"BR","state_code":"05","province_code":"2930105","name":"Senhor do Bonfim","cp":["48970-000"],"lat":"-10.4287","lng":"-40.1012"},{"country_code":"BR","state_code":"05","province_code":"2930154","name":"Serra do Ramalho","cp":["47630-000"],"lat":"-13.411","lng":"-43.7785"},{"country_code":"BR","state_code":"05","province_code":"2930204","name":"Sento S\u00e9","cp":["47350-000"],"lat":"-10.2125","lng":"-41.5795"},{"country_code":"BR","state_code":"05","province_code":"2930303","name":"Serra Dourada","cp":["47740-000"],"lat":"-12.915","lng":"-43.796"},{"country_code":"BR","state_code":"05","province_code":"2930402","name":"Serra Preta","cp":["44660-000"],"lat":"-12.0691","lng":"-39.3005"},{"country_code":"BR","state_code":"05","province_code":"2930501","name":"Serrinha","cp":["48700-000"],"lat":"-11.5995","lng":"-39.0387"},{"country_code":"BR","state_code":"05","province_code":"2930600","name":"Serrol\u00e2ndia","cp":["44710-000"],"lat":"-11.5402","lng":"-40.2478"},{"country_code":"BR","state_code":"05","province_code":"2930709","name":"Sim\u00f5es Filho","cp":["43700-000"],"lat":"-12.7783","lng":"-38.3822"},{"country_code":"BR","state_code":"05","province_code":"2930758","name":"S\u00edtio do Mato","cp":["47610-000"],"lat":"-13.0038","lng":"-43.5454"},{"country_code":"BR","state_code":"05","province_code":"2930766","name":"S\u00edtio do Quinto","cp":["48565-000"],"lat":"-10.3432","lng":"-38.0735"},{"country_code":"BR","state_code":"05","province_code":"2930774","name":"Sobradinho","cp":["48925-000"],"lat":"-9.5904","lng":"-40.7752"},{"country_code":"BR","state_code":"05","province_code":"2930808","name":"Souto Soares","cp":["46990-000"],"lat":"-11.946","lng":"-41.9481"},{"country_code":"BR","state_code":"05","province_code":"2930907","name":"Tabocas do Brejo Velho","cp":["47760-000"],"lat":"-12.3694","lng":"-44.0836"},{"country_code":"BR","state_code":"05","province_code":"2931004","name":"Tanha\u00e7u","cp":["46600-000"],"lat":"-14.0701","lng":"-41.1351"},{"country_code":"BR","state_code":"05","province_code":"2931053","name":"Tanque Novo","cp":["46580-000"],"lat":"-13.5836","lng":"-42.5431"},{"country_code":"BR","state_code":"05","province_code":"2931103","name":"Tanquinho","cp":["44160-000"],"lat":"-11.9567","lng":"-39.0961"},{"country_code":"BR","state_code":"05","province_code":"2931202","name":"Tapero\u00e1","cp":["45430-000"],"lat":"-13.5696","lng":"-39.2202"},{"country_code":"BR","state_code":"05","province_code":"2931301","name":"Tapiramut\u00e1","cp":["44840-000"],"lat":"-11.9473","lng":"-40.7569"},{"country_code":"BR","state_code":"05","province_code":"2931350","name":"Teixeira de Freitas","cp":["45995-000"],"lat":"-17.3131","lng":"-39.9257"},{"country_code":"BR","state_code":"05","province_code":"2931400","name":"Teodoro Sampaio","cp":["44280-000"],"lat":"-12.2655","lng":"-38.6121"},{"country_code":"BR","state_code":"05","province_code":"2931509","name":"Teofil\u00e2ndia","cp":["48770-000"],"lat":"-11.5341","lng":"-38.9452"},{"country_code":"BR","state_code":"05","province_code":"2931608","name":"Teol\u00e2ndia","cp":["45465-000"],"lat":"-13.5703","lng":"-39.4649"},{"country_code":"BR","state_code":"05","province_code":"2931707","name":"Terra Nova","cp":["44270-000"],"lat":"-12.3854","lng":"-38.6187"},{"country_code":"BR","state_code":"05","province_code":"2931806","name":"Tremedal","cp":["45170-000"],"lat":"-14.9008","lng":"-41.3234"},{"country_code":"BR","state_code":"05","province_code":"2931905","name":"Tucano","cp":["48790-000"],"lat":"-10.9943","lng":"-38.8625"},{"country_code":"BR","state_code":"05","province_code":"2932002","name":"Uau\u00e1","cp":["48950-000"],"lat":"-9.8414","lng":"-39.2303"},{"country_code":"BR","state_code":"05","province_code":"2932101","name":"Uba\u00edra","cp":["45310-000"],"lat":"-13.287","lng":"-39.6935"},{"country_code":"BR","state_code":"05","province_code":"2932200","name":"Ubaitaba","cp":["45545-000"],"lat":"-14.2705","lng":"-39.3808"},{"country_code":"BR","state_code":"05","province_code":"2932309","name":"Ubat\u00e3","cp":["45550-000"],"lat":"-14.0563","lng":"-39.5228"},{"country_code":"BR","state_code":"05","province_code":"2932408","name":"Uiba\u00ed","cp":["44950-000"],"lat":"-11.3906","lng":"-42.1561"},{"country_code":"BR","state_code":"05","province_code":"2932457","name":"Umburanas","cp":["44798-000"],"lat":"-10.5086","lng":"-41.1742"},{"country_code":"BR","state_code":"05","province_code":"2932507","name":"Una","cp":["45690-000"],"lat":"-15.1645","lng":"-39.2057"},{"country_code":"BR","state_code":"05","province_code":"2932606","name":"Urandi","cp":["46350-000"],"lat":"-14.734","lng":"-42.6654"},{"country_code":"BR","state_code":"05","province_code":"2932705","name":"Uru\u00e7uca","cp":["45680-000"],"lat":"-14.4842","lng":"-39.1686"},{"country_code":"BR","state_code":"05","province_code":"2932804","name":"Utinga","cp":["46810-000"],"lat":"-12.0427","lng":"-41.1947"},{"country_code":"BR","state_code":"05","province_code":"2932903","name":"Valen\u00e7a","cp":["45400-000"],"lat":"-13.3721","lng":"-39.24"},{"country_code":"BR","state_code":"05","province_code":"2933000","name":"Valente","cp":["48890-000"],"lat":"-11.4339","lng":"-39.4847"},{"country_code":"BR","state_code":"05","province_code":"2933059","name":"V\u00e1rzea da Ro\u00e7a","cp":["44635-000"],"lat":"-11.5391","lng":"-40.0765"},{"country_code":"BR","state_code":"05","province_code":"2933109","name":"V\u00e1rzea do Po\u00e7o","cp":["44715-000"],"lat":"-11.5884","lng":"-40.393"},{"country_code":"BR","state_code":"05","province_code":"2933158","name":"V\u00e1rzea Nova","cp":["44690-000"],"lat":"-11.0552","lng":"-41.2323"},{"country_code":"BR","state_code":"05","province_code":"2933174","name":"Varzedo","cp":["44565-000"],"lat":"-12.9966","lng":"-39.3709"},{"country_code":"BR","state_code":"05","province_code":"2933208","name":"Vera Cruz","cp":["44470-000"],"lat":"-13.0255","lng":"-38.7091"},{"country_code":"BR","state_code":"05","province_code":"2933257","name":"Vereda","cp":["45955-000"],"lat":"-17.15","lng":"-40.0487"},{"country_code":"BR","state_code":"05","province_code":"2933307","name":"Vit\u00f3ria da Conquista","cp":["45000-000"],"lat":"-15.2795","lng":"-40.9658"},{"country_code":"BR","state_code":"05","province_code":"2933406","name":"Wagner","cp":["46970-000"],"lat":"-12.2593","lng":"-41.221"},{"country_code":"BR","state_code":"05","province_code":"2933455","name":"Wanderley","cp":["47940-000"],"lat":"-11.765","lng":"-43.9938"},{"country_code":"BR","state_code":"05","province_code":"2933505","name":"Wenceslau Guimar\u00e3es","cp":["45460-000"],"lat":"-13.6182","lng":"-39.5809"},{"country_code":"BR","state_code":"05","province_code":"2933604","name":"Xique-Xique","cp":["47400-000"],"lat":"-10.8339","lng":"-42.5632"},{"country_code":"BR","state_code":"05","province_code":"","name":"Barro Preto","cp":["45625-000"],"lat":"-14.8097","lng":"-39.4714"},{"country_code":"BR","state_code":"05","province_code":"","name":"Livramento do Brumado","cp":["46140-000"],"lat":"-13.6431","lng":"-41.8406"},{"country_code":"BR","state_code":"06","province_code":"2300101","name":"Abaiara","cp":["63240-000"],"lat":"-7.3364","lng":"-39.0613"},{"country_code":"BR","state_code":"06","province_code":"2300150","name":"Acarap\u00e9","cp":["62785-000"],"lat":"-4.2057","lng":"-38.6916"},{"country_code":"BR","state_code":"06","province_code":"2300200","name":"Acara\u00fa","cp":["62580-000"],"lat":"-2.9542","lng":"-40.086"},{"country_code":"BR","state_code":"06","province_code":"2300309","name":"Acopiara","cp":["63560-000"],"lat":"-6.1131","lng":"-39.5176"},{"country_code":"BR","state_code":"06","province_code":"2300408","name":"Aiuaba","cp":["63575-000"],"lat":"-6.589","lng":"-40.2395"},{"country_code":"BR","state_code":"06","province_code":"2300507","name":"Alc\u00e2ntaras","cp":["62120-000"],"lat":"-3.5873","lng":"-40.5552"},{"country_code":"BR","state_code":"06","province_code":"2300606","name":"Altaneira","cp":["63195-000"],"lat":"-6.9874","lng":"-39.7274"},{"country_code":"BR","state_code":"06","province_code":"2300705","name":"Alto Santo","cp":["62970-000"],"lat":"-5.5241","lng":"-38.2092"},{"country_code":"BR","state_code":"06","province_code":"2300754","name":"Amontada","cp":["62540-000"],"lat":"-3.2794","lng":"-39.8058"},{"country_code":"BR","state_code":"06","province_code":"2300804","name":"Antonina do Norte","cp":["63570-000"],"lat":"-6.7362","lng":"-39.9788"},{"country_code":"BR","state_code":"06","province_code":"2300903","name":"Apuiar\u00e9s","cp":["62630-000"],"lat":"-3.95","lng":"-39.3037"},{"country_code":"BR","state_code":"06","province_code":"2301000","name":"Aquiraz","cp":["61700-000"],"lat":"-3.9016","lng":"-38.3913"},{"country_code":"BR","state_code":"06","province_code":"2301109","name":"Aracati","cp":["62800-000"],"lat":"-4.6207","lng":"-37.7631"},{"country_code":"BR","state_code":"06","province_code":"2301208","name":"Aracoiaba","cp":["62750-000"],"lat":"-4.4905","lng":"-38.6776"},{"country_code":"BR","state_code":"06","province_code":"2301257","name":"Ararend\u00e1","cp":["62210-000"],"lat":"-4.7706","lng":"-40.7539"},{"country_code":"BR","state_code":"06","province_code":"2301307","name":"Araripe","cp":["63170-000"],"lat":"-7.2046","lng":"-40.1143"},{"country_code":"BR","state_code":"06","province_code":"2301406","name":"Aratuba","cp":["62762-000"],"lat":"-4.419","lng":"-39.0482"},{"country_code":"BR","state_code":"06","province_code":"2301505","name":"Arneiroz","cp":["63670-000"],"lat":"-6.2361","lng":"-40.094"},{"country_code":"BR","state_code":"06","province_code":"2301604","name":"Assar\u00e9","cp":["63140-000"],"lat":"-6.8975","lng":"-39.8291"},{"country_code":"BR","state_code":"06","province_code":"2301703","name":"Aurora","cp":["63360-000"],"lat":"-7.0001","lng":"-38.9704"},{"country_code":"BR","state_code":"06","province_code":"2301802","name":"Baixio","cp":["63320-000"],"lat":"-6.7073","lng":"-38.7575"},{"country_code":"BR","state_code":"06","province_code":"2301851","name":"Banabui\u00fa","cp":["63960-000"],"lat":"-5.2355","lng":"-38.8746"},{"country_code":"BR","state_code":"06","province_code":"2301901","name":"Barbalha","cp":["63180-000"],"lat":"-7.436","lng":"-39.3527"},{"country_code":"BR","state_code":"06","province_code":"2301950","name":"Barreira","cp":["62795-000"],"lat":"-4.3705","lng":"-38.6102"},{"country_code":"BR","state_code":"06","province_code":"2302008","name":"Barro","cp":["63380-000"],"lat":"-7.1354","lng":"-38.7337"},{"country_code":"BR","state_code":"06","province_code":"2302057","name":"Barroquinha","cp":["62410-000"],"lat":"-2.9926","lng":"-41.1546"},{"country_code":"BR","state_code":"06","province_code":"2302107","name":"Baturit\u00e9","cp":["62760-000"],"lat":"-4.3731","lng":"-38.8592"},{"country_code":"BR","state_code":"06","province_code":"2302206","name":"Beberibe","cp":["62840-000"],"lat":"-4.439","lng":"-38.08"},{"country_code":"BR","state_code":"06","province_code":"2302305","name":"Bela Cruz","cp":["62570-000"],"lat":"-3.0629","lng":"-40.2583"},{"country_code":"BR","state_code":"06","province_code":"2302404","name":"Boa Viagem","cp":["63870-000"],"lat":"-5.0254","lng":"-39.8417"},{"country_code":"BR","state_code":"06","province_code":"2302503","name":"Brejo Santo","cp":["63260-000"],"lat":"-7.6223","lng":"-38.8819"},{"country_code":"BR","state_code":"06","province_code":"2302602","name":"Camocim","cp":["62400-000"],"lat":"-2.9366","lng":"-40.8389"},{"country_code":"BR","state_code":"06","province_code":"2302701","name":"Campos Sales","cp":["63150-000"],"lat":"-6.9253","lng":"-40.2219"},{"country_code":"BR","state_code":"06","province_code":"2302800","name":"Canind\u00e9","cp":["62700-000"],"lat":"-4.4047","lng":"-39.4175"},{"country_code":"BR","state_code":"06","province_code":"2302909","name":"Capistrano","cp":["62748-000"],"lat":"-4.4623","lng":"-38.9207"},{"country_code":"BR","state_code":"06","province_code":"2303006","name":"Caridade","cp":["62730-000"],"lat":"-4.201","lng":"-39.1415"},{"country_code":"BR","state_code":"06","province_code":"2303105","name":"Carir\u00e9","cp":["62184-000"],"lat":"-3.9359","lng":"-40.5468"},{"country_code":"BR","state_code":"06","province_code":"2303204","name":"Cariria\u00e7u","cp":["63220-000"],"lat":"-7.0417","lng":"-39.2542"},{"country_code":"BR","state_code":"06","province_code":"2303303","name":"Cari\u00fas","cp":["63530-000"],"lat":"-6.6562","lng":"-39.475"},{"country_code":"BR","state_code":"06","province_code":"2303402","name":"Carnaubal","cp":["62375-000"],"lat":"-4.121","lng":"-41.0137"},{"country_code":"BR","state_code":"06","province_code":"2303501","name":"Cascavel","cp":["62850-000"],"lat":"-4.27","lng":"-38.2738"},{"country_code":"BR","state_code":"06","province_code":"2303600","name":"Catarina","cp":["63595-000"],"lat":"-6.2502","lng":"-39.9487"},{"country_code":"BR","state_code":"06","province_code":"2303659","name":"Catunda","cp":["62297-000"],"lat":"-4.6047","lng":"-40.1863"},{"country_code":"BR","state_code":"06","province_code":"2303709","name":"Caucaia","cp":["61600-000"],"lat":"-3.7822","lng":"-38.8025"},{"country_code":"BR","state_code":"06","province_code":"2303808","name":"Cedro","cp":["63400-000"],"lat":"-6.591","lng":"-39.1204"},{"country_code":"BR","state_code":"06","province_code":"2303907","name":"Chaval","cp":["62420-000"],"lat":"-3.075","lng":"-41.2372"},{"country_code":"BR","state_code":"06","province_code":"2303931","name":"Chor\u00f3","cp":["63950-000"],"lat":"-4.7728","lng":"-39.1778"},{"country_code":"BR","state_code":"06","province_code":"2303956","name":"Chorozinho","cp":["62875-000"],"lat":"-4.2918","lng":"-38.489"},{"country_code":"BR","state_code":"06","province_code":"2304004","name":"Corea\u00fa","cp":["62160-000"],"lat":"-3.6883","lng":"-40.7272"},{"country_code":"BR","state_code":"06","province_code":"2304103","name":"Crate\u00fas","cp":["63700-000"],"lat":"-5.2508","lng":"-40.7433"},{"country_code":"BR","state_code":"06","province_code":"2304202","name":"Crato","cp":["63100-000"],"lat":"-7.1471","lng":"-39.4713"},{"country_code":"BR","state_code":"06","province_code":"2304236","name":"Croat\u00e1","cp":["62390-000"],"lat":"-4.3909","lng":"-40.8679"},{"country_code":"BR","state_code":"06","province_code":"2304251","name":"Cruz","cp":["62595-000"],"lat":"-2.8962","lng":"-40.3357"},{"country_code":"BR","state_code":"06","province_code":"2304269","name":"Deputado Irapuan Pinheiro","cp":["63645-000"],"lat":"-5.8874","lng":"-39.2592"},{"country_code":"BR","state_code":"06","province_code":"2304277","name":"Erer\u00ea","cp":["63470-000"],"lat":"-5.9973","lng":"-38.3118"},{"country_code":"BR","state_code":"06","province_code":"2304285","name":"Eus\u00e9bio","cp":["61760-000"],"lat":"-3.8695","lng":"-38.4554"},{"country_code":"BR","state_code":"06","province_code":"2304301","name":"Farias Brito","cp":["63185-000"],"lat":"-6.8866","lng":"-39.5341"},{"country_code":"BR","state_code":"06","province_code":"2304350","name":"Forquilha","cp":["62115-000"],"lat":"-3.8335","lng":"-40.2343"},{"country_code":"BR","state_code":"06","province_code":"2304400","name":"Fortaleza","cp":["60000-000"],"lat":"-3.7227","lng":"-38.5247"},{"country_code":"BR","state_code":"06","province_code":"2304459","name":"Fortim","cp":["62815-000"],"lat":"-4.4471","lng":"-37.8529"},{"country_code":"BR","state_code":"06","province_code":"2304509","name":"Frecheirinha","cp":["62340-000"],"lat":"-3.7282","lng":"-40.8203"},{"country_code":"BR","state_code":"06","province_code":"2304608","name":"General Sampaio","cp":["62738-000"],"lat":"-4.0502","lng":"-39.4445"},{"country_code":"BR","state_code":"06","province_code":"2304657","name":"Gra\u00e7a","cp":["62365-000"],"lat":"-4.0662","lng":"-40.795"},{"country_code":"BR","state_code":"06","province_code":"2304707","name":"Granja","cp":["62430-000"],"lat":"-3.3289","lng":"-40.9637"},{"country_code":"BR","state_code":"06","province_code":"2304806","name":"Granjeiro","cp":["63230-000"],"lat":"-6.9175","lng":"-39.2794"},{"country_code":"BR","state_code":"06","province_code":"2304905","name":"Groa\u00edras","cp":["62190-000"],"lat":"-3.9211","lng":"-40.377"},{"country_code":"BR","state_code":"06","province_code":"2304954","name":"Guai\u00faba","cp":["61890-000"],"lat":"-4.1195","lng":"-38.6828"},{"country_code":"BR","state_code":"06","province_code":"2305001","name":"Guaraciaba do Norte","cp":["62380-000"],"lat":"-4.2184","lng":"-40.8451"},{"country_code":"BR","state_code":"06","province_code":"2305100","name":"Guaramiranga","cp":["62766-000"],"lat":"-4.2218","lng":"-38.9645"},{"country_code":"BR","state_code":"06","province_code":"2305209","name":"Hidrol\u00e2ndia","cp":["62270-000"],"lat":"-4.4739","lng":"-40.3808"},{"country_code":"BR","state_code":"06","province_code":"2305233","name":"Horizonte","cp":["62880-000"],"lat":"-4.1146","lng":"-38.515"},{"country_code":"BR","state_code":"06","province_code":"2305266","name":"Ibaretama","cp":["63970-000"],"lat":"-4.7504","lng":"-38.6657"},{"country_code":"BR","state_code":"06","province_code":"2305308","name":"Ibiapina","cp":["62360-000"],"lat":"-3.9357","lng":"-40.9276"},{"country_code":"BR","state_code":"06","province_code":"2305332","name":"Ibicuitinga","cp":["62955-000"],"lat":"-4.9619","lng":"-38.5202"},{"country_code":"BR","state_code":"06","province_code":"2305357","name":"Icapu\u00ed","cp":["62810-000"],"lat":"-4.7234","lng":"-37.4134"},{"country_code":"BR","state_code":"06","province_code":"2305407","name":"Ic\u00f3","cp":["63430-000"],"lat":"-6.3519","lng":"-38.7567"},{"country_code":"BR","state_code":"06","province_code":"2305506","name":"Iguatu","cp":["63500-000"],"lat":"-6.3555","lng":"-39.2768"},{"country_code":"BR","state_code":"06","province_code":"2305605","name":"Independ\u00eancia","cp":["63640-000"],"lat":"-5.4719","lng":"-40.3231"},{"country_code":"BR","state_code":"06","province_code":"2305654","name":"Ipaporanga","cp":["62215-000"],"lat":"-4.8474","lng":"-40.8103"},{"country_code":"BR","state_code":"06","province_code":"2305704","name":"Ipaumirim","cp":["63340-000"],"lat":"-6.8088","lng":"-38.7323"},{"country_code":"BR","state_code":"06","province_code":"2305803","name":"Ipu","cp":["62250-000"],"lat":"-4.3493","lng":"-40.6593"},{"country_code":"BR","state_code":"06","province_code":"2305902","name":"Ipueiras","cp":["62230-000"],"lat":"-4.6213","lng":"-40.8219"},{"country_code":"BR","state_code":"06","province_code":"2306009","name":"Iracema","cp":["62980-000"],"lat":"-5.8127","lng":"-38.3529"},{"country_code":"BR","state_code":"06","province_code":"2306108","name":"Irau\u00e7uba","cp":["62620-000"],"lat":"-3.8977","lng":"-39.7886"},{"country_code":"BR","state_code":"06","province_code":"2306207","name":"Itai\u00e7aba","cp":["62820-000"],"lat":"-4.7017","lng":"-37.8291"},{"country_code":"BR","state_code":"06","province_code":"2306256","name":"Itaitinga","cp":["61880-000"],"lat":"-4.0304","lng":"-38.5443"},{"country_code":"BR","state_code":"06","province_code":"2306306","name":"Itapag\u00e9","cp":["62600-000"],"lat":"-3.7334","lng":"-39.5651"},{"country_code":"BR","state_code":"06","province_code":"2306405","name":"Itapipoca","cp":["62500-000"],"lat":"-3.3728","lng":"-39.5622"},{"country_code":"BR","state_code":"06","province_code":"2306504","name":"Itapi\u00fana","cp":["62740-000"],"lat":"-4.6192","lng":"-38.9313"},{"country_code":"BR","state_code":"06","province_code":"2306553","name":"Itarema","cp":["62590-000"],"lat":"-3.0834","lng":"-39.897"},{"country_code":"BR","state_code":"06","province_code":"2306603","name":"Itatira","cp":["62720-000"],"lat":"-4.5678","lng":"-39.5782"},{"country_code":"BR","state_code":"06","province_code":"2306702","name":"Jaguaretama","cp":["63480-000"],"lat":"-5.4833","lng":"-38.756"},{"country_code":"BR","state_code":"06","province_code":"2306801","name":"Jaguaribara","cp":["63490-000"],"lat":"-5.6503","lng":"-38.5103"},