[{"country_code":"CA","state_code":"AB","province_code":"","name":"Eastern Alberta (St. Paul)","cp":["T0A"],"lat":"54.766","lng":"-111.7174"},{"country_code":"CA","state_code":"AB","province_code":"","name":"Wainwright Region (Tofield)","cp":["T0B"],"lat":"53.0727","lng":"-111.5816"},{"country_code":"CA","state_code":"AB","province_code":"","name":"Central Alberta (Stettler)","cp":["T0C"],"lat":"52.1431","lng":"-111.6941"},{"country_code":"CA","state_code":"AB","province_code":"","name":"Western Alberta (Jasper)","cp":["T0E"],"lat":"53.6758","lng":"-115.0948"},{"country_code":"CA","state_code":"AB","province_code":"","name":"North Central Alberta (Slave Lake)","cp":["T0G"],"lat":"55.6993","lng":"-114.4529"},{"country_code":"CA","state_code":"AB","province_code":"","name":"Northwestern Alberta (High Level)","cp":["T0H"],"lat":"57.5403","lng":"-116.9153"},{"country_code":"CA","state_code":"AB","province_code":"","name":"Southeastern Alberta (Drumheller)","cp":["T0J"],"lat":"50.9944","lng":"-111.4632"},{"country_code":"CA","state_code":"AB","province_code":"","name":"International Border Region (Cardston)","cp":["T0K"],"lat":"49.4721","lng":"-112.2408"},{"country_code":"CA","state_code":"AB","province_code":"","name":"Kananaskis Country (Claresholm)","cp":["T0L"],"lat":"50.6314","lng":"-114.4089"},{"country_code":"CA","state_code":"AB","province_code":"","name":"Central Foothills (Sundre)","cp":["T0M"],"lat":"51.9552","lng":"-114.8691"},{"country_code":"CA","state_code":"AB","province_code":"","name":"Northeastern Alberta (Fort Chipewyan)","cp":["T0P"],"lat":"58.2626","lng":"-110.7467"},{"country_code":"CA","state_code":"AB","province_code":"","name":"Remote Northeast (Fitzgerald)","cp":["T0V"],"lat":"59.9049","lng":"-111.6717"},{"country_code":"CA","state_code":"AB","province_code":"","name":"Medicine Hat Central","cp":["T1A"],"lat":"50.0816","lng":"-110.5788"},{"country_code":"CA","state_code":"AB","province_code":"","name":"Medicine Hat South","cp":["T1B"],"lat":"49.835","lng":"-110.5203"},{"country_code":"CA","state_code":"AB","province_code":"","name":"Medicine Hat North","cp":["T1C"],"lat":"50.0774","lng":"-110.6911"},{"country_code":"CA","state_code":"AB","province_code":"","name":"Taber","cp":["T1G"],"lat":"49.787","lng":"-112.146"},{"country_code":"CA","state_code":"AB","province_code":"","name":"Lethbridge North","cp":["T1H"],"lat":"49.7","lng":"-112.8186"},{"country_code":"CA","state_code":"AB","province_code":"","name":"Lethbridge West and Central","cp":["T1J"],"lat":"49.6581","lng":"-112.7484"},{"country_code":"CA","state_code":"AB","province_code":"","name":"Lethbridge Southeast","cp":["T1K"],"lat":"49.6511","lng":"-112.8351"},{"country_code":"CA","state_code":"AB","province_code":"","name":"Banff","cp":["T1L"],"lat":"51.1762","lng":"-115.5698"},{"country_code":"CA","state_code":"AB","province_code":"","name":"Coaldale","cp":["T1M"],"lat":"49.7167","lng":"-112.6185"},{"country_code":"CA","state_code":"AB","province_code":"","name":"Strathmore","cp":["T1P"],"lat":"51.0501","lng":"-113.3852"},{"country_code":"CA","state_code":"AB","province_code":"","name":"Brooks","cp":["T1R"],"lat":"50.5834","lng":"-111.8851"},{"country_code":"CA","state_code":"AB","province_code":"","name":"Okotoks","cp":["T1S"],"lat":"50.7362","lng":"-113.9695"},{"country_code":"CA","state_code":"AB","province_code":"","name":"High River","cp":["T1V"],"lat":"50.5834","lng":"-113.8687"},{"country_code":"CA","state_code":"AB","province_code":"","name":"Canmore","cp":["T1W"],"lat":"51.0876","lng":"-115.3461"},{"country_code":"CA","state_code":"AB","province_code":"","name":"Chestermere","cp":["T1X"],"lat":"51.0334","lng":"-113.8187"},{"country_code":"CA","state_code":"AB","province_code":"","name":"Calgary (Rundle \/ Whitehorn \/ Monterey Park)","cp":["T1Y"],"lat":"51.0823","lng":"-113.9578"},{"country_code":"CA","state_code":"AB","province_code":"","name":"Rocky View","cp":["T1Z"],"lat":"51.1834","lng":"-113.9353"},{"country_code":"CA","state_code":"AB","province_code":"","name":"Calgary (Penbrooke Meadows \/ Marlborough)","cp":["T2A"],"lat":"51.0494","lng":"-113.9564"},{"country_code":"CA","state_code":"AB","province_code":"","name":"Calgary (Forest Lawn \/ Dover \/ Erin Woods)","cp":["T2B"],"lat":"51.0209","lng":"-113.981"},{"country_code":"CA","state_code":"AB","province_code":"","name":"Calgary (Lynnwood Ridge \/ Ogden \/ Foothills Industrial \/ Great Plains)","cp":["T2C"],"lat":"50.987","lng":"-113.9634"},{"country_code":"CA","state_code":"AB","province_code":"","name":"Calgary (Bridgeland \/ Greenview \/ Zoo \/ YYC)","cp":["T2E"],"lat":"51.0876","lng":"-114.0214"},{"country_code":"CA","state_code":"AB","province_code":"","name":"Calgary (Inglewood \/ Burnsland \/ Chinatown \/ East Victoria Park \/ Saddledome)","cp":["T2G"],"lat":"51.0272","lng":"-114.0349"},{"country_code":"CA","state_code":"AB","province_code":"","name":"Calgary (Highfield \/ Burns Industrial)","cp":["T2H"],"lat":"50.9894","lng":"-114.052"},{"country_code":"CA","state_code":"AB","province_code":"","name":"Calgary (Queensland Downs \/ Lake Bonavista \/ Willow Park \/ Acadia)","cp":["T2J"],"lat":"50.8476","lng":"-114.1958"},{"country_code":"CA","state_code":"AB","province_code":"","name":"Calgary (Thornecliffe \/ Tuxedo)","cp":["T2K"],"lat":"51.1111","lng":"-114.0477"},{"country_code":"CA","state_code":"AB","province_code":"","name":"Calgary (Brentwood \/ Collingwood \/ Nose Hill)","cp":["T2L"],"lat":"51.1047","lng":"-114.1148"},{"country_code":"CA","state_code":"AB","province_code":"","name":"Calgary (Mount Pleasant \/ Capitol Hill \/ Banff Trail)","cp":["T2M"],"lat":"51.133","lng":"-113.856"},{"country_code":"CA","state_code":"AB","province_code":"","name":"Calgary (Kensington \/ Westmont \/ Parkdale \/ University)","cp":["T2N"],"lat":"51.0621","lng":"-114.1159"},{"country_code":"CA","state_code":"AB","province_code":"","name":"Calgary (City Centre \/ Calgary Tower)","cp":["T2P"],"lat":"51.0708","lng":"-113.6931"},{"country_code":"CA","state_code":"AB","province_code":"","name":"Calgary (Connaught \/ West Victoria Park)","cp":["T2R"],"lat":"51.0412","lng":"-114.0762"},{"country_code":"CA","state_code":"AB","province_code":"","name":"Calgary (Elbow Park \/ Britannia \/ Parkhill \/ Mission)","cp":["T2S"],"lat":"51.0233","lng":"-114.071"},{"country_code":"CA","state_code":"AB","province_code":"","name":"Calgary South (Altadore \/ Bankview \/ Richmond)","cp":["T2T"],"lat":"51.0242","lng":"-114.1004"},{"country_code":"CA","state_code":"AB","province_code":"","name":"Calgary (Oak Ridge \/ Haysboro \/ Kingsland \/ Windsor Park)","cp":["T2V"],"lat":"50.9819","lng":"-114.1004"},{"country_code":"CA","state_code":"AB","province_code":"","name":"Calgary (Braeside \/ Woodbine)","cp":["T2W"],"lat":"50.9514","lng":"-114.3591"},{"country_code":"CA","state_code":"AB","province_code":"","name":"Calgary (Midnapore \/ Sundance)","cp":["T2X"],"lat":"50.8837","lng":"-114.0326"},{"country_code":"CA","state_code":"AB","province_code":"","name":"Calgary (Millrise \/ Somerset \/ Bridlewood \/ Evergreen)","cp":["T2Y"],"lat":"50.9093","lng":"-114.1028"},{"country_code":"CA","state_code":"AB","province_code":"","name":"Calgary (Douglas Glen \/ McKenzie Lake \/ Copperfield \/ East Shepard)","cp":["T2Z"],"lat":"50.9278","lng":"-113.9682"},{"country_code":"CA","state_code":"AB","province_code":"","name":"Calgary (Dalhousie \/ Edgemont \/ Hamptons \/ Hidden Valley)","cp":["T3A"],"lat":"51.1264","lng":"-114.1419"},{"country_code":"CA","state_code":"AB","province_code":"","name":"Calgary (Montgomery \/ Bowness \/ Silver Springs \/ Greenwood)","cp":["T3B"],"lat":"51.0915","lng":"-114.2073"},{"country_code":"CA","state_code":"AB","province_code":"","name":"Calgary (Rosscarrock \/ Wildwood \/ Shaganappi \/ Sunalta)","cp":["T3C"],"lat":"51.0497","lng":"-114.1394"},{"country_code":"CA","state_code":"AB","province_code":"","name":"Calgary (Lakeview \/ Glendale \/ Killarney \/ Glamorgan)","cp":["T3E"],"lat":"50.9899","lng":"-114.1574"},{"country_code":"CA","state_code":"AB","province_code":"","name":"Calgary (Hawkwood \/ Arbour Lake \/ Royal Oak \/ Rocky Ridge)","cp":["T3G"],"lat":"51.1387","lng":"-114.2015"},{"country_code":"CA","state_code":"AB","province_code":"","name":"Calgary (Discovery Ridge \/ Signal Hill \/ Aspen Woods \/ Patterson \/ Cougar Ridge)","cp":["T3H"],"lat":"51.0419","lng":"-114.2"},{"country_code":"CA","state_code":"AB","province_code":"","name":"Calgary (Martindale \/ Taradale \/ Falconridge \/ Saddle Ridge)","cp":["T3J"],"lat":"51.1188","lng":"-113.9471"},{"country_code":"CA","state_code":"AB","province_code":"","name":"Calgary (Sandstone \/ Harvest Hills \/ Coventry Hills \/ Panorama Hills \/ Beddington)","cp":["T3K"],"lat":"51.1563","lng":"-114.0572"},{"country_code":"CA","state_code":"AB","province_code":"","name":"Calgary (Tuscany \/ Scenic Acres)","cp":["T3L"],"lat":"51.1467","lng":"-114.3133"},{"country_code":"CA","state_code":"AB","province_code":"","name":"Calgary (Cranston)","cp":["T3M"],"lat":"50.8796","lng":"-113.9555"},{"country_code":"CA","state_code":"AB","province_code":"","name":"Calgary Northeast","cp":["T3N"],"lat":"51.1626","lng":"-113.9537"},{"country_code":"CA","state_code":"AB","province_code":"","name":"Calgary (Symons Valley)","cp":["T3P"],"lat":"51.2074","lng":"-114.1348"},{"country_code":"CA","state_code":"AB","province_code":"","name":"Calgary Northwest","cp":["T3R"],"lat":"51.2021","lng":"-114.2453"},{"country_code":"CA","state_code":"AB","province_code":"","name":"Calgary","cp":["T3S"],"lat":"50.9153","lng":"-113.8932"},{"country_code":"CA","state_code":"AB","province_code":"","name":"Redwood Meadows","cp":["T3Z"],"lat":"51.0691","lng":"-114.4727"},{"country_code":"CA","state_code":"AB","province_code":"","name":"Airdrie East","cp":["T4A"],"lat":"51.2799","lng":"-113.988"},{"country_code":"CA","state_code":"AB","province_code":"","name":"Airdrie West","cp":["T4B"],"lat":"51.3082","lng":"-114.0398"},{"country_code":"CA","state_code":"AB","province_code":"","name":"Cochrane","cp":["T4C"],"lat":"51.1834","lng":"-114.4687"},{"country_code":"CA","state_code":"AB","province_code":"","name":"Red Deer County","cp":["T4E"],"lat":"52.2765","lng":"-113.7063"},{"country_code":"CA","state_code":"AB","province_code":"","name":"Innisfail","cp":["T4G"],"lat":"52.0269","lng":"-113.9507"},{"country_code":"CA","state_code":"AB","province_code":"","name":"Olds","cp":["T4H"],"lat":"51.7834","lng":"-114.102"},{"country_code":"CA","state_code":"AB","province_code":"","name":"Ponoka","cp":["T4J"],"lat":"52.6768","lng":"-113.5815"},{"country_code":"CA","state_code":"AB","province_code":"","name":"Lacombe","cp":["T4L"],"lat":"52.4668","lng":"-113.7353"},{"country_code":"CA","state_code":"AB","province_code":"","name":"Blackfalds","cp":["T4M"],"lat":"52.3834","lng":"-113.7853"},{"country_code":"CA","state_code":"AB","province_code":"","name":"Red Deer Central","cp":["T4N"],"lat":"52.2316","lng":"-113.8358"},{"country_code":"CA","state_code":"AB","province_code":"","name":"Red Deer North","cp":["T4P"],"lat":"52.2954","lng":"-113.8073"},{"country_code":"CA","state_code":"AB","province_code":"","name":"Red Deer South","cp":["T4R"],"lat":"52.2424","lng":"-113.7784"},{"country_code":"CA","state_code":"AB","province_code":"","name":"Sylvan Lake","cp":["T4S"],"lat":"52.3168","lng":"-114.0853"},{"country_code":"CA","state_code":"AB","province_code":"","name":"Rocky Mountain House","cp":["T4T"],"lat":"52.3668","lng":"-114.9188"},{"country_code":"CA","state_code":"AB","province_code":"","name":"Camrose","cp":["T4V"],"lat":"53.0168","lng":"-112.8353"},{"country_code":"CA","state_code":"AB","province_code":"","name":"Beaumont","cp":["T4X"],"lat":"53.3501","lng":"-113.4187"},{"country_code":"CA","state_code":"AB","province_code":"","name":"Edmonton (West Clareview \/ East Londonderry)","cp":["T5A"],"lat":"53.5931","lng":"-113.4077"},{"country_code":"CA","state_code":"AB","province_code":"","name":"Edmonton (East North Central \/ West Beverly)","cp":["T5B"],"lat":"53.7353","lng":"-113.3369"},{"country_code":"CA","state_code":"AB","province_code":"","name":"Edmonton (Central Londonderry)","cp":["T5C"],"lat":"53.5996","lng":"-113.4549"},{"country_code":"CA","state_code":"AB","province_code":"","name":"Edmonton (West Londonderry \/ East Calder)","cp":["T5E"],"lat":"53.7454","lng":"-113.4465"},{"country_code":"CA","state_code":"AB","province_code":"","name":"Edmonton (North Central \/ Queen Mary Park \/ YXD)","cp":["T5G"],"lat":"53.5705","lng":"-113.5051"},{"country_code":"CA","state_code":"AB","province_code":"","name":"Edmonton (North and East Downtown Fringe)","cp":["T5H"],"lat":"53.5514","lng":"-113.4916"},{"country_code":"CA","state_code":"AB","province_code":"","name":"Edmonton (North Downtown)","cp":["T5J"],"lat":"53.5428","lng":"-113.4974"},{"country_code":"CA","state_code":"AB","province_code":"","name":"Edmonton (South Downtown \/ South Downtown Fringe)","cp":["T5K"],"lat":"53.5366","lng":"-113.5103"},{"country_code":"CA","state_code":"AB","province_code":"","name":"Edmonton (North Westmount \/ West Calder \/ East Mistatim)","cp":["T5L"],"lat":"53.585","lng":"-113.5526"},{"country_code":"CA","state_code":"AB","province_code":"","name":"Edmonton (South Westmount \/ Groat Estate \/ East Northwest Industrial)","cp":["T5M"],"lat":"53.563","lng":"-113.5662"},{"country_code":"CA","state_code":"AB","province_code":"","name":"Edmonton (Glenora \/ SW Downtown Fringe)","cp":["T5N"],"lat":"53.5436","lng":"-113.5574"},{"country_code":"CA","state_code":"AB","province_code":"","name":"Edmonton (North Jasper Place)","cp":["T5P"],"lat":"53.5463","lng":"-113.5957"},{"country_code":"CA","state_code":"AB","province_code":"","name":"Edmonton (Central Jasper Place \/ Buena Vista)","cp":["T5R"],"lat":"53.5181","lng":"-113.5797"},{"country_code":"CA","state_code":"AB","province_code":"","name":"Edmonton (West Northwest Industrial \/ Winterburn)","cp":["T5S"],"lat":"53.5634","lng":"-113.6697"},{"country_code":"CA","state_code":"AB","province_code":"","name":"Edmonton West (West Jasper Place \/ West Edmonton Mall)","cp":["T5T"],"lat":"53.5185","lng":"-113.6579"},{"country_code":"CA","state_code":"AB","province_code":"","name":"Edmonton (Central Mistatim)","cp":["T5V"],"lat":"53.5848","lng":"-113.6224"},{"country_code":"CA","state_code":"AB","province_code":"","name":"Edmonton (Central Beverly)","cp":["T5W"],"lat":"53.5645","lng":"-113.4022"},{"country_code":"CA","state_code":"AB","province_code":"","name":"Edmonton (East Castledowns)","cp":["T5X"],"lat":"53.6313","lng":"-113.5245"},{"country_code":"CA","state_code":"AB","province_code":"","name":"Edmonton (Landbank \/ Oliver \/ East Lake District)","cp":["T5Y"],"lat":"53.6585","lng":"-113.3614"},{"country_code":"CA","state_code":"AB","province_code":"","name":"Edmonton (West Lake District)","cp":["T5Z"],"lat":"53.6365","lng":"-113.4673"},{"country_code":"CA","state_code":"AB","province_code":"","name":"Edmonton (North Capilano)","cp":["T6A"],"lat":"53.5482","lng":"-113.4318"},{"country_code":"CA","state_code":"AB","province_code":"","name":"Edmonton (SE Capilano \/ West Southeast Industrial \/ East Bonnie Doon)","cp":["T6B"],"lat":"53.5128","lng":"-113.4194"},{"country_code":"CA","state_code":"AB","province_code":"","name":"Edmonton (Central Bonnie Doon)","cp":["T6C"],"lat":"53.522","lng":"-113.459"},{"country_code":"CA","state_code":"AB","province_code":"","name":"Edmonton (South Bonnie Doon \/ East University)","cp":["T6E"],"lat":"53.4914","lng":"-113.4802"},{"country_code":"CA","state_code":"AB","province_code":"","name":"Edmonton (West University \/ Strathcona Place)","cp":["T6G"],"lat":"53.521","lng":"-113.5324"},{"country_code":"CA","state_code":"AB","province_code":"","name":"Edmonton (Southgate \/ North Riverbend)","cp":["T6H"],"lat":"53.3753","lng":"-113.4585"},{"country_code":"CA","state_code":"AB","province_code":"","name":"Edmonton (Kaskitayo)","cp":["T6J"],"lat":"53.4564","lng":"-113.521"},{"country_code":"CA","state_code":"AB","province_code":"","name":"Edmonton (West Mill Woods)","cp":["T6K"],"lat":"53.4609","lng":"-113.4519"},{"country_code":"CA","state_code":"AB","province_code":"","name":"Edmonton (East Mill Woods)","cp":["T6L"],"lat":"53.4593","lng":"-113.4145"},{"country_code":"CA","state_code":"AB","province_code":"","name":"Edmonton Southwest","cp":["T6M"],"lat":"53.4593","lng":"-113.6546"},{"country_code":"CA","state_code":"AB","province_code":"","name":"Edmonton (South Industrial)","cp":["T6N"],"lat":"53.465","lng":"-113.4776"},{"country_code":"CA","state_code":"AB","province_code":"","name":"Edmonton (East Southeast Industrial \/ South Clover Bar)","cp":["T6P"],"lat":"53.5078","lng":"-113.3723"},{"country_code":"CA","state_code":"AB","province_code":"","name":"Edmonton (Riverbend)","cp":["T6R"],"lat":"53.4567","lng":"-113.5801"},{"country_code":"CA","state_code":"AB","province_code":"","name":"Edmonton (North Clover Bar)","cp":["T6S"],"lat":"53.5806","lng":"-113.3374"},{"country_code":"CA","state_code":"AB","province_code":"","name":"Edmonton (Meadows)","cp":["T6T"],"lat":"53.4617","lng":"-113.371"},{"country_code":"CA","state_code":"AB","province_code":"","name":"Edmonton (West Castledowns)","cp":["T6V"],"lat":"53.6112","lng":"-113.5746"},{"country_code":"CA","state_code":"AB","province_code":"","name":"Edmonton (Heritage Valley)","cp":["T6W"],"lat":"53.4179","lng":"-113.5785"},{"country_code":"CA","state_code":"AB","province_code":"","name":"Edmonton (Ellerslie)","cp":["T6X"],"lat":"53.4154","lng":"-113.4178"},{"country_code":"CA","state_code":"AB","province_code":"","name":"Drayton Valley","cp":["T7A"],"lat":"53.2168","lng":"-114.9854"},{"country_code":"CA","state_code":"AB","province_code":"","name":"Edson","cp":["T7E"],"lat":"53.5834","lng":"-116.4356"},{"country_code":"CA","state_code":"AB","province_code":"","name":"Barrhead","cp":["T7N"],"lat":"54.1334","lng":"-114.4021"},{"country_code":"CA","state_code":"AB","province_code":"","name":"Westlock","cp":["T7P"],"lat":"54.1502","lng":"-113.8688"},{"country_code":"CA","state_code":"AB","province_code":"","name":"Whitecourt","cp":["T7S"],"lat":"54.1501","lng":"-115.6855"},{"country_code":"CA","state_code":"AB","province_code":"","name":"Hinton","cp":["T7V"],"lat":"53.4001","lng":"-117.5857"},{"country_code":"CA","state_code":"AB","province_code":"","name":"Spruce Grove North","cp":["T7X"],"lat":"53.5334","lng":"-113.9187"},{"country_code":"CA","state_code":"AB","province_code":"","name":"Spruce Grove South","cp":["T7Y"],"lat":"53.4184","lng":"-113.8097"},{"country_code":"CA","state_code":"AB","province_code":"","name":"Stony Plain","cp":["T7Z"],"lat":"53.5334","lng":"-114.0021"},{"country_code":"CA","state_code":"AB","province_code":"","name":"Sherwood Park West","cp":["T8A"],"lat":"53.528","lng":"-113.2512"},{"country_code":"CA","state_code":"AB","province_code":"","name":"Sherwood Park Outer Southwest","cp":["T8B"],"lat":"53.4397","lng":"-113.2952"},{"country_code":"CA","state_code":"AB","province_code":"","name":"Sherwood Park Inner Southwest","cp":["T8C"],"lat":"53.4391","lng":"-113.1903"},{"country_code":"CA","state_code":"AB","province_code":"","name":"Sherwood Park Central","cp":["T8E"],"lat":"53.5225","lng":"-113.1022"},{"country_code":"CA","state_code":"AB","province_code":"","name":"Sherwood Park East","cp":["T8G"],"lat":"53.5052","lng":"-112.9529"},{"country_code":"CA","state_code":"AB","province_code":"","name":"Sherwood Park Northwest","cp":["T8H"],"lat":"53.556","lng":"-113.2952"},{"country_code":"CA","state_code":"AB","province_code":"","name":"Fort Saskatchewan","cp":["T8L"],"lat":"53.7168","lng":"-113.2187"},{"country_code":"CA","state_code":"AB","province_code":"","name":"St. Albert","cp":["T8N"],"lat":"53.6334","lng":"-113.6353"},{"country_code":"CA","state_code":"AB","province_code":"","name":"Morinville","cp":["T8R"],"lat":"53.8001","lng":"-113.652"},{"country_code":"CA","state_code":"AB","province_code":"","name":"Peace River","cp":["T8S"],"lat":"56.2501","lng":"-117.286"},{"country_code":"CA","state_code":"AB","province_code":"","name":"St. Albert","cp":["T8T"],"lat":"53.6867","lng":"-113.7102"},{"country_code":"CA","state_code":"AB","province_code":"","name":"Grande Prairie Central","cp":["T8V"],"lat":"55.1808","lng":"-118.9103"},{"country_code":"CA","state_code":"AB","province_code":"","name":"Grande Prairie South","cp":["T8W"],"lat":"55.1303","lng":"-118.7946"},{"country_code":"CA","state_code":"AB","province_code":"","name":"Grande Prairie East","cp":["T8X"],"lat":"55.1834","lng":"-118.7457"},{"country_code":"CA","state_code":"AB","province_code":"","name":"Wetaskiwin","cp":["T9A"],"lat":"52.9668","lng":"-113.3687"},{"country_code":"CA","state_code":"AB","province_code":"","name":"Vegreville","cp":["T9C"],"lat":"53.5001","lng":"-112.0518"},{"country_code":"CA","state_code":"AB","province_code":"","name":"Leduc","cp":["T9E"],"lat":"53.2668","lng":"-113.552"},{"country_code":"CA","state_code":"AB","province_code":"","name":"Devon","cp":["T9G"],"lat":"53.3668","lng":"-113.7353"},{"country_code":"CA","state_code":"AB","province_code":"","name":"Fort McMurray Outer Central","cp":["T9H"],"lat":"56.664","lng":"-111.1357"},{"country_code":"CA","state_code":"AB","province_code":"","name":"Fort McMurray Inner Central","cp":["T9J"],"lat":"56.707","lng":"-111.3771"},{"country_code":"CA","state_code":"AB","province_code":"","name":"Fort McMurray Northwest","cp":["T9K"],"lat":"56.7538","lng":"-111.435"},{"country_code":"CA","state_code":"AB","province_code":"","name":"Cold Lake","cp":["T9M"],"lat":"54.4502","lng":"-110.2017"},{"country_code":"CA","state_code":"AB","province_code":"","name":"Bonnyville","cp":["T9N"],"lat":"54.2668","lng":"-110.7351"},{"country_code":"CA","state_code":"AB","province_code":"","name":"Athabasca","cp":["T9S"],"lat":"54.7169","lng":"-113.2854"},{"country_code":"CA","state_code":"AB","province_code":"","name":"Lloydminster","cp":["T9V"],"lat":"53.2717","lng":"-110.0853"},{"country_code":"CA","state_code":"AB","province_code":"","name":"Wainwright","cp":["T9W"],"lat":"52.839","lng":"-110.8572"},{"country_code":"CA","state_code":"AB","province_code":"","name":"Vermilion","cp":["T9X"],"lat":"53.3669","lng":"-110.8517"},{"country_code":"CA","state_code":"BC","province_code":"5965814","name":"Vancouver (North Hastings-Sunrise)","cp":["V5K"],"lat":"49.2807","lng":"-123.0397"},{"country_code":"CA","state_code":"BC","province_code":"5965814","name":"Vancouver (North Grandview-Woodlands)","cp":["V5L"],"lat":"49.2795","lng":"-123.0667"},{"country_code":"CA","state_code":"BC","province_code":"5965814","name":"Vancouver (South Hastings-Sunrise \/ North Renfrew-Collingwood)","cp":["V5M"],"lat":"49.26","lng":"-123.0398"},{"country_code":"CA","state_code":"BC","province_code":"5965814","name":"Vancouver (South Grandview-Woodlands \/ NE Kensington)","cp":["V5N"],"lat":"49.2551","lng":"-123.0667"},{"country_code":"CA","state_code":"BC","province_code":"5965814","name":"Vancouver (SE Kensington \/ Victoria-Fraserview)","cp":["V5P"],"lat":"49.222","lng":"-123.0683"},{"country_code":"CA","state_code":"BC","province_code":"5965814","name":"Vancouver (South Renfrew-Collingwood)","cp":["V5R"],"lat":"49.2397","lng":"-123.0407"},{"country_code":"CA","state_code":"BC","province_code":"5965814","name":"Vancouver (Killarney)","cp":["V5S"],"lat":"49.2175","lng":"-123.038"},{"country_code":"CA","state_code":"BC","province_code":"5965814","name":"Vancouver (East Mount Pleasant)","cp":["V5T"],"lat":"49.262","lng":"-123.0923"},{"country_code":"CA","state_code":"BC","province_code":"5965814","name":"Vancouver (West Kensington \/ NE Riley Park-Little Mountain)","cp":["V5V"],"lat":"49.248","lng":"-123.0913"},{"country_code":"CA","state_code":"BC","province_code":"5965814","name":"Vancouver (SE Riley Park-Little Mountain \/ SW Kensington \/ NE Oakridge \/ North Sunset)","cp":["V5W"],"lat":"49.2327","lng":"-123.0917"},{"country_code":"CA","state_code":"BC","province_code":"5965814","name":"Vancouver (SE Oakridge \/ East Marpole \/ South Sunset)","cp":["V5X"],"lat":"49.2156","lng":"-123.0979"},{"country_code":"CA","state_code":"BC","province_code":"5965814","name":"Vancouver (West Mount Pleasant \/ West Riley Park-Little Mountain)","cp":["V5Y"],"lat":"49.2492","lng":"-123.1104"},{"country_code":"CA","state_code":"BC","province_code":"5965814","name":"Vancouver (East Fairview \/ South Cambie)","cp":["V5Z"],"lat":"49.2475","lng":"-123.121"},{"country_code":"CA","state_code":"BC","province_code":"5965814","name":"Vancouver (Strathcona \/ Chinatown \/ Downtown Eastside)","cp":["V6A"],"lat":"49.2779","lng":"-123.0908"},{"country_code":"CA","state_code":"BC","province_code":"5965814","name":"Vancouver (NE Downtown \/ Harbour Centre \/ Gastown \/ Yaletown)","cp":["V6B"],"lat":"49.2788","lng":"-123.1139"},{"country_code":"CA","state_code":"BC","province_code":"5965814","name":"Vancouver (Waterfront \/ Coal Harbour \/ Canada Place)","cp":["V6C"],"lat":"49.2866","lng":"-123.1158"},{"country_code":"CA","state_code":"BC","province_code":"5965814","name":"Vancouver (South West End)","cp":["V6E"],"lat":"49.2833","lng":"-123.1298"},{"country_code":"CA","state_code":"BC","province_code":"5965814","name":"Vancouver (North West End \/ Stanley Park)","cp":["V6G"],"lat":"49.299","lng":"-123.1408"},{"country_code":"CA","state_code":"BC","province_code":"5965814","name":"Vancouver (West Fairview \/ Granville Island \/ NE Shaughnessy)","cp":["V6H"],"lat":"49.2559","lng":"-123.1322"},{"country_code":"CA","state_code":"BC","province_code":"5965814","name":"Vancouver (NW Shaughnessy \/ East Kitsilano \/ Quilchena)","cp":["V6J"],"lat":"49.2603","lng":"-123.146"},{"country_code":"CA","state_code":"BC","province_code":"5965814","name":"Vancouver (Central Kitsilano)","cp":["V6K"],"lat":"49.2646","lng":"-123.1648"},{"country_code":"CA","state_code":"BC","province_code":"5965814","name":"Vancouver (NW Arbutus Ridge)","cp":["V6L"],"lat":"49.2497","lng":"-123.166"},{"country_code":"CA","state_code":"BC","province_code":"5965814","name":"Vancouver (South Shaughnessy \/ NW Oakridge \/ NE Kerrisdale \/ SE Arbutus Ridge)","cp":["V6M"],"lat":"49.2344","lng":"-123.1451"},{"country_code":"CA","state_code":"BC","province_code":"5965814","name":"Vancouver (Dunbar-Southlands \/ Musqueam)","cp":["V6N"],"lat":"49.2302","lng":"-123.189"},{"country_code":"CA","state_code":"BC","province_code":"5965814","name":"Vancouver (SE Kerrisdale \/ SW Oakridge \/ West Marpole)","cp":["V6P"],"lat":"49.2151","lng":"-123.1396"},{"country_code":"CA","state_code":"BC","province_code":"5965814","name":"Vancouver (West Kitsilano \/ Jericho)","cp":["V6R"],"lat":"49.2666","lng":"-123.1976"},{"country_code":"CA","state_code":"BC","province_code":"5965814","name":"Vancouver (Chaldecutt \/ South University Endowment Lands)","cp":["V6S"],"lat":"49.2491","lng":"-123.2088"},{"country_code":"CA","state_code":"BC","province_code":"5965814","name":"Vancouver (UBC)","cp":["V6T"],"lat":"49.4635","lng":"-122.822"},{"country_code":"CA","state_code":"BC","province_code":"5965814","name":"Vancouver (SW Downtown)","cp":["V6Z"],"lat":"49.2767","lng":"-123.13"},{"country_code":"CA","state_code":"BC","province_code":"5965814","name":"North Vancouver Outer East","cp":["V7G"],"lat":"49.3678","lng":"-122.9278"},{"country_code":"CA","state_code":"BC","province_code":"5965814","name":"North Vancouver Inner East","cp":["V7H"],"lat":"49.3551","lng":"-122.9802"},{"country_code":"CA","state_code":"BC","province_code":"5965814","name":"North Vancouver East Central","cp":["V7J"],"lat":"49.3622","lng":"-123.0178"},{"country_code":"CA","state_code":"BC","province_code":"5965814","name":"North Vancouver North Central","cp":["V7K"],"lat":"49.3597","lng":"-123.0377"},{"country_code":"CA","state_code":"BC","province_code":"5965814","name":"North Vancouver South Central","cp":["V7L"],"lat":"49.316","lng":"-123.0576"},{"country_code":"CA","state_code":"BC","province_code":"5965814","name":"North Vancouver Southwest Central","cp":["V7M"],"lat":"49.3222","lng":"-123.0834"},{"country_code":"CA","state_code":"BC","province_code":"5965814","name":"North Vancouver Northwest Central","cp":["V7N"],"lat":"49.35","lng":"-123.0679"},{"country_code":"CA","state_code":"BC","province_code":"5965814","name":"North Vancouver Southwest","cp":["V7P"],"lat":"49.322","lng":"-123.1149"},{"country_code":"CA","state_code":"BC","province_code":"5965814","name":"North Vancouver Northwest","cp":["V7R"],"lat":"49.3775","lng":"-123.0862"},{"country_code":"CA","state_code":"BC","province_code":"5965814","name":"West Vancouver North","cp":["V7S"],"lat":"49.3745","lng":"-123.1864"},{"country_code":"CA","state_code":"BC","province_code":"5965814","name":"West Vancouver Southeast","cp":["V7T"],"lat":"49.3322","lng":"-123.1417"},{"country_code":"CA","state_code":"BC","province_code":"5965814","name":"West Vancouver South","cp":["V7V"],"lat":"49.3397","lng":"-123.1912"},{"country_code":"CA","state_code":"BC","province_code":"5965814","name":"West Vancouver West","cp":["V7W"],"lat":"49.3615","lng":"-123.2627"},{"country_code":"CA","state_code":"BC","province_code":"5965814","name":"Vancouver (Bentall Centre)","cp":["V7X"],"lat":"49.2935","lng":"-123.1162"},{"country_code":"CA","state_code":"BC","province_code":"5965814","name":"Vancouver (Pacific Centre)","cp":["V7Y"],"lat":"49.2819","lng":"-123.119"},{"country_code":"CA","state_code":"BC","province_code":"","name":"Upper Columbia Region (Golden)","cp":["V0A"],"lat":"51.2994","lng":"-116.939"},{"country_code":"CA","state_code":"BC","province_code":"","name":"East Kootenays (Fernie)","cp":["V0B"],"lat":"49.6775","lng":"-115.5636"},{"country_code":"CA","state_code":"BC","province_code":"","name":"Northern British Columbia (Fort Nelson)","cp":["V0C"],"lat":"58.3874","lng":"-125.7167"},{"country_code":"CA","state_code":"BC","province_code":"","name":"Central Okanagan and High Country (Revelstoke)","cp":["V0E"],"lat":"51.505","lng":"-119.2034"},{"country_code":"CA","state_code":"BC","province_code":"","name":"West Kootenays (Rossland)","cp":["V0G"],"lat":"50.053","lng":"-117.4291"},{"country_code":"CA","state_code":"BC","province_code":"","name":"South Okanagan (Summerland)","cp":["V0H"],"lat":"49.4089","lng":"-119.0054"},{"country_code":"CA","state_code":"BC","province_code":"","name":"Omineca and Yellowhead (Smithers)","cp":["V0J"],"lat":"55.9964","lng":"-126.8574"},{"country_code":"CA","state_code":"BC","province_code":"","name":"Cariboo and West Okanagan (100 Mile House)","cp":["V0K"],"lat":"51.4367","lng":"-121.6384"},{"country_code":"CA","state_code":"BC","province_code":"","name":"Chilcotin (Alexis Creek)","cp":["V0L"],"lat":"52.0993","lng":"-123.6526"},{"country_code":"CA","state_code":"BC","province_code":"","name":"Harrison Lake Region (Agassiz)","cp":["V0M"],"lat":"49.6346","lng":"-122.038"},{"country_code":"CA","state_code":"BC","province_code":"","name":"North Island, Sunshine Coast, and Southern Gulf Islands (Whistler)","cp":["V0N"],"lat":"51.2944","lng":"-126.0745"},{"country_code":"CA","state_code":"BC","province_code":"","name":"North Central Island and Bute Inlet Region (Gold River)","cp":["V0P"],"lat":"49.8866","lng":"-126.2673"},{"country_code":"CA","state_code":"BC","province_code":"","name":"Central Island (Chemainus)","cp":["V0R"],"lat":"49.027","lng":"-124.8461"},{"country_code":"CA","state_code":"BC","province_code":"","name":"Juan de Fuca Shore (Sooke)","cp":["V0S"],"lat":"48.5432","lng":"-123.672"},{"country_code":"CA","state_code":"BC","province_code":"","name":"Inside Passage and the Queen Charlottes (Queen Charlotte City)","cp":["V0T"],"lat":"52.2338","lng":"-126.2134"},{"country_code":"CA","state_code":"BC","province_code":"","name":"Lower Skeena (Port Edward)","cp":["V0V"],"lat":"53.9725","lng":"-129.8986"},{"country_code":"CA","state_code":"BC","province_code":"","name":"Atlin Region (Atlin)","cp":["V0W"],"lat":"59.6378","lng":"-133.5433"},{"country_code":"CA","state_code":"BC","province_code":"","name":"Similkameen (Hope)","cp":["V0X"],"lat":"49.3688","lng":"-120.6569"},{"country_code":"CA","state_code":"BC","province_code":"","name":"Kimberley","cp":["V1A"],"lat":"49.6832","lng":"-115.9855"},{"country_code":"CA","state_code":"BC","province_code":"","name":"Vernon East","cp":["V1B"],"lat":"50.084","lng":"-118.938"},{"country_code":"CA","state_code":"BC","province_code":"","name":"Cranbrook","cp":["V1C"],"lat":"49.4999","lng":"-115.7688"},{"country_code":"CA","state_code":"BC","province_code":"","name":"Salmon Arm","cp":["V1E"],"lat":"50.6998","lng":"-119.2691"},{"country_code":"CA","state_code":"BC","province_code":"","name":"Dawson Creek","cp":["V1G"],"lat":"55.7666","lng":"-120.2362"},{"country_code":"CA","state_code":"BC","province_code":"","name":"Vernon West","cp":["V1H"],"lat":"50.2868","lng":"-119.4975"},{"country_code":"CA","state_code":"BC","province_code":"","name":"Fort St. John","cp":["V1J"],"lat":"56.2499","lng":"-120.8529"},{"country_code":"CA","state_code":"BC","province_code":"","name":"Merritt","cp":["V1K"],"lat":"50.1122","lng":"-120.7942"},{"country_code":"CA","state_code":"BC","province_code":"","name":"Nelson","cp":["V1L"],"lat":"49.4999","lng":"-117.2855"},{"country_code":"CA","state_code":"BC","province_code":"","name":"Langley Township North","cp":["V1M"],"lat":"49.1661","lng":"-122.5792"},{"country_code":"CA","state_code":"BC","province_code":"","name":"Castlegar","cp":["V1N"],"lat":"49.2998","lng":"-117.6689"},{"country_code":"CA","state_code":"BC","province_code":"","name":"Kelowna East","cp":["V1P"],"lat":"49.8959","lng":"-119.1724"},{"country_code":"CA","state_code":"BC","province_code":"","name":"Trail","cp":["V1R"],"lat":"49.0998","lng":"-117.7022"},{"country_code":"CA","state_code":"BC","province_code":"","name":"Kamloops Southwest","cp":["V1S"],"lat":"50.5583","lng":"-120.5477"},{"country_code":"CA","state_code":"BC","province_code":"","name":"Vernon Central","cp":["V1T"],"lat":"50.2604","lng":"-119.2774"},{"country_code":"CA","state_code":"BC","province_code":"","name":"Kelowna North","cp":["V1V"],"lat":"49.9497","lng":"-119.4339"},{"country_code":"CA","state_code":"BC","province_code":"","name":"Kelowna Southwest","cp":["V1W"],"lat":"49.812","lng":"-119.5076"},{"country_code":"CA","state_code":"BC","province_code":"","name":"Kelowna East Central","cp":["V1X"],"lat":"50.0528","lng":"-119.2858"},{"country_code":"CA","state_code":"BC","province_code":"","name":"Kelowna Central","cp":["V1Y"],"lat":"49.8928","lng":"-119.4852"},{"country_code":"CA","state_code":"BC","province_code":"","name":"Kelowna West","cp":["V1Z"],"lat":"49.8625","lng":"-119.5833"},{"country_code":"CA","state_code":"BC","province_code":"","name":"Penticton","cp":["V2A"],"lat":"49.4806","lng":"-119.5858"},{"country_code":"CA","state_code":"BC","province_code":"","name":"Kamloops Northwest","cp":["V2B"],"lat":"50.8869","lng":"-120.7357"},{"country_code":"CA","state_code":"BC","province_code":"","name":"Kamloops Central and Southeast","cp":["V2C"],"lat":"50.5437","lng":"-120.0937"},{"country_code":"CA","state_code":"BC","province_code":"","name":"Kamloops South and West","cp":["V2E"],"lat":"50.6736","lng":"-120.4212"},{"country_code":"CA","state_code":"BC","province_code":"","name":"Williams Lake","cp":["V2G"],"lat":"52.1415","lng":"-122.1445"},{"country_code":"CA","state_code":"BC","province_code":"","name":"Kamloops North","cp":["V2H"],"lat":"50.7262","lng":"-120.1659"},{"country_code":"CA","state_code":"BC","province_code":"","name":"Quesnel","cp":["V2J"],"lat":"52.9784","lng":"-122.4931"},{"country_code":"CA","state_code":"BC","province_code":"","name":"Prince George North","cp":["V2K"],"lat":"54.0508","lng":"-122.9221"},{"country_code":"CA","state_code":"BC","province_code":"","name":"Prince George East Central","cp":["V2L"],"lat":"53.9078","lng":"-122.7473"},{"country_code":"CA","state_code":"BC","province_code":"","name":"Prince George West Central","cp":["V2M"],"lat":"53.9127","lng":"-122.8708"},{"country_code":"CA","state_code":"BC","province_code":"","name":"Prince George South","cp":["V2N"],"lat":"53.6408","lng":"-122.954"},{"country_code":"CA","state_code":"BC","province_code":"","name":"Chilliwack Central","cp":["V2P"],"lat":"49.1838","lng":"-121.9046"},{"country_code":"CA","state_code":"BC","province_code":"","name":"Chilliwack West","cp":["V2R"],"lat":"49.076","lng":"-121.9883"},{"country_code":"CA","state_code":"BC","province_code":"","name":"Abbotsford Southeast","cp":["V2S"],"lat":"49.0423","lng":"-122.2835"},{"country_code":"CA","state_code":"BC","province_code":"","name":"Abbotsford Southwest","cp":["V2T"],"lat":"49.0384","lng":"-122.3485"},{"country_code":"CA","state_code":"BC","province_code":"","name":"Mission East","cp":["V2V"],"lat":"49.6463","lng":"-122.5047"},{"country_code":"CA","state_code":"BC","province_code":"","name":"Maple Ridge East","cp":["V2W"],"lat":"49.2068","lng":"-122.4851"},{"country_code":"CA","state_code":"BC","province_code":"","name":"Maple Ridge West","cp":["V2X"],"lat":"49.2196","lng":"-122.6164"},{"country_code":"CA","state_code":"BC","province_code":"","name":"Langley Township Northwest","cp":["V2Y"],"lat":"49.1285","lng":"-122.6236"},{"country_code":"CA","state_code":"BC","province_code":"","name":"Langley Township Southwest","cp":["V2Z"],"lat":"49.0483","lng":"-122.5997"},{"country_code":"CA","state_code":"BC","province_code":"","name":"Langley City","cp":["V3A"],"lat":"49.0997","lng":"-122.6526"},{"country_code":"CA","state_code":"BC","province_code":"","name":"Port Coquitlam Central","cp":["V3B"],"lat":"49.274","lng":"-122.7649"},{"country_code":"CA","state_code":"BC","province_code":"","name":"Port Coquitlam South","cp":["V3C"],"lat":"49.2436","lng":"-122.7865"},{"country_code":"CA","state_code":"BC","province_code":"","name":"Port Coquitlam North","cp":["V3E"],"lat":"49.3167","lng":"-122.7384"},{"country_code":"CA","state_code":"BC","province_code":"","name":"Abbotsford East","cp":["V3G"],"lat":"49.0754","lng":"-122.178"},{"country_code":"CA","state_code":"BC","province_code":"","name":"Port Moody","cp":["V3H"],"lat":"49.3231","lng":"-122.8626"},{"country_code":"CA","state_code":"BC","province_code":"","name":"Coquitlam North","cp":["V3J"],"lat":"49.265","lng":"-122.8716"},{"country_code":"CA","state_code":"BC","province_code":"","name":"Coquitlam South","cp":["V3K"],"lat":"49.2366","lng":"-122.8521"},{"country_code":"CA","state_code":"BC","province_code":"","name":"New Westminster Northeast","cp":["V3L"],"lat":"49.2201","lng":"-122.8998"},{"country_code":"CA","state_code":"BC","province_code":"","name":"New Westminster Southwest (Includes Annacis Island)","cp":["V3M"],"lat":"49.1886","lng":"-122.9384"},{"country_code":"CA","state_code":"BC","province_code":"","name":"Burnaby (East Big Bend \/ Stride Avenue \/ Edmonds \/ Cariboo-Armstrong)","cp":["V3N"],"lat":"49.2275","lng":"-122.9301"},{"country_code":"CA","state_code":"BC","province_code":"","name":"Surrey North","cp":["V3R"],"lat":"49.1948","lng":"-122.8131"},{"country_code":"CA","state_code":"BC","province_code":"","name":"Surrey East","cp":["V3S"],"lat":"49.0791","lng":"-122.7553"},{"country_code":"CA","state_code":"BC","province_code":"","name":"Surrey Inner Northwest","cp":["V3T"],"lat":"49.1894","lng":"-122.8454"},{"country_code":"CA","state_code":"BC","province_code":"","name":"Surrey Outer Northwest","cp":["V3V"],"lat":"49.1889","lng":"-122.873"},{"country_code":"CA","state_code":"BC","province_code":"","name":"Surrey Upper West","cp":["V3W"],"lat":"49.141","lng":"-122.8569"},{"country_code":"CA","state_code":"BC","province_code":"","name":"Surrey Lower West","cp":["V3X"],"lat":"49.1067","lng":"-122.8576"},{"country_code":"CA","state_code":"BC","province_code":"","name":"Pitt Meadows","cp":["V3Y"],"lat":"49.2212","lng":"-122.6896"},{"country_code":"CA","state_code":"BC","province_code":"","name":"Surrey","cp":["V3Z"],"lat":"49.1064","lng":"-122.8251"},{"country_code":"CA","state_code":"BC","province_code":"","name":"Surrey Southwest","cp":["V4A"],"lat":"49.0374","lng":"-122.8299"},{"country_code":"CA","state_code":"BC","province_code":"","name":"White Rock","cp":["V4B"],"lat":"49.0259","lng":"-122.8058"},{"country_code":"CA","state_code":"BC","province_code":"","name":"Delta Northeast","cp":["V4C"],"lat":"49.1551","lng":"-122.9124"},{"country_code":"CA","state_code":"BC","province_code":"","name":"Delta East","cp":["V4E"],"lat":"49.1197","lng":"-122.9056"},{"country_code":"CA","state_code":"BC","province_code":"","name":"Delta East Central","cp":["V4G"],"lat":"49.1464","lng":"-123.0137"},{"country_code":"CA","state_code":"BC","province_code":"","name":"Delta Central","cp":["V4K"],"lat":"49.0986","lng":"-123.0318"},{"country_code":"CA","state_code":"BC","province_code":"","name":"Delta Southeast","cp":["V4L"],"lat":"49.0418","lng":"-123.0591"},{"country_code":"CA","state_code":"BC","province_code":"","name":"Delta Southwest","cp":["V4M"],"lat":"49.0331","lng":"-123.0877"},{"country_code":"CA","state_code":"BC","province_code":"","name":"Surrey Northeast","cp":["V4N"],"lat":"49.1707","lng":"-122.7326"},{"country_code":"CA","state_code":"BC","province_code":"","name":"Surrey South","cp":["V4P"],"lat":"49.0561","lng":"-122.8302"},{"country_code":"CA","state_code":"BC","province_code":"","name":"Maple Ridge Northwest","cp":["V4R"],"lat":"49.2903","lng":"-122.5169"},{"country_code":"CA","state_code":"BC","province_code":"","name":"Mission West","cp":["V4S"],"lat":"49.2528","lng":"-122.3574"},{"country_code":"CA","state_code":"BC","province_code":"","name":"Westbank","cp":["V4T"],"lat":"49.866","lng":"-119.7387"},{"country_code":"CA","state_code":"BC","province_code":"","name":"Winfield","cp":["V4V"],"lat":"50.0221","lng":"-119.4054"},{"country_code":"CA","state_code":"BC","province_code":"","name":"Langley Township East","cp":["V4W"],"lat":"49.0713","lng":"-122.4977"},{"country_code":"CA","state_code":"BC","province_code":"","name":"Abbotsford West","cp":["V4X"],"lat":"49.0861","lng":"-122.4026"},{"country_code":"CA","state_code":"BC","province_code":"","name":"Chilliwack East","cp":["V4Z"],"lat":"49.0787","lng":"-121.6098"},{"country_code":"CA","state_code":"BC","province_code":"","name":"Burnaby (Government Road \/ Lake City \/ SFU \/ Burnaby Mountain)","cp":["V5A"],"lat":"49.264","lng":"-122.9369"},{"country_code":"CA","state_code":"BC","province_code":"","name":"Burnaby (Parkcrest-Aubrey \/ Ardingley-Sprott)","cp":["V5B"],"lat":"49.2769","lng":"-122.9761"},{"country_code":"CA","state_code":"BC","province_code":"","name":"Burnaby (Burnaby Heights \/ Willingdon Heights \/ West Central Valley)","cp":["V5C"],"lat":"49.274","lng":"-123.0074"},{"country_code":"CA","state_code":"BC","province_code":"","name":"Burnaby (Lakeview-Mayfield \/ Richmond Park \/ Kingsway-Beresford)","cp":["V5E"],"lat":"49.2272","lng":"-122.9574"},{"country_code":"CA","state_code":"BC","province_code":"","name":"Burnaby (Cascade-Schou \/ Douglas-Gilpin)","cp":["V5G"],"lat":"49.2478","lng":"-122.9938"},{"country_code":"CA","state_code":"BC","province_code":"","name":"Burnaby (Maywood \/ Marlborough \/ Oakalla \/ Windsor)","cp":["V5H"],"lat":"49.2302","lng":"-122.9952"},{"country_code":"CA","state_code":"BC","province_code":"","name":"Burnaby (Suncrest \/ Sussex-Nelson \/ Clinton-Glenwood \/ West Big Bend)","cp":["V5J"],"lat":"49.2038","lng":"-122.9921"},{"country_code":"CA","state_code":"BC","province_code":"","name":"Richmond Northeast","cp":["V6V"],"lat":"49.1853","lng":"-123.0386"},{"country_code":"CA","state_code":"BC","province_code":"","name":"Richmond Southeast","cp":["V6W"],"lat":"49.1534","lng":"-123.048"},{"country_code":"CA","state_code":"BC","province_code":"","name":"Richmond North","cp":["V6X"],"lat":"49.1836","lng":"-123.1168"},{"country_code":"CA","state_code":"BC","province_code":"","name":"Richmond Central","cp":["V6Y"],"lat":"49.17","lng":"-123.1368"},{"country_code":"CA","state_code":"BC","province_code":"","name":"Richmond South","cp":["V7A"],"lat":"49.1205","lng":"-123.1171"},{"country_code":"CA","state_code":"BC","province_code":"","name":"Richmond (Sea Island \/ YVR)","cp":["V7B"],"lat":"49.1988","lng":"-123.1799"},{"country_code":"CA","state_code":"BC","province_code":"","name":"Richmond West","cp":["V7C"],"lat":"49.1626","lng":"-123.1721"},{"country_code":"CA","state_code":"BC","province_code":"","name":"Richmond Southwest","cp":["V7E"],"lat":"49.1323","lng":"-123.1705"},{"country_code":"CA","state_code":"BC","province_code":"","name":"Powell River","cp":["V8A"],"lat":"50.0163","lng":"-124.3226"},{"country_code":"CA","state_code":"BC","province_code":"","name":"Squamish","cp":["V8B"],"lat":"49.7002","lng":"-123.156"},{"country_code":"CA","state_code":"BC","province_code":"","name":"Kitimat","cp":["V8C"],"lat":"54.0524","lng":"-128.6534"},{"country_code":"CA","state_code":"BC","province_code":"","name":"Whistler","cp":["V8E"],"lat":"50.1182","lng":"-122.954"},{"country_code":"CA","state_code":"BC","province_code":"","name":"Terrace","cp":["V8G"],"lat":"54.5163","lng":"-128.6035"},{"country_code":"CA","state_code":"BC","province_code":"","name":"Prince Rupert","cp":["V8J"],"lat":"54.3161","lng":"-130.3201"},{"country_code":"CA","state_code":"BC","province_code":"","name":"Saltspring Island","cp":["V8K"],"lat":"48.8138","lng":"-123.4973"},{"country_code":"CA","state_code":"BC","province_code":"","name":"Sidney","cp":["V8L"],"lat":"48.6496","lng":"-123.4026"},{"country_code":"CA","state_code":"BC","province_code":"","name":"Central Saanich","cp":["V8M"],"lat":"48.5663","lng":"-123.4193"},{"country_code":"CA","state_code":"BC","province_code":"","name":"Saanich East","cp":["V8N"],"lat":"48.4765","lng":"-123.3145"},{"country_code":"CA","state_code":"BC","province_code":"","name":"Saanich Southeast","cp":["V8P"],"lat":"48.4583","lng":"-123.3325"},{"country_code":"CA","state_code":"BC","province_code":"","name":"Oak Bay North","cp":["V8R"],"lat":"48.4496","lng":"-123.3026"},{"country_code":"CA","state_code":"BC","province_code":"","name":"Oak Bay South","cp":["V8S"],"lat":"48.42","lng":"-123.3047"},{"country_code":"CA","state_code":"BC","province_code":"","name":"Victoria North","cp":["V8T"],"lat":"48.4392","lng":"-123.3566"},{"country_code":"CA","state_code":"BC","province_code":"","name":"Victoria South","cp":["V8V"],"lat":"48.4167","lng":"-123.365"},{"country_code":"CA","state_code":"BC","province_code":"","name":"Victoria Central British Columbia Provincial Government","cp":["V8W"],"lat":"48.4267","lng":"-123.3655"},{"country_code":"CA","state_code":"BC","province_code":"","name":"Saanich South","cp":["V8X"],"lat":"48.4777","lng":"-123.3658"},{"country_code":"CA","state_code":"BC","province_code":"","name":"Saanich North","cp":["V8Y"],"lat":"48.5247","lng":"-123.3745"},{"country_code":"CA","state_code":"BC","province_code":"","name":"Saanich Central","cp":["V8Z"],"lat":"48.4993","lng":"-123.4003"},{"country_code":"CA","state_code":"BC","province_code":"","name":"Esquimalt","cp":["V9A"],"lat":"48.4496","lng":"-123.4193"},{"country_code":"CA","state_code":"BC","province_code":"","name":"Highlands","cp":["V9B"],"lat":"48.4793","lng":"-123.5271"},{"country_code":"CA","state_code":"BC","province_code":"","name":"Metchosin","cp":["V9C"],"lat":"48.3829","lng":"-123.5359"},{"country_code":"CA","state_code":"BC","province_code":"","name":"Saanich West","cp":["V9E"],"lat":"48.5219","lng":"-123.453"},{"country_code":"CA","state_code":"BC","province_code":"","name":"Ladysmith","cp":["V9G"],"lat":"48.9829","lng":"-123.8194"},{"country_code":"CA","state_code":"BC","province_code":"","name":"Campbell River Outskirts","cp":["V9H"],"lat":"49.9088","lng":"-125.5862"},{"country_code":"CA","state_code":"BC","province_code":"","name":"Courtenay Northern Outskirts","cp":["V9J"],"lat":"49.7242","lng":"-125.2604"},{"country_code":"CA","state_code":"BC","province_code":"","name":"Qualicum Beach","cp":["V9K"],"lat":"49.3468","lng":"-124.4361"},{"country_code":"CA","state_code":"BC","province_code":"","name":"Duncan","cp":["V9L"],"lat":"48.7829","lng":"-123.7027"},{"country_code":"CA","state_code":"BC","province_code":"","name":"Comox","cp":["V9M"],"lat":"49.6829","lng":"-124.9361"},{"country_code":"CA","state_code":"BC","province_code":"","name":"Courtenay Central","cp":["V9N"],"lat":"49.6585","lng":"-124.9835"},{"country_code":"CA","state_code":"BC","province_code":"","name":"Parksville","cp":["V9P"],"lat":"49.3163","lng":"-124.3194"},{"country_code":"CA","state_code":"BC","province_code":"","name":"Nanaimo South","cp":["V9R"],"lat":"49.1609","lng":"-123.9825"},{"country_code":"CA","state_code":"BC","province_code":"","name":"Nanaimo Central","cp":["V9S"],"lat":"49.1886","lng":"-123.963"},{"country_code":"CA","state_code":"BC","province_code":"","name":"Nanaimo North","cp":["V9T"],"lat":"49.2146","lng":"-124.02"},{"country_code":"CA","state_code":"BC","province_code":"","name":"Nanaimo Northwest","cp":["V9V"],"lat":"49.2391","lng":"-124.0227"},{"country_code":"CA","state_code":"BC","province_code":"","name":"Campbell River Central","cp":["V9W"],"lat":"50.0769","lng":"-125.5909"},{"country_code":"CA","state_code":"BC","province_code":"","name":"Cedar","cp":["V9X"],"lat":"49.0419","lng":"-123.979"},{"country_code":"CA","state_code":"BC","province_code":"","name":"Port Alberni","cp":["V9Y"],"lat":"49.2413","lng":"-124.8028"},{"country_code":"CA","state_code":"BC","province_code":"","name":"Sooke","cp":["V9Z"],"lat":"48.3746","lng":"-123.7276"},{"country_code":"CA","state_code":"MB","province_code":"6160992","name":"Lorette","cp":["R5K"],"lat":"49.7392","lng":"-96.8723"},{"country_code":"CA","state_code":"MB","province_code":"","name":"Southeastern Manitoba (Lorette)","cp":["R0A"],"lat":"49.2911","lng":"-96.2985"},{"country_code":"CA","state_code":"MB","province_code":"","name":"Northern Manitoba (Norway House)","cp":["R0B"],"lat":"56.2701","lng":"-96.9118"},{"country_code":"CA","state_code":"MB","province_code":"","name":"North Interlake (Stonewall)","cp":["R0C"],"lat":"51.4132","lng":"-97.8525"},{"country_code":"CA","state_code":"MB","province_code":"","name":"Eastern Manitoba (Beausejour)","cp":["R0E"],"lat":"50.4751","lng":"-95.961"},{"country_code":"CA","state_code":"MB","province_code":"","name":"South Central Manitoba (Altona)","cp":["R0G"],"lat":"49.4394","lng":"-98.0869"},{"country_code":"CA","state_code":"MB","province_code":"","name":"South Interlake (MacGregor)","cp":["R0H"],"lat":"50.3458","lng":"-98.5152"},{"country_code":"CA","state_code":"MB","province_code":"","name":"Riding Mountain (Neepawa)","cp":["R0J"],"lat":"50.5842","lng":"-100.1345"},{"country_code":"CA","state_code":"MB","province_code":"","name":"Brandon Region (Killarney)","cp":["R0K"],"lat":"49.555","lng":"-99.7154"},{"country_code":"CA","state_code":"MB","province_code":"","name":"Western Manitoba (Swan River)","cp":["R0L"],"lat":"52.0092","lng":"-100.2901"},{"country_code":"CA","state_code":"MB","province_code":"","name":"Southwestern Manitoba (Virden)","cp":["R0M"],"lat":"49.711","lng":"-100.9263"},{"country_code":"CA","state_code":"MB","province_code":"","name":"Selkirk","cp":["R1A"],"lat":"50.1436","lng":"-96.8845"},{"country_code":"CA","state_code":"MB","province_code":"","name":"Lockport","cp":["R1B"],"lat":"50.084","lng":"-96.9353"},{"country_code":"CA","state_code":"MB","province_code":"","name":"Narol","cp":["R1C"],"lat":"50.055","lng":"-96.9781"},{"country_code":"CA","state_code":"MB","province_code":"","name":"Portage la Prairie","cp":["R1N"],"lat":"49.9728","lng":"-98.2926"},{"country_code":"CA","state_code":"MB","province_code":"","name":"Winnipeg (Transcona)","cp":["R2C"],"lat":"49.9247","lng":"-96.9563"},{"country_code":"CA","state_code":"MB","province_code":"","name":"East St. Paul","cp":["R2E"],"lat":"49.9791","lng":"-97.0128"},{"country_code":"CA","state_code":"MB","province_code":"","name":"Winnipeg (River East North)","cp":["R2G"],"lat":"49.9413","lng":"-97.0571"},{"country_code":"CA","state_code":"MB","province_code":"","name":"Winnipeg (St. Boniface NW)","cp":["R2H"],"lat":"49.8846","lng":"-97.1186"},{"country_code":"CA","state_code":"MB","province_code":"","name":"Winnipeg (St. Boniface NE)","cp":["R2J"],"lat":"49.8665","lng":"-97.0633"},{"country_code":"CA","state_code":"MB","province_code":"","name":"Winnipeg (River East Central)","cp":["R2K"],"lat":"49.9203","lng":"-97.083"},{"country_code":"CA","state_code":"MB","province_code":"","name":"Winnipeg (River East South)","cp":["R2L"],"lat":"49.9075","lng":"-97.0996"},{"country_code":"CA","state_code":"MB","province_code":"","name":"Winnipeg (St. Vital North)","cp":["R2M"],"lat":"49.8396","lng":"-97.1147"},{"country_code":"CA","state_code":"MB","province_code":"","name":"Winnipeg (St. Vital SW)","cp":["R2N"],"lat":"49.7838","lng":"-97.0973"},{"country_code":"CA","state_code":"MB","province_code":"","name":"Winnipeg (Seven Oaks West)","cp":["R2P"],"lat":"49.9696","lng":"-97.1554"},{"country_code":"CA","state_code":"MB","province_code":"","name":"Winnipeg (Inkster West)","cp":["R2R"],"lat":"49.9377","lng":"-97.2162"},{"country_code":"CA","state_code":"MB","province_code":"","name":"Winnipeg (Seven Oaks East)","cp":["R2V"],"lat":"49.9548","lng":"-97.1112"},{"country_code":"CA","state_code":"MB","province_code":"","name":"Winnipeg (Point Douglas East)","cp":["R2W"],"lat":"49.9195","lng":"-97.1354"},{"country_code":"CA","state_code":"MB","province_code":"","name":"Winnipeg (Point Douglas West \/ Inkster East)","cp":["R2X"],"lat":"49.9322","lng":"-97.1733"},{"country_code":"CA","state_code":"MB","province_code":"","name":"Winnipeg (St. James-Assiniboia NW)","cp":["R2Y"],"lat":"49.9073","lng":"-97.2945"},{"country_code":"CA","state_code":"MB","province_code":"","name":"Winnipeg (Centennial)","cp":["R3A"],"lat":"49.9038","lng":"-97.1489"},{"country_code":"CA","state_code":"MB","province_code":"","name":"Winnipeg (Chinatown \/ Civic Centre \/ Exchange District)","cp":["R3B"],"lat":"49.898","lng":"-97.1401"},{"country_code":"CA","state_code":"MB","province_code":"","name":"Winnipeg (Broadway \/ The Forks \/ Portage and Main) Manitoba Provincial Government","cp":["R3C"],"lat":"50.011","lng":"-97.2184"},{"country_code":"CA","state_code":"MB","province_code":"","name":"Winnipeg (Sargent Park \/ Daniel McIntyre \/ Inkster SE)","cp":["R3E"],"lat":"49.9081","lng":"-97.1779"},{"country_code":"CA","state_code":"MB","province_code":"","name":"Winnipeg (Minto \/ St. Mathews \/ Wolseley)","cp":["R3G"],"lat":"49.8876","lng":"-97.1807"},{"country_code":"CA","state_code":"MB","province_code":"","name":"Winnipeg (St. James-Assiniboia NE \/ YWG)","cp":["R3H"],"lat":"49.9033","lng":"-97.2074"},{"country_code":"CA","state_code":"MB","province_code":"","name":"Winnipeg (St. James-Assiniboia SE)","cp":["R3J"],"lat":"49.8966","lng":"-97.2404"},{"country_code":"CA","state_code":"MB","province_code":"","name":"Winnipeg (St. James-Assiniboia SW)","cp":["R3K"],"lat":"49.8734","lng":"-97.307"},{"country_code":"CA","state_code":"MB","province_code":"","name":"Winnipeg (River Heights East)","cp":["R3L"],"lat":"49.867","lng":"-97.1356"},{"country_code":"CA","state_code":"MB","province_code":"","name":"Winnipeg (River Heights Central)","cp":["R3M"],"lat":"49.8625","lng":"-97.1665"},{"country_code":"CA","state_code":"MB","province_code":"","name":"Winnipeg (River Heights West)","cp":["R3N"],"lat":"49.8629","lng":"-97.1959"},{"country_code":"CA","state_code":"MB","province_code":"","name":"Winnipeg (Fort Garry NW \/ Tuxedo)","cp":["R3P"],"lat":"49.8425","lng":"-97.2182"},{"country_code":"CA","state_code":"MB","province_code":"","name":"Winnipeg (Assiniboine South \/ Betsworth)","cp":["R3R"],"lat":"49.8546","lng":"-97.2874"},{"country_code":"CA","state_code":"MB","province_code":"","name":"Winnipeg (Wilkes South)","cp":["R3S"],"lat":"49.8255","lng":"-97.2934"},{"country_code":"CA","state_code":"MB","province_code":"","name":"Winnipeg (Fort Garry NE \/ University of Manitoba)","cp":["R3T"],"lat":"49.8143","lng":"-97.1531"},{"country_code":"CA","state_code":"MB","province_code":"","name":"Winnipeg (Fort Garry South)","cp":["R3V"],"lat":"49.7462","lng":"-97.1745"},{"country_code":"CA","state_code":"MB","province_code":"","name":"Winnipeg (Grassie \/ Pequis)","cp":["R3W"],"lat":"49.9141","lng":"-97.0401"},{"country_code":"CA","state_code":"MB","province_code":"","name":"Winnipeg (St. Boniface South \/ St. Vital SE)","cp":["R3X"],"lat":"49.8209","lng":"-97.0322"},{"country_code":"CA","state_code":"MB","province_code":"","name":"Winnipeg (Fort Garry West)","cp":["R3Y"],"lat":"49.7885","lng":"-97.2147"},{"country_code":"CA","state_code":"MB","province_code":"","name":"West St. Paul","cp":["R4A"],"lat":"50.0211","lng":"-97.1147"},{"country_code":"CA","state_code":"MB","province_code":"","name":"Oak Bluff","cp":["R4G"],"lat":"49.7736","lng":"-97.3221"},{"country_code":"CA","state_code":"MB","province_code":"","name":"Headingley East","cp":["R4H"],"lat":"49.8761","lng":"-97.3812"},{"country_code":"CA","state_code":"MB","province_code":"","name":"Headingley West","cp":["R4J"],"lat":"49.8467","lng":"-97.4319"},{"country_code":"CA","state_code":"MB","province_code":"","name":"Cartier","cp":["R4K"],"lat":"49.8908","lng":"-97.6004"},{"country_code":"CA","state_code":"MB","province_code":"","name":"St. Francois Xavier","cp":["R4L"],"lat":"49.9372","lng":"-97.5545"},{"country_code":"CA","state_code":"MB","province_code":"","name":"St. Adolphe","cp":["R5A"],"lat":"49.712","lng":"-97.0836"},{"country_code":"CA","state_code":"MB","province_code":"","name":"Steinbach","cp":["R5G"],"lat":"49.5258","lng":"-96.6845"},{"country_code":"CA","state_code":"MB","province_code":"","name":"Ste. Anne","cp":["R5H"],"lat":"49.6697","lng":"-96.65"},{"country_code":"CA","state_code":"MB","province_code":"","name":"Morden","cp":["R6M"],"lat":"49.1919","lng":"-98.1014"},{"country_code":"CA","state_code":"MB","province_code":"","name":"Winkler","cp":["R6W"],"lat":"49.1817","lng":"-97.941"},{"country_code":"CA","state_code":"MB","province_code":"","name":"Brandon Southeast","cp":["R7A"],"lat":"49.8174","lng":"-99.9565"},{"country_code":"CA","state_code":"MB","province_code":"","name":"Brandon Southwest","cp":["R7B"],"lat":"49.842","lng":"-99.9831"},{"country_code":"CA","state_code":"MB","province_code":"","name":"Brandon North","cp":["R7C"],"lat":"49.8817","lng":"-99.965"},{"country_code":"CA","state_code":"MB","province_code":"","name":"Dauphin","cp":["R7N"],"lat":"51.1494","lng":"-100.0502"},{"country_code":"CA","state_code":"MB","province_code":"","name":"Flin Flon","cp":["R8A"],"lat":"54.7682","lng":"-101.865"},{"country_code":"CA","state_code":"MB","province_code":"","name":"Thompson","cp":["R8N"],"lat":"55.7435","lng":"-97.8558"},{"country_code":"CA","state_code":"MB","province_code":"","name":"The Pas","cp":["R9A"],"lat":"53.704","lng":"-101.2933"},{"country_code":"CA","state_code":"NB","province_code":"","name":"Dieppe Moncton East","cp":["E1A"],"lat":"46.0967","lng":"-64.7087"},{"country_code":"CA","state_code":"NB","province_code":"","name":"Riverview","cp":["E1B"],"lat":"46.0545","lng":"-64.816"},{"country_code":"CA","state_code":"NB","province_code":"","name":"Moncton Central","cp":["E1C"],"lat":"46.0987","lng":"-64.8036"},{"country_code":"CA","state_code":"NB","province_code":"","name":"Moncton West","cp":["E1E"],"lat":"46.0771","lng":"-64.8529"},{"country_code":"CA","state_code":"NB","province_code":"","name":"Moncton Northwest","cp":["E1G"],"lat":"46.1797","lng":"-64.9484"},{"country_code":"CA","state_code":"NB","province_code":"","name":"Lakeville, Shediac Bridge","cp":["E1H"],"lat":"46.1732","lng":"-64.6957"},{"country_code":"CA","state_code":"NB","province_code":"","name":"Coverdale","cp":["E1J"],"lat":"45.9976","lng":"-64.8483"},{"country_code":"CA","state_code":"NB","province_code":"","name":"Miramichi South","cp":["E1N"],"lat":"46.9501","lng":"-65.3239"},{"country_code":"CA","state_code":"NB","province_code":"","name":"Miramichi North","cp":["E1V"],"lat":"47.1942","lng":"-65.9381"},{"country_code":"CA","state_code":"NB","province_code":"","name":"Caraquet","cp":["E1W"],"lat":"47.7941","lng":"-64.9386"},{"country_code":"CA","state_code":"NB","province_code":"","name":"Tracadie-Sheila","cp":["E1X"],"lat":"47.5144","lng":"-64.9181"},{"country_code":"CA","state_code":"NB","province_code":"","name":"Bathurst","cp":["E2A"],"lat":"47.6181","lng":"-65.6511"},{"country_code":"CA","state_code":"NB","province_code":"","name":"Rothesay, Quispamsis","cp":["E2E"],"lat":"45.4137","lng":"-65.982"},{"country_code":"CA","state_code":"NB","province_code":"","name":"Quispamsis","cp":["E2G"],"lat":"45.4534","lng":"-65.931"},{"country_code":"CA","state_code":"NB","province_code":"","name":"Saint John Northeast, Renforth","cp":["E2H"],"lat":"45.35","lng":"-66.0101"},{"country_code":"CA","state_code":"NB","province_code":"","name":"Saint John East","cp":["E2J"],"lat":"45.2563","lng":"-65.9432"},{"country_code":"CA","state_code":"NB","province_code":"","name":"Saint John North","cp":["E2K"],"lat":"45.3053","lng":"-66.0808"},{"country_code":"CA","state_code":"NB","province_code":"","name":"Saint John Central","cp":["E2L"],"lat":"45.2717","lng":"-66.0584"},{"country_code":"CA","state_code":"NB","province_code":"","name":"Saint John West","cp":["E2M"],"lat":"45.2347","lng":"-66.1749"},{"country_code":"CA","state_code":"NB","province_code":"","name":"Saint John Lakewood","cp":["E2N"],"lat":"45.3176","lng":"-65.9271"},{"country_code":"CA","state_code":"NB","province_code":"","name":"Saint John Red Head","cp":["E2P"],"lat":"45.2426","lng":"-65.9847"},{"country_code":"CA","state_code":"NB","province_code":"","name":"Saint John Grandview","cp":["E2R"],"lat":"46.0368","lng":"-66.0373"},{"country_code":"CA","state_code":"NB","province_code":"","name":"Saint John Loch Lomond","cp":["E2S"],"lat":"45.3371","lng":"-65.8133"},{"country_code":"CA","state_code":"NB","province_code":"","name":"Oromocto","cp":["E2V"],"lat":"45.8351","lng":"-66.4792"},{"country_code":"CA","state_code":"NB","province_code":"","name":"Fredericton North","cp":["E3A"],"lat":"46.0401","lng":"-66.3862"},{"country_code":"CA","state_code":"NB","province_code":"","name":"Fredericton South New Brunswick Provincial Government","cp":["E3B"],"lat":"45.8119","lng":"-66.6763"},{"country_code":"CA","state_code":"NB","province_code":"","name":"Fredericton Southwest, New Maryland","cp":["E3C"],"lat":"45.902","lng":"-66.7057"},{"country_code":"CA","state_code":"NB","province_code":"","name":"Kingsclear","cp":["E3E"],"lat":"45.8834","lng":"-66.9156"},{"country_code":"CA","state_code":"NB","province_code":"","name":"Fredericton","cp":["E3G"],"lat":"46.0546","lng":"-66.7344"},{"country_code":"CA","state_code":"NB","province_code":"","name":"St. Stephen","cp":["E3L"],"lat":"45.1804","lng":"-67.2953"},{"country_code":"CA","state_code":"NB","province_code":"","name":"Campbellton","cp":["E3N"],"lat":"48.0075","lng":"-66.6727"},{"country_code":"CA","state_code":"NB","province_code":"","name":"Edmundston","cp":["E3V"],"lat":"47.3737","lng":"-68.3251"},{"country_code":"CA","state_code":"NB","province_code":"","name":"Grand Falls Northeast","cp":["E3Y"],"lat":"47.1683","lng":"-67.6207"},{"country_code":"CA","state_code":"NB","province_code":"","name":"Grand Falls Central","cp":["E3Z"],"lat":"46.9266","lng":"-67.7466"},{"country_code":"CA","state_code":"NB","province_code":"","name":"Bathurst","cp":["E4A"],"lat":"46.1599","lng":"-65.8102"},{"country_code":"CA","state_code":"NB","province_code":"","name":"Minto","cp":["E4B"],"lat":"46.0848","lng":"-66.0622"},{"country_code":"CA","state_code":"NB","province_code":"","name":"Youngs Cove","cp":["E4C"],"lat":"45.8693","lng":"-65.9006"},{"country_code":"CA","state_code":"NB","province_code":"","name":"Sussex","cp":["E4E"],"lat":"45.7227","lng":"-65.5066"},{"country_code":"CA","state_code":"NB","province_code":"","name":"Smiths Creek","cp":["E4G"],"lat":"45.8552","lng":"-65.4795"},{"country_code":"CA","state_code":"NB","province_code":"","name":"Hillsborough","cp":["E4H"],"lat":"45.9199","lng":"-64.6552"},{"country_code":"CA","state_code":"NB","province_code":"","name":"Salisbury","cp":["E4J"],"lat":"46.0391","lng":"-65.0463"},{"country_code":"CA","state_code":"NB","province_code":"","name":"Dorchester","cp":["E4K"],"lat":"45.9016","lng":"-64.508"},{"country_code":"CA","state_code":"NB","province_code":"","name":"Sackville","cp":["E4L"],"lat":"45.9188","lng":"-64.3845"},{"country_code":"CA","state_code":"NB","province_code":"","name":"Bayfield","cp":["E4M"],"lat":"46.0919","lng":"-64.0173"},{"country_code":"CA","state_code":"NB","province_code":"","name":"Cap-Pel\u00e9","cp":["E4N"],"lat":"46.2129","lng":"-64.2784"},{"country_code":"CA","state_code":"NB","province_code":"","name":"Shediac","cp":["E4P"],"lat":"46.2198","lng":"-64.5411"},{"country_code":"CA","state_code":"NB","province_code":"","name":"Cocagne","cp":["E4R"],"lat":"46.3324","lng":"-64.6187"},{"country_code":"CA","state_code":"NB","province_code":"","name":"Bouctouche","cp":["E4S"],"lat":"46.4684","lng":"-64.739"},{"country_code":"CA","state_code":"NB","province_code":"","name":"Bass River","cp":["E4T"],"lat":"46.3042","lng":"-64.972"},{"country_code":"CA","state_code":"NB","province_code":"","name":"Saint-Antoine","cp":["E4V"],"lat":"46.3629","lng":"-64.7499"},{"country_code":"CA","state_code":"NB","province_code":"","name":"Richibucto","cp":["E4W"],"lat":"46.6807","lng":"-64.8804"},{"country_code":"CA","state_code":"NB","province_code":"","name":"St-Louis-de-Kent","cp":["E4X"],"lat":"46.7401","lng":"-64.9698"},{"country_code":"CA","state_code":"NB","province_code":"","name":"Rogersville","cp":["E4Y"],"lat":"46.7345","lng":"-65.427"},{"country_code":"CA","state_code":"NB","province_code":"","name":"Petitcodiac","cp":["E4Z"],"lat":"45.9394","lng":"-65.1802"},{"country_code":"CA","state_code":"NB","province_code":"","name":"Moores Mills","cp":["E5A"],"lat":"45.3705","lng":"-67.1737"},{"country_code":"CA","state_code":"NB","province_code":"","name":"St. Andrews","cp":["E5B"],"lat":"45.0845","lng":"-67.0617"},{"country_code":"CA","state_code":"NB","province_code":"","name":"St. George","cp":["E5C"],"lat":"45.1265","lng":"-66.8314"},{"country_code":"CA","state_code":"NB","province_code":"","name":"Campobello Island","cp":["E5E"],"lat":"44.8908","lng":"-66.9318"},{"country_code":"CA","state_code":"NB","province_code":"","name":"Grand Manan Island","cp":["E5G"],"lat":"44.6976","lng":"-66.8065"},{"country_code":"CA","state_code":"NB","province_code":"","name":"Pennfield","cp":["E5H"],"lat":"45.1168","lng":"-66.6822"},{"country_code":"CA","state_code":"NB","province_code":"","name":"Lepreau","cp":["E5J"],"lat":"45.1979","lng":"-66.4308"},{"country_code":"CA","state_code":"NB","province_code":"","name":"Grand Bay-Westfield","cp":["E5K"],"lat":"45.3407","lng":"-66.2528"},{"country_code":"CA","state_code":"NB","province_code":"","name":"Fredericton Junction","cp":["E5L"],"lat":"45.6604","lng":"-66.6139"},{"country_code":"CA","state_code":"NB","province_code":"","name":"Gagetown","cp":["E5M"],"lat":"45.7701","lng":"-66.1617"},{"country_code":"CA","state_code":"NB","province_code":"","name":"Hampton","cp":["E5N"],"lat":"45.5288","lng":"-65.8535"},{"country_code":"CA","state_code":"NB","province_code":"","name":"Apohaqui","cp":["E5P"],"lat":"45.7599","lng":"-65.6704"},{"country_code":"CA","state_code":"NB","province_code":"","name":"St. Martins","cp":["E5R"],"lat":"45.351","lng":"-65.5457"},{"country_code":"CA","state_code":"NB","province_code":"","name":"Kingston","cp":["E5S"],"lat":"45.4098","lng":"-66.0932"},{"country_code":"CA","state_code":"NB","province_code":"","name":"Norton","cp":["E5T"],"lat":"45.6508","lng":"-65.7302"},{"country_code":"CA","state_code":"NB","province_code":"","name":"Deer Island","cp":["E5V"],"lat":"44.9862","lng":"-66.9694"},{"country_code":"CA","state_code":"NB","province_code":"","name":"Boiestown","cp":["E6A"],"lat":"46.4558","lng":"-66.4198"},{"country_code":"CA","state_code":"NB","province_code":"","name":"Stanley","cp":["E6B"],"lat":"46.3381","lng":"-66.9058"},{"country_code":"CA","state_code":"NB","province_code":"","name":"Durham Bridge","cp":["E6C"],"lat":"46.1168","lng":"-66.5989"},{"country_code":"CA","state_code":"NB","province_code":"","name":"Millville","cp":["E6E"],"lat":"46.1307","lng":"-67.1962"},{"country_code":"CA","state_code":"NB","province_code":"","name":"Nackawic","cp":["E6G"],"lat":"45.9967","lng":"-67.2403"},{"country_code":"CA","state_code":"NB","province_code":"","name":"Canterbury","cp":["E6H"],"lat":"45.8954","lng":"-67.4678"},{"country_code":"CA","state_code":"NB","province_code":"","name":"McAdam","cp":["E6J"],"lat":"45.5923","lng":"-67.307"},{"country_code":"CA","state_code":"NB","province_code":"","name":"Harvey","cp":["E6K"],"lat":"45.729","lng":"-67.0064"},{"country_code":"CA","state_code":"NB","province_code":"","name":"Burtts Corner","cp":["E6L"],"lat":"45.9881","lng":"-67.0338"},{"country_code":"CA","state_code":"NB","province_code":"","name":"Baker Brook","cp":["E7A"],"lat":"47.3","lng":"-68.7487"},{"country_code":"CA","state_code":"NB","province_code":"","name":"Saint-Jacques","cp":["E7B"],"lat":"47.5655","lng":"-68.3127"},{"country_code":"CA","state_code":"NB","province_code":"","name":"Saint-Basile","cp":["E7C"],"lat":"47.6583","lng":"-68.0684"},{"country_code":"CA","state_code":"NB","province_code":"","name":"Saint-Leonard","cp":["E7E"],"lat":"47.173","lng":"-67.9247"},{"country_code":"CA","state_code":"NB","province_code":"","name":"Plaster Rock","cp":["E7G"],"lat":"46.9065","lng":"-67.39"},{"country_code":"CA","state_code":"NB","province_code":"","name":"Perth-Andover","cp":["E7H"],"lat":"46.7355","lng":"-67.7039"},{"country_code":"CA","state_code":"NB","province_code":"","name":"Bath","cp":["E7J"],"lat":"46.5807","lng":"-67.5911"},{"country_code":"CA","state_code":"NB","province_code":"","name":"Centreville","cp":["E7K"],"lat":"46.3982","lng":"-67.7174"},{"country_code":"CA","state_code":"NB","province_code":"","name":"Florenceville","cp":["E7L"],"lat":"46.5528","lng":"-67.305"},{"country_code":"CA","state_code":"NB","province_code":"","name":"Woodstock","cp":["E7M"],"lat":"46.158","lng":"-67.5838"},{"country_code":"CA","state_code":"NB","province_code":"","name":"Debec","cp":["E7N"],"lat":"46.0555","lng":"-67.5839"},{"country_code":"CA","state_code":"NB","province_code":"","name":"Hartland","cp":["E7P"],"lat":"46.2999","lng":"-67.5167"},{"country_code":"CA","state_code":"NB","province_code":"","name":"Saint-Quentin","cp":["E8A"],"lat":"47.5133","lng":"-67.3929"},{"country_code":"CA","state_code":"NB","province_code":"","name":"Kedgwick","cp":["E8B"],"lat":"47.6446","lng":"-67.3434"},{"country_code":"CA","state_code":"NB","province_code":"","name":"Dalhousie","cp":["E8C"],"lat":"48.055","lng":"-66.3847"},{"country_code":"CA","state_code":"NB","province_code":"","name":"Balmoral","cp":["E8E"],"lat":"47.679","lng":"-66.4342"},{"country_code":"CA","state_code":"NB","province_code":"","name":"Belledune","cp":["E8G"],"lat":"47.8023","lng":"-66.1243"},{"country_code":"CA","state_code":"NB","province_code":"","name":"Petit-Rocher","cp":["E8J"],"lat":"47.7941","lng":"-65.8219"},{"country_code":"CA","state_code":"NB","province_code":"","name":"Beresford","cp":["E8K"],"lat":"47.6913","lng":"-65.6989"},{"country_code":"CA","state_code":"NB","province_code":"","name":"Allardville","cp":["E8L"],"lat":"47.475","lng":"-65.495"},{"country_code":"CA","state_code":"NB","province_code":"","name":"Saint-Isidore","cp":["E8M"],"lat":"47.5765","lng":"-65.1379"},{"country_code":"CA","state_code":"NB","province_code":"","name":"Grande-Anse","cp":["E8N"],"lat":"47.8078","lng":"-65.1945"},{"country_code":"CA","state_code":"NB","province_code":"","name":"Inkerman","cp":["E8P"],"lat":"47.6672","lng":"-64.8248"},{"country_code":"CA","state_code":"NB","province_code":"","name":"Paquetville","cp":["E8R"],"lat":"47.6383","lng":"-65.1709"},{"country_code":"CA","state_code":"NB","province_code":"","name":"Shippagan","cp":["E8S"],"lat":"47.7287","lng":"-64.7247"},{"country_code":"CA","state_code":"NB","province_code":"","name":"Lam\u00e8que","cp":["E8T"],"lat":"47.7936","lng":"-64.6475"},{"country_code":"CA","state_code":"NB","province_code":"","name":"Baie-Sainte-Anne","cp":["E9A"],"lat":"47.0188","lng":"-64.92"},{"country_code":"CA","state_code":"NB","province_code":"","name":"Blackville","cp":["E9B"],"lat":"46.7398","lng":"-65.8319"},{"country_code":"CA","state_code":"NB","province_code":"","name":"Doaktown","cp":["E9C"],"lat":"46.557","lng":"-66.1257"},{"country_code":"CA","state_code":"NB","province_code":"","name":"Red Bank","cp":["E9E"],"lat":"46.8486","lng":"-65.6772"},{"country_code":"CA","state_code":"NB","province_code":"","name":"Neguac","cp":["E9G"],"lat":"47.2489","lng":"-65.0741"},{"country_code":"CA","state_code":"NB","province_code":"","name":"Brantville","cp":["E9H"],"lat":"47.3528","lng":"-65.0538"},{"country_code":"CA","state_code":"NL","province_code":"","name":"Southeastern Avalon Peninsula (Ferryland)","cp":["A0A"],"lat":"47.2195","lng":"-53.1448"},{"country_code":"CA","state_code":"NL","province_code":"","name":"Western Avalon Peninsula (Argentia)","cp":["A0B"],"lat":"47.327","lng":"-53.6609"},{"country_code":"CA","state_code":"NL","province_code":"","name":"Bonavista Peninsula (Bonavista)","cp":["A0C"],"lat":"48.3843","lng":"-53.9081"},{"country_code":"CA","state_code":"NL","province_code":"","name":"Burin Peninsula (Marystown)","cp":["A0E"],"lat":"47.5607","lng":"-54.7801"},{"country_code":"CA","state_code":"NL","province_code":"","name":"Northeast Newfoundland (Lewisporte)","cp":["A0G"],"lat":"48.8657","lng":"-54.7296"},{"country_code":"CA","state_code":"NL","province_code":"","name":"Central Newfoundland (Bishops Falls)","cp":["A0H"],"lat":"48.4311","lng":"-56.1758"},{"country_code":"CA","state_code":"NL","province_code":"","name":"Northern Newfoundland (Springdale)","cp":["A0J"],"lat":"49.5067","lng":"-56.2616"},{"country_code":"CA","state_code":"NL","province_code":"","name":"Northwest Newfoundland\/Eastern Labrador (Mary's Harbour)","cp":["A0K"],"lat":"52.7359","lng":"-57.9825"},{"country_code":"CA","state_code":"NL","province_code":"","name":"Western Newfoundland (Lark Harbour)","cp":["A0L"],"lat":"48.9445","lng":"-58.0645"},{"country_code":"CA","state_code":"NL","province_code":"","name":"Southwestern Newfoundland (Channel-Port aux Basques)","cp":["A0M"],"lat":"47.8037","lng":"-58.3869"},{"country_code":"CA","state_code":"NL","province_code":"","name":"Port au Port Peninsula region (St. George's)","cp":["A0N"],"lat":"48.0868","lng":"-57.8231"},{"country_code":"CA","state_code":"NL","province_code":"","name":"Central Labrador (Happy Valley-Goose Bay)","cp":["A0P"],"lat":"54.9549","lng":"-61.6024"},{"country_code":"CA","state_code":"NL","province_code":"","name":"North\/Western Labrador (Churchill Falls)","cp":["A0R"],"lat":"53.54","lng":"-65.112"},{"country_code":"CA","state_code":"NL","province_code":"","name":"St. John's North","cp":["A1A"],"lat":"47.5986","lng":"-52.6926"},{"country_code":"CA","state_code":"NL","province_code":"","name":"St. John's Northwest Newfoundland & Labrador Provincial Government","cp":["A1B"],"lat":"47.5698","lng":"-52.7796"},{"country_code":"CA","state_code":"NL","province_code":"","name":"St. John's North Central","cp":["A1C"],"lat":"47.5124","lng":"-52.6729"},{"country_code":"CA","state_code":"NL","province_code":"","name":"St. John's Central","cp":["A1E"],"lat":"47.5334","lng":"-52.7595"},{"country_code":"CA","state_code":"NL","province_code":"","name":"St. John's South","cp":["A1G"],"lat":"47.506","lng":"-52.7603"},{"country_code":"CA","state_code":"NL","province_code":"","name":"St. John's Southwest","cp":["A1H"],"lat":"47.483","lng":"-52.8415"},{"country_code":"CA","state_code":"NL","province_code":"","name":"Torbay","cp":["A1K"],"lat":"47.6666","lng":"-52.7313"},{"country_code":"CA","state_code":"NL","province_code":"","name":"Paradise","cp":["A1L"],"lat":"47.5291","lng":"-52.8814"},{"country_code":"CA","state_code":"NL","province_code":"","name":"Portugal Cove-St. Philips","cp":["A1M"],"lat":"47.6207","lng":"-52.8318"},{"country_code":"CA","state_code":"NL","province_code":"","name":"Mount Pearl","cp":["A1N"],"lat":"47.5194","lng":"-52.8122"},{"country_code":"CA","state_code":"NL","province_code":"","name":"Goulds","cp":["A1S"],"lat":"47.4212","lng":"-52.8077"},{"country_code":"CA","state_code":"NL","province_code":"","name":"Gander","cp":["A1V"],"lat":"48.9682","lng":"-54.5906"},{"country_code":"CA","state_code":"NL","province_code":"","name":"Manuels","cp":["A1W"],"lat":"47.5096","lng":"-52.9447"},{"country_code":"CA","state_code":"NL","province_code":"","name":"Conception Bay","cp":["A1X"],"lat":"47.4999","lng":"-52.9981"},{"country_code":"CA","state_code":"NL","province_code":"","name":"Carbonear","cp":["A1Y"],"lat":"47.7113","lng":"-53.2953"},{"country_code":"CA","state_code":"NL","province_code":"","name":"Grand Falls","cp":["A2A"],"lat":"48.9332","lng":"-55.6649"},{"country_code":"CA","state_code":"NL","province_code":"","name":"Windsor","cp":["A2B"],"lat":"48.9499","lng":"-55.6649"},{"country_code":"CA","state_code":"NL","province_code":"","name":"Corner Brook","cp":["A2H"],"lat":"48.9156","lng":"-57.797"},{"country_code":"CA","state_code":"NL","province_code":"","name":"Stephenville","cp":["A2N"],"lat":"48.55","lng":"-58.5818"},{"country_code":"CA","state_code":"NL","province_code":"","name":"Labrador City","cp":["A2V"],"lat":"52.9517","lng":"-66.9328"},{"country_code":"CA","state_code":"NL","province_code":"","name":"Clarenville","cp":["A5A"],"lat":"48.1666","lng":"-53.9648"},{"country_code":"CA","state_code":"NL","province_code":"","name":"Deer Lake","cp":["A8A"],"lat":"49.1667","lng":"-57.4316"},{"country_code":"CA","state_code":"NS","province_code":"","name":"North Victoria County (Dingwall)","cp":["B0C"],"lat":"46.6482","lng":"-60.5396"},{"country_code":"CA","state_code":"NS","province_code":"","name":"West Cape Breton Island (Baddeck)","cp":["B0E"],"lat":"46.1133","lng":"-61.0251"},{"country_code":"CA","state_code":"NS","province_code":"","name":"Canso region (Havre Boucher)","cp":["B0H"],"lat":"45.3335","lng":"-61.8333"},{"country_code":"CA","state_code":"NS","province_code":"","name":"Mainland east shore (Lunenburg)","cp":["B0J"],"lat":"44.9419","lng":"-62.6471"},{"country_code":"CA","state_code":"NS","province_code":"","name":"Southern Northumberland Strait (Pictou)","cp":["B0K"],"lat":"45.6138","lng":"-62.9506"},{"country_code":"CA","state_code":"NS","province_code":"","name":"Isthmus of Chignecto (River H\u00e9bert)","cp":["B0L"],"lat":"45.6908","lng":"-64.3641"},{"country_code":"CA","state_code":"NS","province_code":"","name":"Cobequid Bay north shore (Springhill)","cp":["B0M"],"lat":"45.5354","lng":"-64.0393"},{"country_code":"CA","state_code":"NS","province_code":"","name":"Hants County (Shubenacadie)","cp":["B0N"],"lat":"45.0963","lng":"-63.4701"},{"country_code":"CA","state_code":"NS","province_code":"","name":"Kings County (Kingston)","cp":["B0P"],"lat":"45.0328","lng":"-64.6566"},{"country_code":"CA","state_code":"NS","province_code":"","name":"West Lunenburg County (New Germany)","cp":["B0R"],"lat":"44.6003","lng":"-64.7443"},{"country_code":"CA","state_code":"NS","province_code":"","name":"West Annapolis County (Middleton)","cp":["B0S"],"lat":"44.6861","lng":"-65.3002"},{"country_code":"CA","state_code":"NS","province_code":"","name":"Queens County (Shelburne)","cp":["B0T"],"lat":"44.0802","lng":"-65.1175"},{"country_code":"CA","state_code":"NS","province_code":"","name":"Digby Neck (Digby)","cp":["B0V"],"lat":"44.5342","lng":"-65.7783"},{"country_code":"CA","state_code":"NS","province_code":"","name":"Southwest Mainland (Weymouth)","cp":["B0W"],"lat":"44.0486","lng":"-65.7547"},{"country_code":"CA","state_code":"NS","province_code":"","name":"Glace Bay","cp":["B1A"],"lat":"46.197","lng":"-59.957"},{"country_code":"CA","state_code":"NS","province_code":"","name":"Port Morien","cp":["B1B"],"lat":"46.1174","lng":"-59.9144"},{"country_code":"CA","state_code":"NS","province_code":"","name":"Louisbourg","cp":["B1C"],"lat":"45.9485","lng":"-59.9737"},{"country_code":"CA","state_code":"NS","province_code":"","name":"Reserve Mines","cp":["B1E"],"lat":"46.1845","lng":"-60.0166"},{"country_code":"CA","state_code":"NS","province_code":"","name":"Dominion","cp":["B1G"],"lat":"46.2168","lng":"-60.0151"},{"country_code":"CA","state_code":"NS","province_code":"","name":"New Waterford","cp":["B1H"],"lat":"46.2501","lng":"-60.0817"},{"country_code":"CA","state_code":"NS","province_code":"","name":"East Bay","cp":["B1J"],"lat":"45.9834","lng":"-60.3652"},{"country_code":"CA","state_code":"NS","province_code":"","name":"Marion Bridge","cp":["B1K"],"lat":"45.9668","lng":"-60.2318"},{"country_code":"CA","state_code":"NS","province_code":"","name":"Sydney Southwest","cp":["B1L"],"lat":"46.0627","lng":"-60.2045"},{"country_code":"CA","state_code":"NS","province_code":"","name":"Sydney East","cp":["B1M"],"lat":"46.127","lng":"-60.0696"},{"country_code":"CA","state_code":"NS","province_code":"","name":"Sydney North","cp":["B1N"],"lat":"46.1975","lng":"-60.1559"},{"country_code":"CA","state_code":"NS","province_code":"","name":"Sydney North Central","cp":["B1P"],"lat":"46.1341","lng":"-60.1749"},{"country_code":"CA","state_code":"NS","province_code":"","name":"Sydney West","cp":["B1R"],"lat":"46.1284","lng":"-60.2915"},{"country_code":"CA","state_code":"NS","province_code":"","name":"Sydney Central","cp":["B1S"],"lat":"46.1109","lng":"-60.2092"},{"country_code":"CA","state_code":"NS","province_code":"","name":"Christmas Island","cp":["B1T"],"lat":"45.9668","lng":"-60.7152"},{"country_code":"CA","state_code":"NS","province_code":"","name":"North Sydney North","cp":["B1V"],"lat":"46.2437","lng":"-60.2313"},{"country_code":"CA","state_code":"NS","province_code":"","name":"Eskasoni","cp":["B1W"],"lat":"45.9328","lng":"-60.6438"},{"country_code":"CA","state_code":"NS","province_code":"","name":"Big Bras d'Or","cp":["B1X"],"lat":"46.2904","lng":"-60.47"},{"country_code":"CA","state_code":"NS","province_code":"","name":"Alder Point","cp":["B1Y"],"lat":"46.2538","lng":"-60.3566"},{"country_code":"CA","state_code":"NS","province_code":"","name":"North Sydney South Central","cp":["B2A"],"lat":"46.1169","lng":"-60.3769"},{"country_code":"CA","state_code":"NS","province_code":"","name":"Iona","cp":["B2C"],"lat":"45.9948","lng":"-60.8421"},{"country_code":"CA","state_code":"NS","province_code":"","name":"Loch Lomond","cp":["B2E"],"lat":"45.7501","lng":"-60.6152"},{"country_code":"CA","state_code":"NS","province_code":"","name":"Antigonish","cp":["B2G"],"lat":"45.6168","lng":"-61.9986"},{"country_code":"CA","state_code":"NS","province_code":"","name":"New Glasgow","cp":["B2H"],"lat":"45.5834","lng":"-62.6486"},{"country_code":"CA","state_code":"NS","province_code":"","name":"Fourchu","cp":["B2J"],"lat":"45.707","lng":"-60.4665"},{"country_code":"CA","state_code":"NS","province_code":"","name":"Truro","cp":["B2N"],"lat":"45.3668","lng":"-63.2654"},{"country_code":"CA","state_code":"NS","province_code":"","name":"Waverley","cp":["B2R"],"lat":"44.7599","lng":"-63.5525"},{"country_code":"CA","state_code":"NS","province_code":"","name":"Lantz","cp":["B2S"],"lat":"45.0209","lng":"-63.5344"},{"country_code":"CA","state_code":"NS","province_code":"","name":"Enfield","cp":["B2T"],"lat":"44.8749","lng":"-63.4689"},{"country_code":"CA","state_code":"NS","province_code":"","name":"Dartmouth Morris Lake","cp":["B2V"],"lat":"44.6529","lng":"-63.4777"},{"country_code":"CA","state_code":"NS","province_code":"","name":"Dartmouth East Central","cp":["B2W"],"lat":"44.6752","lng":"-63.5077"},{"country_code":"CA","state_code":"NS","province_code":"","name":"Dartmouth North Central","cp":["B2X"],"lat":"44.702","lng":"-63.533"},{"country_code":"CA","state_code":"NS","province_code":"","name":"Dartmouth South Central","cp":["B2Y"],"lat":"44.6645","lng":"-63.5453"},{"country_code":"CA","state_code":"NS","province_code":"","name":"Dartmouth East","cp":["B2Z"],"lat":"44.7227","lng":"-63.4223"},{"country_code":"CA","state_code":"NS","province_code":"","name":"Dartmouth Southwest","cp":["B3A"],"lat":"44.6819","lng":"-63.5768"},{"country_code":"CA","state_code":"NS","province_code":"","name":"Dartmouth Northwest","cp":["B3B"],"lat":"44.7091","lng":"-63.5869"},{"country_code":"CA","state_code":"NS","province_code":"","name":"Porters Lake","cp":["B3E"],"lat":"44.7722","lng":"-63.3361"},{"country_code":"CA","state_code":"NS","province_code":"","name":"Eastern Passage","cp":["B3G"],"lat":"44.6169","lng":"-63.482"},{"country_code":"CA","state_code":"NS","province_code":"","name":"Halifax Lower Harbour","cp":["B3H"],"lat":"44.6344","lng":"-63.5822"},{"country_code":"CA","state_code":"NS","province_code":"","name":"Halifax Mid-Harbour Nova Scotia Provincial Government","cp":["B3J"],"lat":"44.6451","lng":"-63.5762"},{"country_code":"CA","state_code":"NS","province_code":"","name":"Halifax Upper Harbour","cp":["B3K"],"lat":"44.662","lng":"-63.6017"},{"country_code":"CA","state_code":"NS","province_code":"","name":"Halifax Central","cp":["B3L"],"lat":"44.6508","lng":"-63.6146"},{"country_code":"CA","state_code":"NS","province_code":"","name":"Halifax Bedford Basin","cp":["B3M"],"lat":"44.6784","lng":"-63.6582"},{"country_code":"CA","state_code":"NS","province_code":"","name":"Halifax South Central","cp":["B3N"],"lat":"44.631","lng":"-63.6405"},{"country_code":"CA","state_code":"NS","province_code":"","name":"Halifax North West Arm","cp":["B3P"],"lat":"44.6139","lng":"-63.5946"},{"country_code":"CA","state_code":"NS","province_code":"","name":"Halifax South","cp":["B3R"],"lat":"44.5939","lng":"-63.6031"},{"country_code":"CA","state_code":"NS","province_code":"","name":"Halifax West","cp":["B3S"],"lat":"44.6533","lng":"-63.6675"},{"country_code":"CA","state_code":"NS","province_code":"","name":"Lakeside","cp":["B3T"],"lat":"44.5683","lng":"-63.7306"},{"country_code":"CA","state_code":"NS","province_code":"","name":"Harrietsfield","cp":["B3V"],"lat":"44.5199","lng":"-63.6064"},{"country_code":"CA","state_code":"NS","province_code":"","name":"Tantallon","cp":["B3Z"],"lat":"44.6386","lng":"-63.8687"},{"country_code":"CA","state_code":"NS","province_code":"","name":"Bedford Southeast","cp":["B4A"],"lat":"44.7232","lng":"-63.656"},{"country_code":"CA","state_code":"NS","province_code":"","name":"Bedford Northwest","cp":["B4B"],"lat":"44.7509","lng":"-63.7711"},{"country_code":"CA","state_code":"NS","province_code":"","name":"Lower Sackville South","cp":["B4C"],"lat":"44.7607","lng":"-63.637"},{"country_code":"CA","state_code":"NS","province_code":"","name":"Lower Sackville West","cp":["B4E"],"lat":"44.8163","lng":"-63.7387"},{"country_code":"CA","state_code":"NS","province_code":"","name":"Lower Sackville North","cp":["B4G"],"lat":"44.8814","lng":"-63.6798"},{"country_code":"CA","state_code":"NS","province_code":"","name":"Amherst","cp":["B4H"],"lat":"45.8335","lng":"-64.1987"},{"country_code":"CA","state_code":"NS","province_code":"","name":"Kentville","cp":["B4N"],"lat":"45.0834","lng":"-64.4988"},{"country_code":"CA","state_code":"NS","province_code":"","name":"Wolfville","cp":["B4P"],"lat":"45.0834","lng":"-64.3655"},{"country_code":"CA","state_code":"NS","province_code":"","name":"Coldbrook","cp":["B4R"],"lat":"45.0668","lng":"-64.5821"},{"country_code":"CA","state_code":"NS","province_code":"","name":"Bridgewater","cp":["B4V"],"lat":"44.3835","lng":"-64.5155"},{"country_code":"CA","state_code":"NS","province_code":"","name":"Yarmouth","cp":["B5A"],"lat":"43.8335","lng":"-66.1156"},{"country_code":"CA","state_code":"NS","province_code":"","name":"Truro","cp":["B6L"],"lat":"45.4093","lng":"-63.2114"},{"country_code":"CA","state_code":"NS","province_code":"","name":"Port Hawkesbury","cp":["B9A"],"lat":"45.6168","lng":"-61.3485"},{"country_code":"CA","state_code":"NT","province_code":"","name":"Central Northwest Territories (Inuvik)","cp":["X0E"],"lat":"66.8714","lng":"-120.225"},{"country_code":"CA","state_code":"NT","province_code":"","name":"Southwestern Northwest Territories (Fort Liard)","cp":["X0G"],"lat":"60.2563","lng":"-123.3826"},{"country_code":"CA","state_code":"NT","province_code":"","name":"Yellowknife","cp":["X1A"],"lat":"62.456","lng":"-114.3525"},{"country_code":"CA","state_code":"NU","province_code":"","name":"Outer Nunavut (Iqaluit)","cp":["X0A"],"lat":"79.6218","lng":"-76.7765"},{"country_code":"CA","state_code":"NU","province_code":"","name":"Central Nunavut (Cambridge Bay)","cp":["X0B"],"lat":"70.9072","lng":"-106.9604"},{"country_code":"CA","state_code":"NU","province_code":"","name":"Inner Nunavut (Rankin Inlet)","cp":["X0C"],"lat":"64.1647","lng":"-94.7724"},{"country_code":"CA","state_code":"ON","province_code":"5883638","name":"Algoma Southwest (Blind River)","cp":["P0R"],"lat":"46.5984","lng":"-83.0385"},{"country_code":"CA","state_code":"ON","province_code":"5907982","name":"Brantford Northeast","cp":["N3P"],"lat":"43.1818","lng":"-80.2367"},{"country_code":"CA","state_code":"ON","province_code":"5907982","name":"Brantford Central","cp":["N3R"],"lat":"43.1692","lng":"-80.2684"},{"country_code":"CA","state_code":"ON","province_code":"5907982","name":"Brantford Southeast","cp":["N3S"],"lat":"43.1394","lng":"-80.2357"},{"country_code":"CA","state_code":"ON","province_code":"5907982","name":"Brantford Southwest","cp":["N3T"],"lat":"43.131","lng":"-80.3254"},{"country_code":"CA","state_code":"ON","province_code":"5907982","name":"Brantford Northwest","cp":["N3V"],"lat":"43.1734","lng":"-80.298"},{"country_code":"CA","state_code":"ON","province_code":"5943542","name":"Dufferin County (Shelburne)","cp":["L0N"],"lat":"44.0317","lng":"-80.2068"},{"country_code":"CA","state_code":"ON","province_code":"5958506","name":"Frontenac County, Addington County, Loyalist Shores and Southwest Leeds (Inverary)","cp":["K0H"],"lat":"44.7208","lng":"-76.8334"},{"country_code":"CA","state_code":"ON","province_code":"5969719","name":"Halton Regional Municipality (Campbellville)","cp":["L0P"],"lat":"43.4906","lng":"-79.9998"},{"country_code":"CA","state_code":"ON","province_code":"5969719","name":"Milton","cp":["L9E"],"lat":"43.5168","lng":"-79.8829"},{"country_code":"CA","state_code":"ON","province_code":"5969784","name":"Hamilton (Confederation Park \/ Nashdale \/ East Kentley \/ Riverdale \/ Lakely \/ Grayside \/ North Stoney Creek)","cp":["L8E"],"lat":"43.2245","lng":"-79.6988"},{"country_code":"CA","state_code":"ON","province_code":"5969784","name":"Hamilton (Greenford \/ North Gershome \/ West Stoney Creek)","cp":["L8G"],"lat":"43.2164","lng":"-79.7423"},{"country_code":"CA","state_code":"ON","province_code":"5969784","name":"Hamilton (West Kentley \/ McQuesten \/ Parkview \/ Hamilton Beach \/ East Industrial Sector \/ Normanhurst \/ Homeside \/ East Crown Point)","cp":["L8H"],"lat":"43.2596","lng":"-79.7925"},{"country_code":"CA","state_code":"ON","province_code":"5969784","name":"Hamilton (East Albion Falls \/ South Stoney Creek)","cp":["L8J"],"lat":"43.1836","lng":"-79.721"},{"country_code":"CA","state_code":"ON","province_code":"5969784","name":"Hamilton (East Delta \/ Bartonville \/ Glenview \/ Rosedale \/ Lower King's Forest \/ Red Hill \/ Corman \/ Vincent \/ South Gershome)","cp":["L8K"],"lat":"43.2211","lng":"-79.7994"},{"country_code":"CA","state_code":"ON","province_code":"5969784","name":"Hamilton (West Industrial Sector \/ West Crown Point \/ North Stipley \/ North Gibson \/ Landsdale \/ Keith \/ North End \/ Beasley)","cp":["L8L"],"lat":"43.2783","lng":"-79.8344"},{"country_code":"CA","state_code":"ON","province_code":"5969784","name":"Hamilton (West Delta \/ Blakeley \/ South Stipley \/ South Gibson \/ St. Clair)","cp":["L8M"],"lat":"43.2441","lng":"-79.8359"},{"country_code":"CA","state_code":"ON","province_code":"5969784","name":"Hamilton (Stinson \/ Corktown)","cp":["L8N"],"lat":"43.4017","lng":"-80.017"},{"country_code":"CA","state_code":"ON","province_code":"5969784","name":"Hamilton (Durand \/ Kirkendall \/ Chedoke Park)","cp":["L8P"],"lat":"43.2514","lng":"-79.8925"},{"country_code":"CA","state_code":"ON","province_code":"5969784","name":"Hamilton (Central \/ Strathcona \/ South Dundurn)","cp":["L8R"],"lat":"43.2726","lng":"-79.8792"},{"country_code":"CA","state_code":"ON","province_code":"5969784","name":"Hamilton (Westdale \/ Cootes Paradise \/ Ainslie Wood)","cp":["L8S"],"lat":"43.2606","lng":"-79.9161"},{"country_code":"CA","state_code":"ON","province_code":"5969784","name":"Hamilton (Sherwood \/ Huntington \/ Upper King's Forest \/ Lisgar \/ Berrisfield \/ Hampton Heights \/ Sunninghill)","cp":["L8T"],"lat":"43.2199","lng":"-79.8286"},{"country_code":"CA","state_code":"ON","province_code":"5969784","name":"Hamilton (Raleigh \/ Macassa \/ Lawfield \/ Thorner \/ Burkholme \/ Eastmount)","cp":["L8V"],"lat":"43.2266","lng":"-79.8499"},{"country_code":"CA","state_code":"ON","province_code":"5969784","name":"Hamilton (West Albion Falls \/ Hannon \/ Rymal \/ Trenholme \/ Quinndale \/ Templemead \/ Broughton \/ Eleanor \/ Randall \/ Rushdale \/ Butler \/ East Chappel)","cp":["L8W"],"lat":"43.1958","lng":"-79.8458"},{"country_code":"CA","state_code":"ON","province_code":"5969784","name":"Hamilton (Crerar \/ Bruleville \/ Hill Park \/ Inch Park \/ Centremount \/ Balfour \/ Greeningdon \/ Jerome)","cp":["L9A"],"lat":"43.2271","lng":"-79.871"},{"country_code":"CA","state_code":"ON","province_code":"5969784","name":"Hamilton (Barnstown \/ West Chappel \/ Allison \/ Ryckmans \/ Mewburn \/ Sheldon \/ Falkirk \/ Carpenter \/ Kennedy \/ Southwest Outskirts)","cp":["L9B"],"lat":"43.2055","lng":"-79.9004"},{"country_code":"CA","state_code":"ON","province_code":"5969784","name":"Hamilton (Southam \/ Bonnington \/ Yeoville \/ Kernighan \/ Gourley \/ Rolston \/ Buchanan \/ Mohawk \/ Westcliffe \/ Gilbert \/ Gilkson \/ Gurnett \/ Fessenden \/ Mountview)","cp":["L9C"],"lat":"43.2313","lng":"-79.9049"},{"country_code":"CA","state_code":"ON","province_code":"6101646","name":"Peterborough County and North Hastings County (Lakefield)","cp":["K0L"],"lat":"44.7767","lng":"-77.9687"},{"country_code":"CA","state_code":"ON","province_code":"6119449","name":"Renfrew County and Lanark Highlands Township (Deep River)","cp":["K0J"],"lat":"45.6606","lng":"-77.5886"},{"country_code":"CA","state_code":"ON","province_code":"8133394","name":"Downsview East (CFB Toronto)","cp":["M3K"],"lat":"43.739","lng":"-79.4692"},{"country_code":"CA","state_code":"ON","province_code":"8133394","name":"East Toronto (The Beaches)","cp":["M4E"],"lat":"43.6784","lng":"-79.2941"},{"country_code":"CA","state_code":"ON","province_code":"8133394","name":"East Toronto (The Danforth East)","cp":["M4J"],"lat":"43.6872","lng":"-79.3368"},{"country_code":"CA","state_code":"ON","province_code":"8133394","name":"East Toronto (The Danforth West \/ Riverdale)","cp":["M4K"],"lat":"43.6803","lng":"-79.3538"},{"country_code":"CA","state_code":"ON","province_code":"8133394","name":"East Toronto (India Bazaar \/ The Beaches West)","cp":["M4L"],"lat":"43.6693","lng":"-79.3155"},{"country_code":"CA","state_code":"ON","province_code":"8133394","name":"East Toronto (Studio District)","cp":["M4M"],"lat":"43.6561","lng":"-79.3406"},{"country_code":"CA","state_code":"ON","province_code":"8133394","name":"Central Toronto (Lawrence Park East)","cp":["M4N"],"lat":"43.7301","lng":"-79.3935"},{"country_code":"CA","state_code":"ON","province_code":"8133394","name":"Central Toronto (Davisville North)","cp":["M4P"],"lat":"43.7135","lng":"-79.3887"},{"country_code":"CA","state_code":"ON","province_code":"8133394","name":"Central Toronto (North Toronto West)","cp":["M4R"],"lat":"43.7143","lng":"-79.4065"},{"country_code":"CA","state_code":"ON","province_code":"8133394","name":"Central Toronto (Davisville)","cp":["M4S"],"lat":"43.702","lng":"-79.3853"},{"country_code":"CA","state_code":"ON","province_code":"8133394","name":"Central Toronto (Moore Park \/ Summerhill East)","cp":["M4T"],"lat":"43.6899","lng":"-79.3853"},{"country_code":"CA","state_code":"ON","province_code":"8133394","name":"Central Toronto (Summerhill West \/ Rathnelly \/ South Hill \/ Forest Hill SE \/ Deer Park)","cp":["M4V"],"lat":"43.6861","lng":"-79.4025"},{"country_code":"CA","state_code":"ON","province_code":"8133394","name":"Downtown Toronto (Rosedale)","cp":["M4W"],"lat":"43.6827","lng":"-79.373"},{"country_code":"CA","state_code":"ON","province_code":"8133394","name":"Downtown Toronto (St. James Town \/ Cabbagetown)","cp":["M4X"],"lat":"43.6684","lng":"-79.3689"},{"country_code":"CA","state_code":"ON","province_code":"8133394","name":"Downtown Toronto (Church and Wellesley)","cp":["M4Y"],"lat":"43.6656","lng":"-79.383"},{"country_code":"CA","state_code":"ON","province_code":"8133394","name":"Toronto","cp":["M5A"],"lat":"43.6555","lng":"-79.3626"},{"country_code":"CA","state_code":"ON","province_code":"8133394","name":"Downtown Toronto (Ryerson)","cp":["M5B"],"lat":"43.6572","lng":"-79.3783"},{"country_code":"CA","state_code":"ON","province_code":"8133394","name":"Downtown Toronto (St. James Park)","cp":["M5C"],"lat":"43.6513","lng":"-79.3756"},{"country_code":"CA","state_code":"ON","province_code":"8133394","name":"Downtown Toronto (Berczy Park)","cp":["M5E"],"lat":"43.6456","lng":"-79.3754"},{"country_code":"CA","state_code":"ON","province_code":"8133394","name":"Downtown Toronto (Central Bay Street)","cp":["M5G"],"lat":"43.6564","lng":"-79.386"},{"country_code":"CA","state_code":"ON","province_code":"8133394","name":"Downtown Toronto (Richmond \/ Adelaide \/ King)","cp":["M5H"],"lat":"43.6496","lng":"-79.3833"},{"country_code":"CA","state_code":"ON","province_code":"8133394","name":"Downtown Toronto (Harbourfront East \/ Union Station \/ Toronto Island)","cp":["M5J"],"lat":"43.623","lng":"-79.3936"},{"country_code":"CA","state_code":"ON","province_code":"8133394","name":"Downtown Toronto (Toronto Dominion Centre \/ Design Exchange)","cp":["M5K"],"lat":"43.6469","lng":"-79.3823"},{"country_code":"CA","state_code":"ON","province_code":"8133394","name":"Downtown Toronto (Commerce Court \/ Victoria Hotel)","cp":["M5L"],"lat":"43.6492","lng":"-79.3823"},{"country_code":"CA","state_code":"ON","province_code":"8133394","name":"Central Toronto (Roselawn)","cp":["M5N"],"lat":"43.7113","lng":"-79.4195"},{"country_code":"CA","state_code":"ON","province_code":"8133394","name":"Central Toronto (Forest Hill North & West)","cp":["M5P"],"lat":"43.6966","lng":"-79.412"},{"country_code":"CA","state_code":"ON","province_code":"8133394","name":"Central Toronto (The Annex \/ North Midtown \/ Yorkville)","cp":["M5R"],"lat":"43.6736","lng":"-79.4035"},{"country_code":"CA","state_code":"ON","province_code":"8133394","name":"Downtown Toronto (University of Toronto \/ Harbord)","cp":["M5S"],"lat":"43.6629","lng":"-79.3987"},{"country_code":"CA","state_code":"ON","province_code":"8133394","name":"Downtown Toronto (Kensington Market \/ Chinatown \/ Grange Park)","cp":["M5T"],"lat":"43.6541","lng":"-79.3978"},{"country_code":"CA","state_code":"ON","province_code":"8133394","name":"Downtown Toronto (CN Tower \/ King and Spadina \/ Railway Lands \/ Harbourfront West \/ Bathurst Quay \/ South Niagara \/ YTZ)","cp":["M5V"],"lat":"43.6404","lng":"-79.3995"},{"country_code":"CA","state_code":"ON","province_code":"8133394","name":"Downtown Toronto Stn A PO Boxes 25 The Esplanade (Enclave of M5E)","cp":["M5W"],"lat":"43.6437","lng":"-79.3787"},{"country_code":"CA","state_code":"ON","province_code":"8133394","name":"Downtown Toronto (Underground city)","cp":["M5X"],"lat":"43.6492","lng":"-79.3823"},{"country_code":"CA","state_code":"ON","province_code":"8133394","name":"Downtown Toronto (Christie)","cp":["M6G"],"lat":"43.6683","lng":"-79.4205"},