[{"country_code":"CL","state_code":"01","province_code":"51","name":"Valpara\u00edso","cp":["2340000"],"lat":"-33.1298","lng":"-71.5735"},{"country_code":"CL","state_code":"01","province_code":"51","name":"Casablanca","cp":["2480000"],"lat":"-33.3158","lng":"-71.4353"},{"country_code":"CL","state_code":"01","province_code":"51","name":"Quintero","cp":["2490000"],"lat":"-32.843","lng":"-71.4738"},{"country_code":"CL","state_code":"01","province_code":"51","name":"Puchuncav\u00ed","cp":["2500000"],"lat":"-32.7176","lng":"-71.4111"},{"country_code":"CL","state_code":"01","province_code":"51","name":"Conc\u00f3n","cp":["2510000"],"lat":"-32.9534","lng":"-71.4678"},{"country_code":"CL","state_code":"01","province_code":"51","name":"Vi\u00f1a Del Mar","cp":["2520000"],"lat":"-33.0288","lng":"-71.5159"},{"country_code":"CL","state_code":"01","province_code":"51","name":"Juan Fern\u00e1ndez","cp":["2600000"],"lat":"-33.6387","lng":"-78.8583"},{"country_code":"CL","state_code":"01","province_code":"52","name":"Isla De Pascua","cp":["2770000"],"lat":"-27.1288","lng":"-109.36"},{"country_code":"CL","state_code":"01","province_code":"53","name":"Los Andes","cp":["2100000"],"lat":"-32.9503","lng":"-70.2398"},{"country_code":"CL","state_code":"01","province_code":"53","name":"San Esteban","cp":["2120000"],"lat":"-32.6859","lng":"-70.3484"},{"country_code":"CL","state_code":"01","province_code":"53","name":"Calle Larga","cp":["2130000"],"lat":"-32.9504","lng":"-70.545"},{"country_code":"CL","state_code":"01","province_code":"53","name":"Rinconada","cp":["2140000"],"lat":"-32.876","lng":"-70.7068"},{"country_code":"CL","state_code":"01","province_code":"54","name":"La Ligua","cp":["2030000"],"lat":"-32.3537","lng":"-71.2721"},{"country_code":"CL","state_code":"01","province_code":"54","name":"Petorca","cp":["2040000"],"lat":"-32.1903","lng":"-70.8704"},{"country_code":"CL","state_code":"01","province_code":"54","name":"Cabildo","cp":["2050000"],"lat":"-32.4174","lng":"-70.8243"},{"country_code":"CL","state_code":"01","province_code":"54","name":"Zapallar","cp":["2060000"],"lat":"-32.5549","lng":"-71.4547"},{"country_code":"CL","state_code":"01","province_code":"54","name":"Papudo","cp":["2070000"],"lat":"-32.5075","lng":"-71.4431"},{"country_code":"CL","state_code":"01","province_code":"55","name":"Quillota","cp":["2260000"],"lat":"-32.9046","lng":"-71.273"},{"country_code":"CL","state_code":"01","province_code":"55","name":"La Cruz","cp":["2280000"],"lat":"-32.8251","lng":"-71.2413"},{"country_code":"CL","state_code":"01","province_code":"55","name":"Calera","cp":["2290000"],"lat":"-32.8077","lng":"-71.1881"},{"country_code":"CL","state_code":"01","province_code":"55","name":"Nogales","cp":["2300000"],"lat":"-32.6915","lng":"-71.1768"},{"country_code":"CL","state_code":"01","province_code":"55","name":"Hijuelas","cp":["2310000"],"lat":"-32.8693","lng":"-71.0816"},{"country_code":"CL","state_code":"01","province_code":"56","name":"San Antonio","cp":["2660000"],"lat":"-33.571","lng":"-71.6096"},{"country_code":"CL","state_code":"01","province_code":"56","name":"Cartagena","cp":["2680000"],"lat":"-33.5338","lng":"-71.4424"},{"country_code":"CL","state_code":"01","province_code":"56","name":"El Tabo","cp":["2690000"],"lat":"-33.4586","lng":"-71.6619"},{"country_code":"CL","state_code":"01","province_code":"56","name":"El Quisco","cp":["2700000"],"lat":"-33.4161","lng":"-71.6512"},{"country_code":"CL","state_code":"01","province_code":"56","name":"Algarrobo","cp":["2710000"],"lat":"-33.33","lng":"-71.6005"},{"country_code":"CL","state_code":"01","province_code":"56","name":"Santo Domingo","cp":["2720000"],"lat":"-33.8093","lng":"-71.6766"},{"country_code":"CL","state_code":"01","province_code":"57","name":"San Felipe","cp":["2170000"],"lat":"-32.7364","lng":"-70.7537"},{"country_code":"CL","state_code":"01","province_code":"57","name":"Putaendo","cp":["2190000"],"lat":"-32.4808","lng":"-70.5214"},{"country_code":"CL","state_code":"01","province_code":"57","name":"Santa Mar\u00eda","cp":["2200000"],"lat":"-32.6855","lng":"-70.6103"},{"country_code":"CL","state_code":"01","province_code":"57","name":"Panquehue","cp":["2210000"],"lat":"-32.7938","lng":"-70.829"},{"country_code":"CL","state_code":"01","province_code":"57","name":"Llaillay","cp":["2220000"],"lat":"-32.8879","lng":"-70.9024"},{"country_code":"CL","state_code":"01","province_code":"57","name":"Catemu","cp":["2230000"],"lat":"-32.7073","lng":"-70.9452"},{"country_code":"CL","state_code":"01","province_code":"58","name":"Limache","cp":["2240000"],"lat":"-33.0309","lng":"-71.2793"},{"country_code":"CL","state_code":"01","province_code":"58","name":"Olmu\u00e9","cp":["2330000"],"lat":"-33.0358","lng":"-71.1107"},{"country_code":"CL","state_code":"01","province_code":"58","name":"Quilpue","cp":["2430000"],"lat":"-33.1473","lng":"-71.2543"},{"country_code":"CL","state_code":"01","province_code":"58","name":"Villa Alemana","cp":["6500000"],"lat":"-33.0679","lng":"-71.3305"},{"country_code":"CL","state_code":"02","province_code":"111","name":"Coyhaique","cp":["5950000"],"lat":"-45.5539","lng":"-71.9913"},{"country_code":"CL","state_code":"02","province_code":"111","name":"Lago Verde","cp":["5960000"],"lat":"-44.4923","lng":"-71.8323"},{"country_code":"CL","state_code":"02","province_code":"112","name":"Ays\u00e9n","cp":["6000000"],"lat":"-45.9887","lng":"-73.7735"},{"country_code":"CL","state_code":"02","province_code":"112","name":"Cisnes","cp":["6010000"],"lat":"-44.4577","lng":"-73.1374"},{"country_code":"CL","state_code":"02","province_code":"112","name":"Guaitecas","cp":["6020000"],"lat":"-43.8665","lng":"-74.0516"},{"country_code":"CL","state_code":"02","province_code":"113","name":"Cochrane","cp":["6100000"],"lat":"-47.3601","lng":"-72.7418"},{"country_code":"CL","state_code":"02","province_code":"113","name":"O\u2019Higgins","cp":["6110000"],"lat":"-48.4862","lng":"-72.9106"},{"country_code":"CL","state_code":"02","province_code":"113","name":"Tortel","cp":["6120000"],"lat":"-48.0271","lng":"-74.1592"},{"country_code":"CL","state_code":"02","province_code":"114","name":"Chile Chico","cp":["6050000"],"lat":"-46.7668","lng":"-72.5847"},{"country_code":"CL","state_code":"02","province_code":"114","name":"R\u00edo Ibanez","cp":["6060000"],"lat":"-46.2993","lng":"-72.4866"},{"country_code":"CL","state_code":"03","province_code":"21","name":"Antofagasta","cp":["1240000"],"lat":"-24.2739","lng":"-69.4097"},{"country_code":"CL","state_code":"03","province_code":"21","name":"Taltal","cp":["1300000"],"lat":"-25.3136","lng":"-69.8657"},{"country_code":"CL","state_code":"03","province_code":"21","name":"Mejillones","cp":["1310000"],"lat":"-22.936","lng":"-70.1986"},{"country_code":"CL","state_code":"03","province_code":"21","name":"Sierra Gorda","cp":["1320000"],"lat":"-23.2542","lng":"-69.3072"},{"country_code":"CL","state_code":"03","province_code":"22","name":"Calama","cp":["1390000"],"lat":"-22.1639","lng":"-68.6295"},{"country_code":"CL","state_code":"03","province_code":"22","name":"San Pedro De Atacama","cp":["1410000"],"lat":"-23.4011","lng":"-67.9111"},{"country_code":"CL","state_code":"03","province_code":"22","name":"Ollague","cp":["1420000"],"lat":"-21.4566","lng":"-68.3134"},{"country_code":"CL","state_code":"03","province_code":"23","name":"Tocopilla","cp":["1340000"],"lat":"-22.002","lng":"-70.0146"},{"country_code":"CL","state_code":"03","province_code":"23","name":"Mar\u00eda Elena","cp":["1360000"],"lat":"-22.0904","lng":"-69.4613"},{"country_code":"CL","state_code":"04","province_code":"91","name":"Temuco","cp":["4780000"],"lat":"-38.6731","lng":"-72.6633"},{"country_code":"CL","state_code":"04","province_code":"91","name":"Padre Las Casas","cp":["4850000"],"lat":"-38.792","lng":"-72.5792"},{"country_code":"CL","state_code":"04","province_code":"91","name":"Lautaro","cp":["4860000"],"lat":"-38.5432","lng":"-72.2894"},{"country_code":"CL","state_code":"04","province_code":"91","name":"Perquenco","cp":["4870000"],"lat":"-38.4283","lng":"-72.4365"},{"country_code":"CL","state_code":"04","province_code":"91","name":"Vilc\u00fan","cp":["4880000"],"lat":"-38.7047","lng":"-72.1136"},{"country_code":"CL","state_code":"04","province_code":"91","name":"Cunco","cp":["4890000"],"lat":"-38.977","lng":"-71.9917"},{"country_code":"CL","state_code":"04","province_code":"91","name":"Melipeuco","cp":["4900000"],"lat":"-38.8248","lng":"-71.611"},{"country_code":"CL","state_code":"04","province_code":"91","name":"Curarrehue","cp":["4910000"],"lat":"-39.3358","lng":"-71.5393"},{"country_code":"CL","state_code":"04","province_code":"91","name":"Puc\u00f3n","cp":["4920000"],"lat":"-39.2702","lng":"-71.7905"},{"country_code":"CL","state_code":"04","province_code":"91","name":"Villarrica","cp":["4930000"],"lat":"-39.3009","lng":"-72.1822"},{"country_code":"CL","state_code":"04","province_code":"91","name":"Freire","cp":["4940000"],"lat":"-38.9496","lng":"-72.5758"},{"country_code":"CL","state_code":"04","province_code":"91","name":"Pitrufqu\u00e9n","cp":["4950000"],"lat":"-39.105","lng":"-72.9019"},{"country_code":"CL","state_code":"04","province_code":"91","name":"Gorbea","cp":["4960000"],"lat":"-39.1717","lng":"-72.6692"},{"country_code":"CL","state_code":"04","province_code":"91","name":"Loncoche","cp":["4970000"],"lat":"-39.3561","lng":"-72.5825"},{"country_code":"CL","state_code":"04","province_code":"91","name":"Tolt\u00e9n","cp":["4980000"],"lat":"-39.2121","lng":"-73.0784"},{"country_code":"CL","state_code":"04","province_code":"91","name":"Teodoro Schmidt","cp":["4990000"],"lat":"-38.9848","lng":"-73.1147"},{"country_code":"CL","state_code":"04","province_code":"91","name":"Saavedra","cp":["5000000"],"lat":"-38.8325","lng":"-73.2955"},{"country_code":"CL","state_code":"04","province_code":"91","name":"Carahue","cp":["5010000"],"lat":"-38.6109","lng":"-73.2698"},{"country_code":"CL","state_code":"04","province_code":"91","name":"Nueva Imperial","cp":["5020000"],"lat":"-38.7509","lng":"-72.9725"},{"country_code":"CL","state_code":"04","province_code":"91","name":"Galvarino","cp":["5030000"],"lat":"-38.4479","lng":"-72.7912"},{"country_code":"CL","state_code":"04","province_code":"91","name":"Chol Chol","cp":["5040000"],"lat":"-38.5832","lng":"-72.9019"},{"country_code":"CL","state_code":"04","province_code":"92","name":"Angol","cp":["4650000"],"lat":"-37.769","lng":"-72.7954"},{"country_code":"CL","state_code":"04","province_code":"92","name":"Renaico","cp":["4670000"],"lat":"-37.7178","lng":"-72.5757"},{"country_code":"CL","state_code":"04","province_code":"92","name":"Collipulli","cp":["4680000"],"lat":"-38.0318","lng":"-72.1152"},{"country_code":"CL","state_code":"04","province_code":"92","name":"Lonquimay","cp":["4690000"],"lat":"-38.4747","lng":"-71.2392"},{"country_code":"CL","state_code":"04","province_code":"92","name":"Curacaut\u00edn","cp":["4700000"],"lat":"-38.4326","lng":"-71.7711"},{"country_code":"CL","state_code":"04","province_code":"92","name":"Ercilla","cp":["4710000"],"lat":"-38.0828","lng":"-72.3535"},{"country_code":"CL","state_code":"04","province_code":"92","name":"Victoria","cp":["4720000"],"lat":"-38.2805","lng":"-72.234"},{"country_code":"CL","state_code":"04","province_code":"92","name":"Traigu\u00e9n","cp":["4730000"],"lat":"-38.2471","lng":"-72.6551"},{"country_code":"CL","state_code":"04","province_code":"92","name":"Lumaco","cp":["4740000"],"lat":"-38.2871","lng":"-73.0459"},{"country_code":"CL","state_code":"04","province_code":"92","name":"Pur\u00e9n","cp":["4750000"],"lat":"-38.0121","lng":"-73.0504"},{"country_code":"CL","state_code":"04","province_code":"92","name":"Los Sauces","cp":["4760000"],"lat":"-37.9831","lng":"-72.7968"},{"country_code":"CL","state_code":"05","province_code":"31","name":"Copiap\u00f3","cp":["1530000"],"lat":"-27.3202","lng":"-69.8277"},{"country_code":"CL","state_code":"05","province_code":"31","name":"Caldera","cp":["1570000"],"lat":"-27.1423","lng":"-70.6837"},{"country_code":"CL","state_code":"05","province_code":"31","name":"Tierra Amarilla","cp":["1580000"],"lat":"-27.8657","lng":"-69.672"},{"country_code":"CL","state_code":"05","province_code":"32","name":"Cha\u00f1aral","cp":["1490000"],"lat":"-26.3737","lng":"-70.3383"},{"country_code":"CL","state_code":"05","province_code":"32","name":"Diego De Almagro","cp":["1500000"],"lat":"-26.2373","lng":"-69.1873"},{"country_code":"CL","state_code":"05","province_code":"33","name":"Vallenar","cp":["1610000"],"lat":"-28.5948","lng":"-70.6025"},{"country_code":"CL","state_code":"05","province_code":"33","name":"Freirina","cp":["1630000"],"lat":"-28.8442","lng":"-71.1954"},{"country_code":"CL","state_code":"05","province_code":"33","name":"Huasco","cp":["1640000"],"lat":"-28.2584","lng":"-71.0178"},{"country_code":"CL","state_code":"05","province_code":"33","name":"Alto Del Carmen","cp":["1650000"],"lat":"-28.9936","lng":"-70.153"},{"country_code":"CL","state_code":"06","province_code":"81","name":"Concepci\u00f3n","cp":["4030000"],"lat":"-36.82","lng":"-73.0445"},{"country_code":"CL","state_code":"06","province_code":"81","name":"Chiguayante","cp":["4100000"],"lat":"-36.9008","lng":"-73.005"},{"country_code":"CL","state_code":"06","province_code":"81","name":"San Pedro De La Paz","cp":["4130000"],"lat":"-36.8408","lng":"-73.1031"},{"country_code":"CL","state_code":"06","province_code":"81","name":"Penco","cp":["4150000"],"lat":"-36.7484","lng":"-72.9437"},{"country_code":"CL","state_code":"06","province_code":"81","name":"Tom\u00e9","cp":["4160000"],"lat":"-36.6171","lng":"-72.858"},{"country_code":"CL","state_code":"06","province_code":"81","name":"Florida","cp":["4170000"],"lat":"-36.8224","lng":"-72.7177"},{"country_code":"CL","state_code":"06","province_code":"81","name":"Hualqui","cp":["4180000"],"lat":"-37.0447","lng":"-72.8704"},{"country_code":"CL","state_code":"06","province_code":"81","name":"Coronel","cp":["4190000"],"lat":"-37.007","lng":"-73.1252"},{"country_code":"CL","state_code":"06","province_code":"81","name":"Lota","cp":["4210000"],"lat":"-37.1195","lng":"-73.1049"},{"country_code":"CL","state_code":"06","province_code":"81","name":"Santa Juana","cp":["4230000"],"lat":"-37.2764","lng":"-72.9598"},{"country_code":"CL","state_code":"06","province_code":"81","name":"Talcahuano","cp":["4260000"],"lat":"-36.7434","lng":"-73.0982"},{"country_code":"CL","state_code":"06","province_code":"81","name":"Hualp\u00e9n","cp":["4600000"],"lat":"-36.7869","lng":"-73.1052"},{"country_code":"CL","state_code":"06","province_code":"82","name":"Lebu","cp":["4350000"],"lat":"-37.6778","lng":"-73.5906"},{"country_code":"CL","state_code":"06","province_code":"82","name":"Arauco","cp":["4360000"],"lat":"-37.2886","lng":"-73.3994"},{"country_code":"CL","state_code":"06","province_code":"82","name":"Curanilahue","cp":["4370000"],"lat":"-37.483","lng":"-73.2351"},{"country_code":"CL","state_code":"06","province_code":"82","name":"Los Alamos","cp":["4380000"],"lat":"-37.6736","lng":"-73.3569"},{"country_code":"CL","state_code":"06","province_code":"82","name":"Canete","cp":["4390000"],"lat":"-37.8741","lng":"-73.3177"},{"country_code":"CL","state_code":"06","province_code":"82","name":"Contulmo","cp":["4400000"],"lat":"-38.0527","lng":"-73.2124"},{"country_code":"CL","state_code":"06","province_code":"82","name":"Tirua","cp":["4410000"],"lat":"-38.2975","lng":"-73.3957"},{"country_code":"CL","state_code":"06","province_code":"83","name":"Los Angeles","cp":["4440000"],"lat":"-37.4079","lng":"-72.3277"},{"country_code":"CL","state_code":"06","province_code":"83","name":"Cabrero","cp":["4470000"],"lat":"-37.0621","lng":"-72.3814"},{"country_code":"CL","state_code":"06","province_code":"83","name":"Tucapel","cp":["4480000"],"lat":"-37.2253","lng":"-71.7455"},{"country_code":"CL","state_code":"06","province_code":"83","name":"Antuco","cp":["4490000"],"lat":"-37.3277","lng":"-71.3666"},{"country_code":"CL","state_code":"06","province_code":"83","name":"Quilleco","cp":["4500000"],"lat":"-37.4368","lng":"-71.8614"},{"country_code":"CL","state_code":"06","province_code":"83","name":"Santa B\u00e1rbara","cp":["4510000"],"lat":"-37.623","lng":"-71.7492"},{"country_code":"CL","state_code":"06","province_code":"83","name":"Quilaco","cp":["4520000"],"lat":"-37.982","lng":"-71.5973"},{"country_code":"CL","state_code":"06","province_code":"83","name":"Mulch\u00e9n","cp":["4530000"],"lat":"-37.8384","lng":"-72.0972"},{"country_code":"CL","state_code":"06","province_code":"83","name":"Negrete","cp":["4540000"],"lat":"-37.6083","lng":"-72.5766"},{"country_code":"CL","state_code":"06","province_code":"83","name":"Nacimiento","cp":["4550000"],"lat":"-37.4856","lng":"-72.8236"},{"country_code":"CL","state_code":"06","province_code":"83","name":"Laja","cp":["4560000"],"lat":"-37.3125","lng":"-72.5825"},{"country_code":"CL","state_code":"06","province_code":"83","name":"San Rosendo","cp":["4570000"],"lat":"-37.213","lng":"-72.7211"},{"country_code":"CL","state_code":"06","province_code":"83","name":"Yumbel","cp":["4580000"],"lat":"-37.0884","lng":"-72.616"},{"country_code":"CL","state_code":"06","province_code":"83","name":"Alto Biob\u00edo","cp":["4590000"],"lat":"-37.8654","lng":"-71.3474"},{"country_code":"CL","state_code":"06","province_code":"84","name":"Chill\u00e1n","cp":["3780000"],"lat":"-36.6288","lng":"-72.0496"},{"country_code":"CL","state_code":"06","province_code":"84","name":"Chill\u00e1n Viejo","cp":["3820000"],"lat":"-36.6803","lng":"-72.199"},{"country_code":"CL","state_code":"06","province_code":"84","name":"San Carlos","cp":["3840000"],"lat":"-36.3856","lng":"-72.0186"},{"country_code":"CL","state_code":"06","province_code":"84","name":"Niqu\u00e9n","cp":["3850000"],"lat":"-36.3024","lng":"-71.8974"},{"country_code":"CL","state_code":"06","province_code":"84","name":"San Fabi\u00e1n","cp":["3860000"],"lat":"-36.5799","lng":"-71.2874"},{"country_code":"CL","state_code":"06","province_code":"84","name":"Coihueco","cp":["3870000"],"lat":"-36.7021","lng":"-71.5811"},{"country_code":"CL","state_code":"06","province_code":"84","name":"Pinto","cp":["3880000"],"lat":"-36.9214","lng":"-71.4994"},{"country_code":"CL","state_code":"06","province_code":"84","name":"San Ignacio","cp":["3890000"],"lat":"-36.8225","lng":"-72.0298"},{"country_code":"CL","state_code":"06","province_code":"84","name":"El Carmen","cp":["3900000"],"lat":"-36.9251","lng":"-71.8469"},{"country_code":"CL","state_code":"06","province_code":"84","name":"Pemuco","cp":["3910000"],"lat":"-36.9829","lng":"-72.0675"},{"country_code":"CL","state_code":"06","province_code":"84","name":"Yungay","cp":["3920000"],"lat":"-37.1044","lng":"-71.9308"},{"country_code":"CL","state_code":"06","province_code":"84","name":"Bulnes","cp":["3930000"],"lat":"-36.7905","lng":"-72.2901"},{"country_code":"CL","state_code":"06","province_code":"84","name":"Quill\u00f3n","cp":["3940000"],"lat":"-36.8186","lng":"-72.5017"},{"country_code":"CL","state_code":"06","province_code":"84","name":"Ranquil","cp":["3950000"],"lat":"-36.6406","lng":"-72.5878"},{"country_code":"CL","state_code":"06","province_code":"84","name":"Portezuelo","cp":["3960000"],"lat":"-36.5464","lng":"-72.4665"},{"country_code":"CL","state_code":"06","province_code":"84","name":"Coelemu","cp":["3970000"],"lat":"-36.5051","lng":"-72.7503"},{"country_code":"CL","state_code":"06","province_code":"84","name":"Treguaco","cp":["3980000"],"lat":"-36.4281","lng":"-72.6595"},{"country_code":"CL","state_code":"06","province_code":"84","name":"Cobquecura","cp":["3990000"],"lat":"-36.1811","lng":"-72.721"},{"country_code":"CL","state_code":"06","province_code":"84","name":"Quirihue","cp":["4000000"],"lat":"-36.2819","lng":"-72.5441"},{"country_code":"CL","state_code":"06","province_code":"84","name":"Ninhue","cp":["4010000"],"lat":"-36.3568","lng":"-72.4097"},{"country_code":"CL","state_code":"06","province_code":"84","name":"San Nicol\u00e1s","cp":["4020000"],"lat":"-36.4798","lng":"-72.2282"},{"country_code":"CL","state_code":"07","province_code":"41","name":"La Serena","cp":["1700000"],"lat":"-29.7892","lng":"-71.0612"},{"country_code":"CL","state_code":"07","province_code":"41","name":"La Higuera","cp":["1740000"],"lat":"-29.3749","lng":"-70.9014"},{"country_code":"CL","state_code":"07","province_code":"41","name":"Andacollo","cp":["1750000"],"lat":"-30.2606","lng":"-71.1005"},{"country_code":"CL","state_code":"07","province_code":"41","name":"Vicu\u00f1a","cp":["1760000"],"lat":"-29.892","lng":"-70.3827"},{"country_code":"CL","state_code":"07","province_code":"41","name":"Paiguano","cp":["1770000"],"lat":"-30.2384","lng":"-70.3707"},{"country_code":"CL","state_code":"07","province_code":"41","name":"Coquimbo","cp":["1780000"],"lat":"-30.2288","lng":"-71.3598"},{"country_code":"CL","state_code":"07","province_code":"42","name":"Illapel","cp":["1930000"],"lat":"-31.5493","lng":"-70.9706"},{"country_code":"CL","state_code":"07","province_code":"42","name":"Los Vilos","cp":["1940000"],"lat":"-31.9778","lng":"-71.3041"},{"country_code":"CL","state_code":"07","province_code":"42","name":"Salamanca","cp":["1950000"],"lat":"-31.8931","lng":"-70.6608"},{"country_code":"CL","state_code":"07","province_code":"42","name":"Canela","cp":["1960000"],"lat":"-31.4019","lng":"-71.3944"},{"country_code":"CL","state_code":"07","province_code":"43","name":"Ovalle","cp":["1840000"],"lat":"-30.674","lng":"-71.4062"},{"country_code":"CL","state_code":"07","province_code":"43","name":"R\u00edo Hurtado","cp":["1870000"],"lat":"-30.2667","lng":"-70.6667"},{"country_code":"CL","state_code":"07","province_code":"43","name":"Monte Patria","cp":["1880000"],"lat":"-30.8352","lng":"-70.6509"},{"country_code":"CL","state_code":"07","province_code":"43","name":"Combarbal\u00e1","cp":["1890000"],"lat":"-31.1469","lng":"-70.9657"},{"country_code":"CL","state_code":"07","province_code":"43","name":"Punitaqui","cp":["1900000"],"lat":"-30.9464","lng":"-71.3331"},{"country_code":"CL","state_code":"08","province_code":"61","name":"Rancagua","cp":["2820000"],"lat":"-34.1261","lng":"-70.8166"},{"country_code":"CL","state_code":"08","province_code":"61","name":"Graneros","cp":["2880000"],"lat":"-34.0657","lng":"-70.747"},{"country_code":"CL","state_code":"08","province_code":"61","name":"Mostazal","cp":["2890000"],"lat":"-33.956","lng":"-70.5694"},{"country_code":"CL","state_code":"08","province_code":"61","name":"Codegua","cp":["2900000"],"lat":"-34.0574","lng":"-70.5471"},{"country_code":"CL","state_code":"08","province_code":"61","name":"Machal\u00ed","cp":["2910000"],"lat":"-34.3207","lng":"-70.3196"},{"country_code":"CL","state_code":"08","province_code":"61","name":"Olivar","cp":["2920000"],"lat":"-34.2116","lng":"-70.8201"},{"country_code":"CL","state_code":"08","province_code":"61","name":"Requinoa","cp":["2930000"],"lat":"-34.335","lng":"-70.6591"},{"country_code":"CL","state_code":"08","province_code":"61","name":"Rengo","cp":["2940000"],"lat":"-34.4547","lng":"-70.7185"},{"country_code":"CL","state_code":"08","province_code":"61","name":"Malloa","cp":["2950000"],"lat":"-34.4762","lng":"-70.8734"},{"country_code":"CL","state_code":"08","province_code":"61","name":"Quinta De Tilcoco","cp":["2960000"],"lat":"-34.3592","lng":"-70.9982"},{"country_code":"CL","state_code":"08","province_code":"61","name":"San Vicente","cp":["2970000"],"lat":"-34.4778","lng":"-71.1233"},{"country_code":"CL","state_code":"08","province_code":"61","name":"Pichidegua","cp":["2980000"],"lat":"-34.3712","lng":"-71.3394"},{"country_code":"CL","state_code":"08","province_code":"61","name":"Peumo","cp":["2990000"],"lat":"-34.3294","lng":"-71.2219"},{"country_code":"CL","state_code":"08","province_code":"61","name":"Coltauco","cp":["3000000"],"lat":"-34.26","lng":"-71.0779"},{"country_code":"CL","state_code":"08","province_code":"61","name":"Coinco","cp":["3010000"],"lat":"-34.2822","lng":"-70.9711"},{"country_code":"CL","state_code":"08","province_code":"61","name":"Do\u00f1ihue","cp":["3020000"],"lat":"-34.197","lng":"-70.9236"},{"country_code":"CL","state_code":"08","province_code":"61","name":"Las Cabras","cp":["3030000"],"lat":"-34.165","lng":"-71.3327"},{"country_code":"CL","state_code":"08","province_code":"62","name":"Pichilemu","cp":["3220000"],"lat":"-34.3841","lng":"-71.9106"},{"country_code":"CL","state_code":"08","province_code":"62","name":"Navidad","cp":["3230000"],"lat":"-34.0123","lng":"-71.8203"},{"country_code":"CL","state_code":"08","province_code":"62","name":"Litueche","cp":["3240000"],"lat":"-34.1074","lng":"-71.7336"},{"country_code":"CL","state_code":"08","province_code":"62","name":"La Estrella","cp":["3250000"],"lat":"-34.2233","lng":"-71.6026"},{"country_code":"CL","state_code":"08","province_code":"62","name":"Marchihue","cp":["3260000"],"lat":"-34.3727","lng":"-71.6716"},{"country_code":"CL","state_code":"08","province_code":"62","name":"Paredones","cp":["3270000"],"lat":"-34.6733","lng":"-71.9112"},{"country_code":"CL","state_code":"08","province_code":"63","name":"San Fernando","cp":["3070000"],"lat":"-34.7433","lng":"-70.6033"},{"country_code":"CL","state_code":"08","province_code":"63","name":"Chimbarongo","cp":["3090000"],"lat":"-34.7517","lng":"-70.9811"},{"country_code":"CL","state_code":"08","province_code":"63","name":"Placilla","cp":["3100000"],"lat":"-34.6192","lng":"-71.0862"},{"country_code":"CL","state_code":"08","province_code":"63","name":"Nancagua","cp":["3110000"],"lat":"-34.6678","lng":"-71.1919"},{"country_code":"CL","state_code":"08","province_code":"63","name":"Ch\u00e9pica","cp":["3120000"],"lat":"-34.7913","lng":"-71.3593"},{"country_code":"CL","state_code":"08","province_code":"63","name":"Santa Cruz","cp":["3130000"],"lat":"-34.6432","lng":"-71.4025"},{"country_code":"CL","state_code":"08","province_code":"63","name":"Lolol","cp":["3140000"],"lat":"-34.7684","lng":"-71.6484"},{"country_code":"CL","state_code":"08","province_code":"63","name":"Pumanque","cp":["3150000"],"lat":"-34.5962","lng":"-71.6915"},{"country_code":"CL","state_code":"08","province_code":"63","name":"Palmilla","cp":["3160000"],"lat":"-34.5282","lng":"-71.3529"},{"country_code":"CL","state_code":"08","province_code":"63","name":"Peralillo","cp":["3170000"],"lat":"-34.4662","lng":"-71.4967"},{"country_code":"CL","state_code":"10","province_code":"121","name":"Punta Arenas","cp":["6200000"],"lat":"-53.6415","lng":"-72.0385"},{"country_code":"CL","state_code":"10","province_code":"121","name":"R\u00edo Verde","cp":["6240000"],"lat":"-52.8467","lng":"-72.4633"},{"country_code":"CL","state_code":"10","province_code":"121","name":"Laguna Blanca","cp":["6250000"],"lat":"-52.3294","lng":"-71.2398"},{"country_code":"CL","state_code":"10","province_code":"121","name":"San Gregorio","cp":["6260000"],"lat":"-52.3223","lng":"-70.2272"},{"country_code":"CL","state_code":"10","province_code":"122","name":"Cabo De Hornos","cp":["6350000"],"lat":"-55.0225","lng":"-69.2283"},{"country_code":"CL","state_code":"10","province_code":"122","name":"Ant\u00e1rtica","cp":["6360000"],"lat":"-75.0009","lng":"-71.5931"},{"country_code":"CL","state_code":"10","province_code":"123","name":"Porvenir","cp":["6300000"],"lat":"-53.304","lng":"-69.3928"},{"country_code":"CL","state_code":"10","province_code":"123","name":"Primavera","cp":["6310000"],"lat":"-52.8202","lng":"-69.3335"},{"country_code":"CL","state_code":"10","province_code":"123","name":"Timaukel","cp":["6320000"],"lat":"-54.195","lng":"-69.5323"},{"country_code":"CL","state_code":"10","province_code":"124","name":"Natales","cp":["6160000"],"lat":"-50.6742","lng":"-73.9259"},{"country_code":"CL","state_code":"10","province_code":"124","name":"Torres Del Paine","cp":["6170000"],"lat":"-51.0503","lng":"-72.8295"},{"country_code":"CL","state_code":"11","province_code":"71","name":"Talca","cp":["3460000"],"lat":"-35.428","lng":"-71.6028"},{"country_code":"CL","state_code":"11","province_code":"71","name":"San Rafael","cp":["3490000"],"lat":"-35.3019","lng":"-71.5011"},{"country_code":"CL","state_code":"11","province_code":"71","name":"Pelarco","cp":["3500000"],"lat":"-35.3832","lng":"-71.3506"},{"country_code":"CL","state_code":"11","province_code":"71","name":"R\u00edo Claro","cp":["3510000"],"lat":"-35.2609","lng":"-71.2695"},{"country_code":"CL","state_code":"11","province_code":"71","name":"San Clemente","cp":["3520000"],"lat":"-35.7121","lng":"-70.8485"},{"country_code":"CL","state_code":"11","province_code":"71","name":"Maule","cp":["3530000"],"lat":"-35.5085","lng":"-71.7126"},{"country_code":"CL","state_code":"11","province_code":"71","name":"Empedrado","cp":["3540000"],"lat":"-35.6135","lng":"-72.2843"},{"country_code":"CL","state_code":"11","province_code":"71","name":"Pencahue","cp":["3550000"],"lat":"-35.3277","lng":"-71.8171"},{"country_code":"CL","state_code":"11","province_code":"71","name":"Constituci\u00f3n","cp":["3560000"],"lat":"-35.3631","lng":"-72.2762"},{"country_code":"CL","state_code":"11","province_code":"71","name":"Curepto","cp":["3570000"],"lat":"-35.1297","lng":"-71.9533"},{"country_code":"CL","state_code":"11","province_code":"72","name":"Cauquenes","cp":["3690000"],"lat":"-35.9713","lng":"-72.28"},{"country_code":"CL","state_code":"11","province_code":"72","name":"Pelluhue","cp":["3710000"],"lat":"-35.9115","lng":"-72.6076"},{"country_code":"CL","state_code":"11","province_code":"72","name":"Chanco","cp":["3720000"],"lat":"-35.6988","lng":"-72.4849"},{"country_code":"CL","state_code":"11","province_code":"73","name":"Curic\u00f3","cp":["3340000"],"lat":"-35.1991","lng":"-70.8957"},{"country_code":"CL","state_code":"11","province_code":"73","name":"Teno","cp":["3360000"],"lat":"-34.8879","lng":"-71.0224"},{"country_code":"CL","state_code":"11","province_code":"73","name":"Romeral","cp":["3370000"],"lat":"-35.0683","lng":"-70.7112"},{"country_code":"CL","state_code":"11","province_code":"73","name":"Molina","cp":["3380000"],"lat":"-35.3534","lng":"-70.9095"},{"country_code":"CL","state_code":"11","province_code":"73","name":"Sagrada Familia","cp":["3390000"],"lat":"-35.1043","lng":"-71.4959"},{"country_code":"CL","state_code":"11","province_code":"73","name":"Huala\u00f1\u00e9","cp":["3400000"],"lat":"-34.9525","lng":"-71.709"},{"country_code":"CL","state_code":"11","province_code":"73","name":"Licant\u00e9n","cp":["3410000"],"lat":"-34.9743","lng":"-72.0604"},{"country_code":"CL","state_code":"11","province_code":"73","name":"Vichuqu\u00e9n","cp":["3420000"],"lat":"-34.841","lng":"-72.0228"},{"country_code":"CL","state_code":"11","province_code":"73","name":"Rauco","cp":["3430000"],"lat":"-34.9382","lng":"-71.4264"},{"country_code":"CL","state_code":"11","province_code":"74","name":"Linares","cp":["3580000"],"lat":"-35.9581","lng":"-71.3321"},{"country_code":"CL","state_code":"11","province_code":"74","name":"Yerbas Buenas","cp":["3600000"],"lat":"-35.6892","lng":"-71.5444"},{"country_code":"CL","state_code":"11","province_code":"74","name":"Colb\u00fan","cp":["3610000"],"lat":"-36.0777","lng":"-70.9783"},{"country_code":"CL","state_code":"11","province_code":"74","name":"Longav\u00ed","cp":["3620000"],"lat":"-36.1107","lng":"-71.4412"},{"country_code":"CL","state_code":"11","province_code":"74","name":"Parral","cp":["3630000"],"lat":"-36.2623","lng":"-71.645"},{"country_code":"CL","state_code":"11","province_code":"74","name":"Retiro","cp":["3640000"],"lat":"-36.0023","lng":"-71.8293"},{"country_code":"CL","state_code":"11","province_code":"74","name":"Villa Alegre","cp":["3650000"],"lat":"-35.6853","lng":"-71.6829"},{"country_code":"CL","state_code":"11","province_code":"74","name":"San Javier","cp":["3660000"],"lat":"-35.629","lng":"-71.9271"},{"country_code":"CL","state_code":"12","province_code":"131","name":"Providencia","cp":["7500000"],"lat":"-33.4362","lng":"-70.609"},{"country_code":"CL","state_code":"12","province_code":"131","name":"Las Condes","cp":["7550000"],"lat":"-33.4207","lng":"-70.5019"},{"country_code":"CL","state_code":"12","province_code":"131","name":"Vitacura","cp":["7630000"],"lat":"-33.3799","lng":"-70.5724"},{"country_code":"CL","state_code":"12","province_code":"131","name":"Lo Barnechea","cp":["7690000"],"lat":"-33.2991","lng":"-70.3687"},{"country_code":"CL","state_code":"12","province_code":"131","name":"\u00d1u\u00f1oa","cp":["7750000"],"lat":"-33.4593","lng":"-70.6003"},{"country_code":"CL","state_code":"12","province_code":"131","name":"Macul","cp":["7810000"],"lat":"-33.4902","lng":"-70.6011"},{"country_code":"CL","state_code":"12","province_code":"131","name":"La Reina","cp":["7850000"],"lat":"-33.4486","lng":"-70.5358"},{"country_code":"CL","state_code":"12","province_code":"131","name":"Penalol\u00e9n","cp":["7910000"],"lat":"-33.4862","lng":"-70.5249"},{"country_code":"CL","state_code":"12","province_code":"131","name":"La Cisterna","cp":["7970000"],"lat":"-33.5302","lng":"-70.6641"},{"country_code":"CL","state_code":"12","province_code":"131","name":"El Bosque","cp":["8010000"],"lat":"-33.5629","lng":"-70.6764"},{"country_code":"CL","state_code":"12","province_code":"131","name":"La Florida","cp":["8240000"],"lat":"-33.5286","lng":"-70.5396"},{"country_code":"CL","state_code":"12","province_code":"131","name":"Santiago","cp":["8320000"],"lat":"-33.4541","lng":"-70.656"},{"country_code":"CL","state_code":"12","province_code":"131","name":"Independencia","cp":["8380000"],"lat":"-33.4151","lng":"-70.6657"},{"country_code":"CL","state_code":"12","province_code":"131","name":"Recoleta","cp":["8420000"],"lat":"-33.4088","lng":"-70.6364"},{"country_code":"CL","state_code":"12","province_code":"131","name":"Pedro Aguirre Cerda","cp":["8460000"],"lat":"-33.4919","lng":"-70.6762"},{"country_code":"CL","state_code":"12","province_code":"131","name":"Quinta Normal","cp":["8500000"],"lat":"-33.4284","lng":"-70.7008"},{"country_code":"CL","state_code":"12","province_code":"131","name":"Conchal\u00ed","cp":["8540000"],"lat":"-33.3837","lng":"-70.6774"},{"country_code":"CL","state_code":"12","province_code":"131","name":"Huechuraba","cp":["8580000"],"lat":"-33.3603","lng":"-70.6375"},{"country_code":"CL","state_code":"12","province_code":"131","name":"Renca","cp":["8640000"],"lat":"-33.4021","lng":"-70.7279"},{"country_code":"CL","state_code":"12","province_code":"131","name":"Quilicura","cp":["8700000"],"lat":"-33.3554","lng":"-70.7361"},{"country_code":"CL","state_code":"12","province_code":"131","name":"La Granja","cp":["8780000"],"lat":"-33.5354","lng":"-70.6223"},{"country_code":"CL","state_code":"12","province_code":"131","name":"La Pintana","cp":["8820000"],"lat":"-33.5843","lng":"-70.6376"},{"country_code":"CL","state_code":"12","province_code":"131","name":"San Ram\u00f3n","cp":["8860000"],"lat":"-33.5314","lng":"-70.6422"},{"country_code":"CL","state_code":"12","province_code":"131","name":"San Miguel","cp":["8900000"],"lat":"-33.4991","lng":"-70.6517"},{"country_code":"CL","state_code":"12","province_code":"131","name":"San Joaqu\u00edn","cp":["8940000"],"lat":"-33.4963","lng":"-70.6288"},{"country_code":"CL","state_code":"12","province_code":"131","name":"Lo Prado","cp":["8980000"],"lat":"-33.4473","lng":"-70.7235"},{"country_code":"CL","state_code":"12","province_code":"131","name":"Pudahuel","cp":["9020000"],"lat":"-33.424","lng":"-70.8549"},{"country_code":"CL","state_code":"12","province_code":"131","name":"Cerro Navia","cp":["9080000"],"lat":"-33.4228","lng":"-70.745"},{"country_code":"CL","state_code":"12","province_code":"131","name":"Lo Espejo","cp":["9120000"],"lat":"-33.5209","lng":"-70.6901"},{"country_code":"CL","state_code":"12","province_code":"131","name":"Estaci\u00f3n Central","cp":["9160000"],"lat":"-33.4645","lng":"-70.6986"},{"country_code":"CL","state_code":"12","province_code":"131","name":"Cerrillos","cp":["9200000"],"lat":"-33.5003","lng":"-70.7174"},{"country_code":"CL","state_code":"12","province_code":"131","name":"Maipu","cp":["9250000"],"lat":"-33.5066","lng":"-70.8123"},{"country_code":"CL","state_code":"12","province_code":"132","name":"Puente Alto","cp":["8150000"],"lat":"-33.591","lng":"-70.5575"},{"country_code":"CL","state_code":"12","province_code":"132","name":"San Jose De Maipo","cp":["9460000"],"lat":"-33.7048","lng":"-70.0969"},{"country_code":"CL","state_code":"12","province_code":"132","name":"Pirque","cp":["9480000"],"lat":"-33.7187","lng":"-70.5066"},{"country_code":"CL","state_code":"12","province_code":"133","name":"Colina","cp":["9340000"],"lat":"-33.1342","lng":"-70.6157"},{"country_code":"CL","state_code":"12","province_code":"133","name":"Lampa","cp":["9380000"],"lat":"-33.2778","lng":"-70.8748"},{"country_code":"CL","state_code":"12","province_code":"133","name":"Tiltil","cp":["9420000"],"lat":"-33.0624","lng":"-70.876"},{"country_code":"CL","state_code":"12","province_code":"134","name":"San Bernardo","cp":["8050000"],"lat":"-33.6289","lng":"-70.7243"},{"country_code":"CL","state_code":"12","province_code":"134","name":"Buin","cp":["9500000"],"lat":"-33.7481","lng":"-70.7393"},{"country_code":"CL","state_code":"12","province_code":"134","name":"Paine","cp":["9540000"],"lat":"-33.8637","lng":"-70.7581"},{"country_code":"CL","state_code":"12","province_code":"134","name":"Calera De Tango","cp":["9560000"],"lat":"-33.6234","lng":"-70.7904"},{"country_code":"CL","state_code":"12","province_code":"135","name":"Melipilla","cp":["9580000"],"lat":"-33.7439","lng":"-71.194"},{"country_code":"CL","state_code":"12","province_code":"135","name":"Mar\u00eda Pinto","cp":["9620000"],"lat":"-33.4981","lng":"-71.2108"},{"country_code":"CL","state_code":"12","province_code":"135","name":"Curacav\u00ed","cp":["9630000"],"lat":"-33.3664","lng":"-71.0802"},{"country_code":"CL","state_code":"12","province_code":"135","name":"Alhue","cp":["9650000"],"lat":"-34.043","lng":"-71.0566"},{"country_code":"CL","state_code":"12","province_code":"135","name":"San Pedro","cp":["9660000"],"lat":"-33.9318","lng":"-71.4529"},{"country_code":"CL","state_code":"12","province_code":"136","name":"Talagante","cp":["9670000"],"lat":"-33.6823","lng":"-70.8951"},{"country_code":"CL","state_code":"12","province_code":"136","name":"Padre Hurtado","cp":["9710000"],"lat":"-33.5572","lng":"-70.8708"},{"country_code":"CL","state_code":"12","province_code":"136","name":"Pe\u00f1aflor","cp":["9750000"],"lat":"-33.6109","lng":"-70.894"},{"country_code":"CL","state_code":"12","province_code":"136","name":"Isla De Maipo","cp":["9790000"],"lat":"-33.7485","lng":"-70.9457"},{"country_code":"CL","state_code":"12","province_code":"136","name":"El Monte","cp":["9810000"],"lat":"-33.6671","lng":"-71.0324"},{"country_code":"CL","state_code":"14","province_code":"101","name":"Puerto Montt","cp":["5480000"],"lat":"-41.4892","lng":"-72.7953"},{"country_code":"CL","state_code":"14","province_code":"101","name":"Puerto Varas","cp":["5550000"],"lat":"-41.1914","lng":"-72.3881"},{"country_code":"CL","state_code":"14","province_code":"101","name":"Cochamo","cp":["5560000"],"lat":"-41.7611","lng":"-72.0929"},{"country_code":"CL","state_code":"14","province_code":"101","name":"Calbuco","cp":["5570000"],"lat":"-41.7231","lng":"-73.1951"},{"country_code":"CL","state_code":"14","province_code":"101","name":"Maull\u00edn","cp":["5580000"],"lat":"-41.6324","lng":"-73.5083"},{"country_code":"CL","state_code":"14","province_code":"101","name":"Los Muermos","cp":["5590000"],"lat":"-41.398","lng":"-73.5826"},{"country_code":"CL","state_code":"14","province_code":"101","name":"Fresia","cp":["5600000"],"lat":"-41.1544","lng":"-73.6065"},{"country_code":"CL","state_code":"14","province_code":"101","name":"Llanquihue","cp":["5610000"],"lat":"-41.2381","lng":"-73.1396"},{"country_code":"CL","state_code":"14","province_code":"101","name":"Frutillar","cp":["5620000"],"lat":"-41.0872","lng":"-73.0956"},{"country_code":"CL","state_code":"14","province_code":"102","name":"Castro","cp":["5700000"],"lat":"-42.4741","lng":"-73.8041"},{"country_code":"CL","state_code":"14","province_code":"102","name":"Ancud","cp":["5710000"],"lat":"-42.0176","lng":"-73.8022"},{"country_code":"CL","state_code":"14","province_code":"102","name":"Quemchi","cp":["5720000"],"lat":"-42.1338","lng":"-73.5172"},{"country_code":"CL","state_code":"14","province_code":"102","name":"Dalcahue","cp":["5730000"],"lat":"-42.309","lng":"-73.8338"},{"country_code":"CL","state_code":"14","province_code":"102","name":"Curaco De V\u00e9lez","cp":["5740000"],"lat":"-42.4268","lng":"-73.5787"},{"country_code":"CL","state_code":"14","province_code":"102","name":"Quinchao","cp":["5750000"],"lat":"-42.6446","lng":"-73.2776"},{"country_code":"CL","state_code":"14","province_code":"102","name":"Puqueld\u00f3n","cp":["5760000"],"lat":"-42.627","lng":"-73.6369"},{"country_code":"CL","state_code":"14","province_code":"102","name":"Chonchi","cp":["5770000"],"lat":"-42.6821","lng":"-73.9306"},{"country_code":"CL","state_code":"14","province_code":"102","name":"Queilen","cp":["5780000"],"lat":"-42.8557","lng":"-73.5644"},{"country_code":"CL","state_code":"14","province_code":"102","name":"Quell\u00f3n","cp":["5790000"],"lat":"-43.1518","lng":"-73.9954"},{"country_code":"CL","state_code":"14","province_code":"103","name":"Osorno","cp":["5290000"],"lat":"-40.6108","lng":"-73.0877"},{"country_code":"CL","state_code":"14","province_code":"103","name":"San Pablo","cp":["5350000"],"lat":"-40.4267","lng":"-73.1621"},{"country_code":"CL","state_code":"14","province_code":"103","name":"Puyehue","cp":["5360000"],"lat":"-40.7255","lng":"-72.3841"},{"country_code":"CL","state_code":"14","province_code":"103","name":"Puerto Octay","cp":["5370000"],"lat":"-40.9336","lng":"-72.5994"},{"country_code":"CL","state_code":"14","province_code":"103","name":"Purranque","cp":["5380000"],"lat":"-40.9351","lng":"-73.4583"},{"country_code":"CL","state_code":"14","province_code":"103","name":"R\u00edo Negro","cp":["5390000"],"lat":"-40.7702","lng":"-73.4175"},{"country_code":"CL","state_code":"14","province_code":"103","name":"San Juan De La Costa","cp":["5400000"],"lat":"-40.5086","lng":"-73.5594"},{"country_code":"CL","state_code":"14","province_code":"104","name":"Chait\u00e9n","cp":["5850000"],"lat":"-43.0941","lng":"-72.5759"},{"country_code":"CL","state_code":"14","province_code":"104","name":"Hualaihue","cp":["5860000"],"lat":"-42.1772","lng":"-72.377"},{"country_code":"CL","state_code":"14","province_code":"104","name":"Futaleuf\u00fa","cp":["5870000"],"lat":"-43.1811","lng":"-72.0071"},{"country_code":"CL","state_code":"14","province_code":"104","name":"Palena","cp":["5880000"],"lat":"-43.6824","lng":"-71.9833"},{"country_code":"CL","state_code":"15","province_code":"11","name":"Iquique","cp":["1100000"],"lat":"-20.9409","lng":"-70.0412"},{"country_code":"CL","state_code":"15","province_code":"11","name":"Alto Hospicio","cp":["1130000"],"lat":"-20.1913","lng":"-70.0119"},{"country_code":"CL","state_code":"15","province_code":"14","name":"Huara","cp":["1140000"],"lat":"-19.5359","lng":"-69.9848"},{"country_code":"CL","state_code":"15","province_code":"14","name":"Camina","cp":["1150000"],"lat":"-19.3737","lng":"-69.5056"},{"country_code":"CL","state_code":"15","province_code":"14","name":"Colchane","cp":["1160000"],"lat":"-19.3531","lng":"-68.847"},{"country_code":"CL","state_code":"15","province_code":"14","name":"Pica","cp":["1170000"],"lat":"-20.4796","lng":"-68.9119"},{"country_code":"CL","state_code":"15","province_code":"14","name":"Pozo Almonte","cp":["1180000"],"lat":"-20.7702","lng":"-69.5045"},{"country_code":"CL","state_code":"16","province_code":"151","name":"Arica","cp":["1000000"],"lat":"-18.5377","lng":"-69.9746"},{"country_code":"CL","state_code":"16","province_code":"151","name":"Camarones","cp":["1040000"],"lat":"-18.93","lng":"-69.6991"},{"country_code":"CL","state_code":"16","province_code":"152","name":"Putre","cp":["1070000"],"lat":"-18.4287","lng":"-69.3116"},{"country_code":"CL","state_code":"16","province_code":"152","name":"General Lagos","cp":["1080000"],"lat":"-17.8286","lng":"-69.5749"},{"country_code":"CL","state_code":"17","province_code":"141","name":"Valdivia","cp":["5090000"],"lat":"-39.8178","lng":"-73.1751"},{"country_code":"CL","state_code":"17","province_code":"141","name":"Mariquina","cp":["5150000"],"lat":"-39.5131","lng":"-73.0196"},{"country_code":"CL","state_code":"17","province_code":"141","name":"Lanco","cp":["5160000"],"lat":"-39.5121","lng":"-72.6215"},{"country_code":"CL","state_code":"17","province_code":"141","name":"Los Lagos","cp":["5170000"],"lat":"-39.8784","lng":"-72.5546"},{"country_code":"CL","state_code":"17","province_code":"141","name":"Corral","cp":["5190000"],"lat":"-39.9849","lng":"-73.3715"},{"country_code":"CL","state_code":"17","province_code":"141","name":"Mafil","cp":["5200000"],"lat":"-39.692","lng":"-72.8638"},{"country_code":"CL","state_code":"17","province_code":"141","name":"Panguipulli","cp":["5210000"],"lat":"-39.7146","lng":"-72.0299"},{"country_code":"CL","state_code":"17","province_code":"141","name":"Paillaco","cp":["5230000"],"lat":"-40.0741","lng":"-72.8436"},{"country_code":"CL","state_code":"17","province_code":"142","name":"Futrono","cp":["5180000"],"lat":"-40.1189","lng":"-72.1154"},{"country_code":"CL","state_code":"17","province_code":"142","name":"La Uni\u00f3n","cp":["5220000"],"lat":"-40.2013","lng":"-73.2223"},{"country_code":"CL","state_code":"17","province_code":"142","name":"R\u00edo Bueno","cp":["5240000"],"lat":"-40.4959","lng":"-72.5357"},{"country_code":"CL","state_code":"17","province_code":"142","name":"Lago Ranco","cp":["5250000"],"lat":"-40.3732","lng":"-72.1658"}]