[{"country_code":"CZ","state_code":"52","province_code":"3100","name":"Vinohrady","cp":["100 00"],"lat":"50.0036","lng":"14.4619"},{"country_code":"CZ","state_code":"52","province_code":"3100","name":"Praha 10-Vinohrady","cp":["100 00"],"lat":"50.0036","lng":"14.4619"},{"country_code":"CZ","state_code":"52","province_code":"3100","name":"Praha 10-Male\u0161ice","cp":["100 00"],"lat":"50.0036","lng":"14.4619"},{"country_code":"CZ","state_code":"52","province_code":"3100","name":"Praha 10-\u017di\u017ekov","cp":["100 00"],"lat":"50.0036","lng":"14.4619"},{"country_code":"CZ","state_code":"52","province_code":"3100","name":"Vr\u0161ovice","cp":["100 00"],"lat":"50.0036","lng":"14.4619"},{"country_code":"CZ","state_code":"52","province_code":"3100","name":"\u017di\u017ekov","cp":["100 00"],"lat":"50.0036","lng":"14.4619"},{"country_code":"CZ","state_code":"52","province_code":"3100","name":"Praha 10-Stra\u0161nice","cp":["100 00"],"lat":"50.0036","lng":"14.4619"},{"country_code":"CZ","state_code":"52","province_code":"3100","name":"Male\u0161ice","cp":["100 00"],"lat":"50.0036","lng":"14.4619"},{"country_code":"CZ","state_code":"52","province_code":"3100","name":"Stra\u0161nice","cp":["100 00"],"lat":"50.0036","lng":"14.4619"},{"country_code":"CZ","state_code":"52","province_code":"3100","name":"Praha 10-Vr\u0161ovice","cp":["100 00"],"lat":"50.0036","lng":"14.4619"},{"country_code":"CZ","state_code":"52","province_code":"3100","name":"Vinohrady","cp":["101 00"],"lat":"50.0036","lng":"14.4619"},{"country_code":"CZ","state_code":"52","province_code":"3100","name":"Praha 10-Z\u00e1b\u011bhlice","cp":["101 00"],"lat":"50.0036","lng":"14.4619"},{"country_code":"CZ","state_code":"52","province_code":"3100","name":"Praha 10-Vr\u0161ovice","cp":["101 00"],"lat":"50.0036","lng":"14.4619"},{"country_code":"CZ","state_code":"52","province_code":"3100","name":"Praha 10-Michle","cp":["101 00"],"lat":"50.0036","lng":"14.4619"},{"country_code":"CZ","state_code":"52","province_code":"3100","name":"Z\u00e1b\u011bhlice","cp":["101 00"],"lat":"50.0036","lng":"14.4619"},{"country_code":"CZ","state_code":"52","province_code":"3100","name":"Vr\u0161ovice","cp":["101 00"],"lat":"50.0036","lng":"14.4619"},{"country_code":"CZ","state_code":"52","province_code":"3100","name":"Praha 10-Vinohrady","cp":["101 00"],"lat":"50.0036","lng":"14.4619"},{"country_code":"CZ","state_code":"52","province_code":"3100","name":"Michle","cp":["101 00"],"lat":"50.0036","lng":"14.4619"},{"country_code":"CZ","state_code":"52","province_code":"3100","name":"Hostiva\u0159","cp":["102 00"],"lat":"50.0667","lng":"14.55"},{"country_code":"CZ","state_code":"52","province_code":"3100","name":"Praha 10-Hostiva\u0159","cp":["102 00"],"lat":"50.0667","lng":"14.55"},{"country_code":"CZ","state_code":"52","province_code":"3100","name":"\u0160t\u011brboholy","cp":["102 00"],"lat":"50.0667","lng":"14.55"},{"country_code":"CZ","state_code":"52","province_code":"3100","name":"Praha 10-\u0160t\u011brboholy","cp":["102 00"],"lat":"50.0667","lng":"14.55"},{"country_code":"CZ","state_code":"52","province_code":"3100","name":"Praha 10-Kolovraty","cp":["103 00"],"lat":"50.0125","lng":"14.625"},{"country_code":"CZ","state_code":"52","province_code":"3100","name":"Lipany","cp":["103 00"],"lat":"50","lng":"14.6167"},{"country_code":"CZ","state_code":"52","province_code":"3100","name":"Praha 10-Lipany","cp":["103 00"],"lat":"50.0125","lng":"14.625"},{"country_code":"CZ","state_code":"52","province_code":"3100","name":"Kolovraty","cp":["103 00"],"lat":"50.0167","lng":"14.6333"},{"country_code":"CZ","state_code":"52","province_code":"3100","name":"Praha 10-Nedv\u011bz\u00ed","cp":["103 00"],"lat":"50.0125","lng":"14.625"},{"country_code":"CZ","state_code":"52","province_code":"3100","name":"Nedv\u011bz\u00ed","cp":["103 00"],"lat":"50.0167","lng":"14.65"},{"country_code":"CZ","state_code":"52","province_code":"3100","name":"Praha 10-Benice","cp":["103 00"],"lat":"50.0125","lng":"14.625"},{"country_code":"CZ","state_code":"52","province_code":"3100","name":"Benice","cp":["103 00"],"lat":"50.0167","lng":"14.6"},{"country_code":"CZ","state_code":"52","province_code":"3100","name":"K\u0159eslice","cp":["104 00"],"lat":"50.0333","lng":"14.5667"},{"country_code":"CZ","state_code":"52","province_code":"3100","name":"Pitkovice","cp":["104 00"],"lat":"50.0167","lng":"14.5833"},{"country_code":"CZ","state_code":"52","province_code":"3100","name":"Praha 10-Kr\u00e1lovice","cp":["104 00"],"lat":"50.0333","lng":"14.6033"},{"country_code":"CZ","state_code":"52","province_code":"3100","name":"H\u00e1jek","cp":["104 00"],"lat":"50.05","lng":"14.6333"},{"country_code":"CZ","state_code":"52","province_code":"3100","name":"Praha 10-K\u0159eslice","cp":["104 00"],"lat":"50.0333","lng":"14.6033"},{"country_code":"CZ","state_code":"52","province_code":"3100","name":"Kr\u00e1lovice","cp":["104 00"],"lat":"50.0333","lng":"14.6333"},{"country_code":"CZ","state_code":"52","province_code":"3100","name":"Uh\u0159\u00edn\u011bves","cp":["104 00"],"lat":"50.0333","lng":"14.6"},{"country_code":"CZ","state_code":"52","province_code":"3100","name":"Praha 10-H\u00e1jek","cp":["104 00"],"lat":"50.0333","lng":"14.6033"},{"country_code":"CZ","state_code":"52","province_code":"3100","name":"Praha 10-Pitkovice","cp":["104 00"],"lat":"50.0333","lng":"14.6033"},{"country_code":"CZ","state_code":"52","province_code":"3100","name":"Praha 10-Uh\u0159\u00edn\u011bves","cp":["104 00"],"lat":"50.0333","lng":"14.6033"},{"country_code":"CZ","state_code":"52","province_code":"3100","name":"Praha 10-Z\u00e1b\u011bhlice","cp":["106 00"],"lat":"50.0036","lng":"14.4619"},{"country_code":"CZ","state_code":"52","province_code":"3100","name":"Z\u00e1b\u011bhlice","cp":["106 00"],"lat":"50.0036","lng":"14.4619"},{"country_code":"CZ","state_code":"52","province_code":"3100","name":"Dube\u010d","cp":["107 00"],"lat":"49.6333","lng":"12.7167"},{"country_code":"CZ","state_code":"52","province_code":"3100","name":"Praha 10-Dube\u010d","cp":["107 00"],"lat":"49.6333","lng":"12.7167"},{"country_code":"CZ","state_code":"52","province_code":"3100","name":"Praha 9-Hrdlo\u0159ezy","cp":["108 00"],"lat":"50.0036","lng":"14.4619"},{"country_code":"CZ","state_code":"52","province_code":"3100","name":"Male\u0161ice","cp":["108 00"],"lat":"50.0036","lng":"14.4619"},{"country_code":"CZ","state_code":"52","province_code":"3100","name":"Hrdlo\u0159ezy","cp":["108 00"],"lat":"50.0036","lng":"14.4619"},{"country_code":"CZ","state_code":"52","province_code":"3100","name":"Stra\u0161nice","cp":["108 00"],"lat":"50.0036","lng":"14.4619"},{"country_code":"CZ","state_code":"52","province_code":"3100","name":"Praha 10-Male\u0161ice","cp":["108 00"],"lat":"50.0036","lng":"14.4619"},{"country_code":"CZ","state_code":"52","province_code":"3100","name":"Praha 10-Stra\u0161nice","cp":["108 00"],"lat":"50.0036","lng":"14.4619"},{"country_code":"CZ","state_code":"52","province_code":"3100","name":"Praha 10-Doln\u00ed M\u011bcholupy","cp":["109 00"],"lat":"50.0444","lng":"14.5611"},{"country_code":"CZ","state_code":"52","province_code":"3100","name":"Petrovice","cp":["109 00"],"lat":"50.0333","lng":"14.55"},{"country_code":"CZ","state_code":"52","province_code":"3100","name":"Praha 10-Horn\u00ed M\u011bcholupy","cp":["109 00"],"lat":"50.0444","lng":"14.5611"},{"country_code":"CZ","state_code":"52","province_code":"3100","name":"Praha 10-Petrovice","cp":["109 00"],"lat":"50.0444","lng":"14.5611"},{"country_code":"CZ","state_code":"52","province_code":"3100","name":"Horn\u00ed M\u011bcholupy","cp":["109 00"],"lat":"50.05","lng":"14.5667"},{"country_code":"CZ","state_code":"52","province_code":"3100","name":"Doln\u00ed M\u011bcholupy","cp":["109 00"],"lat":"50.05","lng":"14.5667"},{"country_code":"CZ","state_code":"52","province_code":"3100","name":"Star\u00e9 M\u011bsto","cp":["110 00"],"lat":"50.4","lng":"16.1667"},{"country_code":"CZ","state_code":"52","province_code":"3100","name":"Nov\u00e9 M\u011bsto","cp":["110 00"],"lat":"50.3667","lng":"16.0417"},{"country_code":"CZ","state_code":"52","province_code":"3100","name":"Josefov","cp":["110 00"],"lat":"50.0902","lng":"14.4169"},{"country_code":"CZ","state_code":"52","province_code":"3100","name":"Praha 1-Josefov","cp":["110 00"],"lat":"50.3667","lng":"16.0417"},{"country_code":"CZ","state_code":"52","province_code":"3100","name":"Vinohrady","cp":["110 00"],"lat":"50.3667","lng":"16.0417"},{"country_code":"CZ","state_code":"52","province_code":"3100","name":"Praha 1-Nov\u00e9 M\u011bsto","cp":["110 00"],"lat":"50.3667","lng":"16.0417"},{"country_code":"CZ","state_code":"52","province_code":"3100","name":"Praha 1-Vinohrady","cp":["110 00"],"lat":"50.3667","lng":"16.0417"},{"country_code":"CZ","state_code":"52","province_code":"3100","name":"Praha 1-Star\u00e9 M\u011bsto","cp":["110 00"],"lat":"50.3667","lng":"16.0417"},{"country_code":"CZ","state_code":"52","province_code":"3100","name":"Praha 1-Mal\u00e1 Strana","cp":["118 00"],"lat":"50.3667","lng":"16.0417"},{"country_code":"CZ","state_code":"52","province_code":"3100","name":"Hrad\u010dany","cp":["118 00"],"lat":"50.3667","lng":"16.0417"},{"country_code":"CZ","state_code":"52","province_code":"3100","name":"Mal\u00e1 Strana","cp":["118 00"],"lat":"50.3667","lng":"16.0417"},{"country_code":"CZ","state_code":"52","province_code":"3100","name":"Praha 1-Hole\u0161ovice","cp":["118 00"],"lat":"50.3667","lng":"16.0417"},{"country_code":"CZ","state_code":"52","province_code":"3100","name":"Hole\u0161ovice","cp":["118 00"],"lat":"50.3667","lng":"16.0417"},{"country_code":"CZ","state_code":"52","province_code":"3100","name":"Praha 1-Hrad\u010dany","cp":["118 00"],"lat":"50.3667","lng":"16.0417"},{"country_code":"CZ","state_code":"52","province_code":"3100","name":"Hrad\u010dany","cp":["119 00"],"lat":"50.3667","lng":"16.0417"},{"country_code":"CZ","state_code":"52","province_code":"3100","name":"Praha 1-Hrad\u010dany","cp":["119 00"],"lat":"50.3667","lng":"16.0417"},{"country_code":"CZ","state_code":"52","province_code":"3100","name":"Praha 2-Vinohrady","cp":["120 00"],"lat":"50.0761","lng":"14.4477"},{"country_code":"CZ","state_code":"52","province_code":"3100","name":"Vinohrady","cp":["120 00"],"lat":"50.0761","lng":"14.4477"},{"country_code":"CZ","state_code":"52","province_code":"3100","name":"Praha 2-Nov\u00e9 M\u011bsto","cp":["120 00"],"lat":"50.0785","lng":"14.4205"},{"country_code":"CZ","state_code":"52","province_code":"3100","name":"Nov\u00e9 M\u011bsto","cp":["120 00"],"lat":"50.0783","lng":"14.4209"},{"country_code":"CZ","state_code":"52","province_code":"3100","name":"Vy\u0161ehrad","cp":["128 00"],"lat":"50.0644","lng":"14.42"},{"country_code":"CZ","state_code":"52","province_code":"3100","name":"Nusle","cp":["128 00"],"lat":"50.0646","lng":"14.4399"},{"country_code":"CZ","state_code":"52","province_code":"3100","name":"Praha 2-Nusle","cp":["128 00"],"lat":"50.0646","lng":"14.4399"},{"country_code":"CZ","state_code":"52","province_code":"3100","name":"Praha 2-Vy\u0161ehrad","cp":["128 00"],"lat":"50.0644","lng":"14.42"},{"country_code":"CZ","state_code":"52","province_code":"3100","name":"Nov\u00e9 M\u011bsto","cp":["128 00"],"lat":"50.0734","lng":"14.4153"},{"country_code":"CZ","state_code":"52","province_code":"3100","name":"Praha 2-Nov\u00e9 M\u011bsto","cp":["128 00"],"lat":"50.0734","lng":"14.4153"},{"country_code":"CZ","state_code":"52","province_code":"3100","name":"Praha 3-\u017di\u017ekov","cp":["130 00"],"lat":"50.0815","lng":"14.4565"},{"country_code":"CZ","state_code":"52","province_code":"3100","name":"Praha 3-Vyso\u010dany","cp":["130 00"],"lat":"50.0854","lng":"14.454"},{"country_code":"CZ","state_code":"52","province_code":"3100","name":"Praha 3-Vinohrady","cp":["130 00"],"lat":"50.0777","lng":"14.4528"},{"country_code":"CZ","state_code":"52","province_code":"3100","name":"Vyso\u010dany","cp":["130 00"],"lat":"50.0854","lng":"14.454"},{"country_code":"CZ","state_code":"52","province_code":"3100","name":"Stra\u0161nice","cp":["130 00"],"lat":"50.0765","lng":"14.5104"},{"country_code":"CZ","state_code":"52","province_code":"3100","name":"Vinohrady","cp":["130 00"],"lat":"50.0777","lng":"14.4528"},{"country_code":"CZ","state_code":"52","province_code":"3100","name":"\u017di\u017ekov","cp":["130 00"],"lat":"50.0815","lng":"14.4565"},{"country_code":"CZ","state_code":"52","province_code":"3100","name":"Male\u0161ice","cp":["130 00"],"lat":"50.0877","lng":"14.5212"},{"country_code":"CZ","state_code":"52","province_code":"3100","name":"Praha 3-Stra\u0161nice","cp":["130 00"],"lat":"50.0765","lng":"14.5104"},{"country_code":"CZ","state_code":"52","province_code":"3100","name":"Praha 10-Male\u0161ice","cp":["130 00"],"lat":"50.0877","lng":"14.5212"},{"country_code":"CZ","state_code":"52","province_code":"3100","name":"Michle","cp":["140 00"],"lat":"50.0712","lng":"14.2758"},{"country_code":"CZ","state_code":"52","province_code":"3100","name":"Podol\u00ed","cp":["140 00"],"lat":"50.0712","lng":"14.2758"},{"country_code":"CZ","state_code":"52","province_code":"3100","name":"Praha 4-Podol\u00ed","cp":["140 00"],"lat":"50.0712","lng":"14.2758"},{"country_code":"CZ","state_code":"52","province_code":"3100","name":"Praha 4-Nusle","cp":["140 00"],"lat":"50.0712","lng":"14.2758"},{"country_code":"CZ","state_code":"52","province_code":"3100","name":"Praha 4-Kr\u010d","cp":["140 00"],"lat":"50.0712","lng":"14.2758"},{"country_code":"CZ","state_code":"52","province_code":"3100","name":"Vinohrady","cp":["140 00"],"lat":"50.0712","lng":"14.2758"},{"country_code":"CZ","state_code":"52","province_code":"3100","name":"Praha 4-Michle","cp":["140 00"],"lat":"50.0712","lng":"14.2758"},{"country_code":"CZ","state_code":"52","province_code":"3100","name":"Praha 4-Vinohrady","cp":["140 00"],"lat":"50.0712","lng":"14.2758"},{"country_code":"CZ","state_code":"52","province_code":"3100","name":"Nusle","cp":["140 00"],"lat":"50.0712","lng":"14.2758"},{"country_code":"CZ","state_code":"52","province_code":"3100","name":"Kr\u010d","cp":["140 00"],"lat":"50.0712","lng":"14.2758"},{"country_code":"CZ","state_code":"52","province_code":"3100","name":"Chodov","cp":["141 00"],"lat":"50.0712","lng":"14.2758"},{"country_code":"CZ","state_code":"52","province_code":"3100","name":"Z\u00e1b\u011bhlice","cp":["141 00"],"lat":"50.0712","lng":"14.2758"},{"country_code":"CZ","state_code":"52","province_code":"3100","name":"Praha 4-Michle","cp":["141 00"],"lat":"50.0712","lng":"14.2758"},{"country_code":"CZ","state_code":"52","province_code":"3100","name":"Praha 4-Z\u00e1b\u011bhlice","cp":["141 00"],"lat":"50.0712","lng":"14.2758"},{"country_code":"CZ","state_code":"52","province_code":"3100","name":"Praha 4-Chodov","cp":["141 00"],"lat":"50.0712","lng":"14.2758"},{"country_code":"CZ","state_code":"52","province_code":"3100","name":"Michle","cp":["141 00"],"lat":"50.0712","lng":"14.2758"},{"country_code":"CZ","state_code":"52","province_code":"3100","name":"Praha 4-Mod\u0159any","cp":["142 00"],"lat":"49.9667","lng":"14.3778"},{"country_code":"CZ","state_code":"52","province_code":"3100","name":"Kr\u010d","cp":["142 00"],"lat":"49.9667","lng":"14.3778"},{"country_code":"CZ","state_code":"52","province_code":"3100","name":"Mod\u0159any","cp":["142 00"],"lat":"49.9667","lng":"14.3778"},{"country_code":"CZ","state_code":"52","province_code":"3100","name":"Praha 4-P\u00edsnice","cp":["142 00"],"lat":"49.9667","lng":"14.3778"},{"country_code":"CZ","state_code":"52","province_code":"3100","name":"Bran\u00edk","cp":["142 00"],"lat":"49.9667","lng":"14.3778"},{"country_code":"CZ","state_code":"52","province_code":"3100","name":"Lhotka","cp":["142 00"],"lat":"49.9","lng":"14.2"},{"country_code":"CZ","state_code":"52","province_code":"3100","name":"Praha 4-Kam\u00fdk","cp":["142 00"],"lat":"49.9667","lng":"14.3778"},{"country_code":"CZ","state_code":"52","province_code":"3100","name":"Praha 4-Lhotka","cp":["142 00"],"lat":"49.9667","lng":"14.3778"},{"country_code":"CZ","state_code":"52","province_code":"3100","name":"Praha 4-Libu\u0161","cp":["142 00"],"lat":"49.9667","lng":"14.3778"},{"country_code":"CZ","state_code":"52","province_code":"3100","name":"Praha 4-Bran\u00edk","cp":["142 00"],"lat":"49.9667","lng":"14.3778"},{"country_code":"CZ","state_code":"52","province_code":"3100","name":"Praha 4-Kr\u010d","cp":["142 00"],"lat":"49.9667","lng":"14.3778"},{"country_code":"CZ","state_code":"52","province_code":"3100","name":"Kam\u00fdk","cp":["142 00"],"lat":"49.9667","lng":"14.3778"},{"country_code":"CZ","state_code":"52","province_code":"3100","name":"P\u00edsnice","cp":["142 00"],"lat":"49.9833","lng":"14.4667"},{"country_code":"CZ","state_code":"52","province_code":"3100","name":"Libu\u0161","cp":["142 00"],"lat":"50.0167","lng":"14.4667"},{"country_code":"CZ","state_code":"52","province_code":"3100","name":"Komo\u0159any","cp":["143 00"],"lat":"50.5333","lng":"13.5667"},{"country_code":"CZ","state_code":"52","province_code":"3100","name":"Praha 4-To\u010dn\u00e1","cp":["143 00"],"lat":"50.1611","lng":"14.15"},{"country_code":"CZ","state_code":"52","province_code":"3100","name":"Praha 4-Cholupice","cp":["143 00"],"lat":"50.1611","lng":"14.15"},{"country_code":"CZ","state_code":"52","province_code":"3100","name":"Mod\u0159any","cp":["143 00"],"lat":"50.1611","lng":"14.15"},{"country_code":"CZ","state_code":"52","province_code":"3100","name":"Praha 4-Kam\u00fdk","cp":["143 00"],"lat":"50.1611","lng":"14.15"},{"country_code":"CZ","state_code":"52","province_code":"3100","name":"Kam\u00fdk","cp":["143 00"],"lat":"50.1611","lng":"14.15"},{"country_code":"CZ","state_code":"52","province_code":"3100","name":"To\u010dn\u00e1","cp":["143 00"],"lat":"49.9667","lng":"14.4333"},{"country_code":"CZ","state_code":"52","province_code":"3100","name":"Cholupice","cp":["143 00"],"lat":"49.9833","lng":"14.45"},{"country_code":"CZ","state_code":"52","province_code":"3100","name":"Praha 4-Komo\u0159any","cp":["143 00"],"lat":"50.1611","lng":"14.15"},{"country_code":"CZ","state_code":"52","province_code":"3100","name":"Praha 4-Mod\u0159any","cp":["143 00"],"lat":"50.1611","lng":"14.15"},{"country_code":"CZ","state_code":"52","province_code":"3100","name":"Bran\u00edk","cp":["147 00"],"lat":"50.0333","lng":"14.4167"},{"country_code":"CZ","state_code":"52","province_code":"3100","name":"Praha 4-Podol\u00ed","cp":["147 00"],"lat":"50.0333","lng":"14.4167"},{"country_code":"CZ","state_code":"52","province_code":"3100","name":"Praha 4-Hodkovi\u010dky","cp":["147 00"],"lat":"50.0333","lng":"14.4167"},{"country_code":"CZ","state_code":"52","province_code":"3100","name":"Praha 4-Bran\u00edk","cp":["147 00"],"lat":"50.0333","lng":"14.4167"},{"country_code":"CZ","state_code":"52","province_code":"3100","name":"Podol\u00ed","cp":["147 00"],"lat":"50.0333","lng":"14.4167"},{"country_code":"CZ","state_code":"52","province_code":"3100","name":"Hodkovi\u010dky","cp":["147 00"],"lat":"50.0333","lng":"14.4167"},{"country_code":"CZ","state_code":"52","province_code":"3100","name":"Kunratice","cp":["148 00"],"lat":"50.8167","lng":"14.4167"},{"country_code":"CZ","state_code":"52","province_code":"3100","name":"Praha 4-Chodov","cp":["148 00"],"lat":"50.8167","lng":"14.4167"},{"country_code":"CZ","state_code":"52","province_code":"3100","name":"Chodov","cp":["148 00"],"lat":"50.8167","lng":"14.4167"},{"country_code":"CZ","state_code":"52","province_code":"3100","name":"Praha 4-Kunratice","cp":["148 00"],"lat":"50.8167","lng":"14.4167"},{"country_code":"CZ","state_code":"52","province_code":"3100","name":"H\u00e1je","cp":["149 00"],"lat":"49.7","lng":"14.2667"},{"country_code":"CZ","state_code":"52","province_code":"3100","name":"Hostiva\u0159","cp":["149 00"],"lat":"49.85","lng":"14.2056"},{"country_code":"CZ","state_code":"52","province_code":"3100","name":"Chodov","cp":["149 00"],"lat":"49.85","lng":"14.2056"},{"country_code":"CZ","state_code":"52","province_code":"3100","name":"\u0160eberov","cp":["149 00"],"lat":"50.0167","lng":"14.5167"},{"country_code":"CZ","state_code":"52","province_code":"3100","name":"Praha 4-\u0160eberov","cp":["149 00"],"lat":"49.85","lng":"14.2056"},{"country_code":"CZ","state_code":"52","province_code":"3100","name":"Praha 4-\u00dajezd","cp":["149 00"],"lat":"49.85","lng":"14.2056"},{"country_code":"CZ","state_code":"52","province_code":"3100","name":"Praha 4-H\u00e1je","cp":["149 00"],"lat":"49.85","lng":"14.2056"},{"country_code":"CZ","state_code":"52","province_code":"3100","name":"Praha 4-Chodov","cp":["149 00"],"lat":"49.85","lng":"14.2056"},{"country_code":"CZ","state_code":"52","province_code":"3100","name":"Praha 10-Hostiva\u0159","cp":["149 00"],"lat":"49.85","lng":"14.2056"},{"country_code":"CZ","state_code":"52","province_code":"3100","name":"\u00dajezd","cp":["149 00"],"lat":"49.8333","lng":"13.8333"},{"country_code":"CZ","state_code":"52","province_code":"3100","name":"Ko\u0161\u00ed\u0159e","cp":["150 00"],"lat":"50.0667","lng":"14.3833"},{"country_code":"CZ","state_code":"52","province_code":"3100","name":"Praha 5-Mal\u00e1 Strana","cp":["150 00"],"lat":"50.0583","lng":"14.3917"},{"country_code":"CZ","state_code":"52","province_code":"3100","name":"Motol","cp":["150 00"],"lat":"50.0583","lng":"14.3917"},{"country_code":"CZ","state_code":"52","province_code":"3100","name":"Praha 5-Sm\u00edchov","cp":["150 00"],"lat":"50.0583","lng":"14.3917"},{"country_code":"CZ","state_code":"52","province_code":"3100","name":"Mal\u00e1 Strana","cp":["150 00"],"lat":"50.0583","lng":"14.3917"},{"country_code":"CZ","state_code":"52","province_code":"3100","name":"Praha 5-Motol","cp":["150 00"],"lat":"50.0583","lng":"14.3917"},{"country_code":"CZ","state_code":"52","province_code":"3100","name":"Praha 5-Ko\u0161\u00ed\u0159e","cp":["150 00"],"lat":"50.0583","lng":"14.3917"},{"country_code":"CZ","state_code":"52","province_code":"3100","name":"Radlice","cp":["150 00"],"lat":"50.05","lng":"14.4"},{"country_code":"CZ","state_code":"52","province_code":"3100","name":"Praha 5-Radlice","cp":["150 00"],"lat":"50.0583","lng":"14.3917"},{"country_code":"CZ","state_code":"52","province_code":"3100","name":"Sm\u00edchov","cp":["150 00"],"lat":"50.0583","lng":"14.3917"},{"country_code":"CZ","state_code":"52","province_code":"3100","name":"Praha 5-Mal\u00e1 Chuchle","cp":["152 00"],"lat":"50.0333","lng":"14.4"},{"country_code":"CZ","state_code":"52","province_code":"3100","name":"Praha 5-Hlubo\u010depy","cp":["152 00"],"lat":"50.0333","lng":"14.4"},{"country_code":"CZ","state_code":"52","province_code":"3100","name":"Mal\u00e1 Chuchle","cp":["152 00"],"lat":"50.0333","lng":"14.4"},{"country_code":"CZ","state_code":"52","province_code":"3100","name":"Hlubo\u010depy","cp":["152 00"],"lat":"50.0333","lng":"14.4"},{"country_code":"CZ","state_code":"52","province_code":"3100","name":"Praha 5-Radot\u00edn","cp":["153 00"],"lat":"49.65","lng":"14.6"},{"country_code":"CZ","state_code":"52","province_code":"3100","name":"Radot\u00edn","cp":["153 00"],"lat":"49.65","lng":"14.6"},{"country_code":"CZ","state_code":"52","province_code":"3100","name":"Lochkov","cp":["154 00"],"lat":"50","lng":"14.35"},{"country_code":"CZ","state_code":"52","province_code":"3100","name":"Praha 5-Holyn\u011b","cp":["154 00"],"lat":"50.0167","lng":"14.3611"},{"country_code":"CZ","state_code":"52","province_code":"3100","name":"Praha 5-Lochkov","cp":["154 00"],"lat":"50.0167","lng":"14.3611"},{"country_code":"CZ","state_code":"52","province_code":"3100","name":"Praha 5-Slivenec","cp":["154 00"],"lat":"50.0167","lng":"14.3611"},{"country_code":"CZ","state_code":"52","province_code":"3100","name":"Slivenec","cp":["154 00"],"lat":"50.0167","lng":"14.3667"},{"country_code":"CZ","state_code":"52","province_code":"3100","name":"Holyn\u011b","cp":["154 00"],"lat":"50.0333","lng":"14.3667"},{"country_code":"CZ","state_code":"52","province_code":"3100","name":"Praha 5-T\u0159ebonice","cp":["155 00"],"lat":"50.0333","lng":"14.3083"},{"country_code":"CZ","state_code":"52","province_code":"3100","name":"Praha 5-Stod\u016flky","cp":["155 00"],"lat":"50.0333","lng":"14.3083"},{"country_code":"CZ","state_code":"52","province_code":"3100","name":"Zadn\u00ed Kopanina","cp":["155 00"],"lat":"50","lng":"14.3167"},{"country_code":"CZ","state_code":"52","province_code":"3100","name":"\u0158eporyje","cp":["155 00"],"lat":"50.0333","lng":"14.3167"},{"country_code":"CZ","state_code":"52","province_code":"3100","name":"T\u0159ebonice","cp":["155 00"],"lat":"50.05","lng":"14.2833"},{"country_code":"CZ","state_code":"52","province_code":"3100","name":"Praha 5-\u0158eporyje","cp":["155 00"],"lat":"50.0333","lng":"14.3083"},{"country_code":"CZ","state_code":"52","province_code":"3100","name":"Praha 5-Zadn\u00ed Kopanina","cp":["155 00"],"lat":"50.0333","lng":"14.3083"},{"country_code":"CZ","state_code":"52","province_code":"3100","name":"Stod\u016flky","cp":["155 00"],"lat":"50.05","lng":"14.3167"},{"country_code":"CZ","state_code":"52","province_code":"3100","name":"Sob\u00edn","cp":["155 21"],"lat":"50.0667","lng":"14.2667"},{"country_code":"CZ","state_code":"52","province_code":"3100","name":"Praha 5-Zli\u010d\u00edn","cp":["155 21"],"lat":"50.0667","lng":"14.275"},{"country_code":"CZ","state_code":"52","province_code":"3100","name":"Praha 5-Sob\u00edn","cp":["155 21"],"lat":"50.0667","lng":"14.275"},{"country_code":"CZ","state_code":"52","province_code":"3100","name":"Zli\u010d\u00edn","cp":["155 21"],"lat":"50.0667","lng":"14.2833"},{"country_code":"CZ","state_code":"52","province_code":"3100","name":"Lipence","cp":["155 31"],"lat":"49.95","lng":"14.3833"},{"country_code":"CZ","state_code":"52","province_code":"3100","name":"Praha 5-Lipence","cp":["155 31"],"lat":"49.95","lng":"14.3833"},{"country_code":"CZ","state_code":"52","province_code":"3100","name":"Praha 5-Zbraslav","cp":["156 00"],"lat":"48.6333","lng":"14.4333"},{"country_code":"CZ","state_code":"52","province_code":"3100","name":"Zbraslav","cp":["156 00"],"lat":"48.6333","lng":"14.4333"},{"country_code":"CZ","state_code":"52","province_code":"3100","name":"Praha 5-Jinonice","cp":["158 00"],"lat":"50.05","lng":"14.3667"},{"country_code":"CZ","state_code":"52","province_code":"3100","name":"Jinonice","cp":["158 00"],"lat":"50.05","lng":"14.3667"},{"country_code":"CZ","state_code":"52","province_code":"3100","name":"Praha 5-Velk\u00e1 Chuchle","cp":["159 00"],"lat":"50","lng":"14.3917"},{"country_code":"CZ","state_code":"52","province_code":"3100","name":"Praha 5-Mal\u00e1 Chuchle","cp":["159 00"],"lat":"50","lng":"14.3917"},{"country_code":"CZ","state_code":"52","province_code":"3100","name":"Praha 5-Lahovice","cp":["159 00"],"lat":"50","lng":"14.3917"},{"country_code":"CZ","state_code":"52","province_code":"3100","name":"Lahovice","cp":["159 00"],"lat":"49.9833","lng":"14.4"},{"country_code":"CZ","state_code":"52","province_code":"3100","name":"Mal\u00e1 Chuchle","cp":["159 00"],"lat":"50","lng":"14.3917"},{"country_code":"CZ","state_code":"52","province_code":"3100","name":"Velk\u00e1 Chuchle","cp":["159 00"],"lat":"50.0167","lng":"14.3833"},{"country_code":"CZ","state_code":"52","province_code":"3100","name":"Dejvice","cp":["160 00"],"lat":"50.1","lng":"14.3667"},{"country_code":"CZ","state_code":"52","province_code":"3100","name":"Vokovice","cp":["160 00"],"lat":"50.1","lng":"14.3333"},{"country_code":"CZ","state_code":"52","province_code":"3100","name":"Praha 6-Sedlec","cp":["160 00"],"lat":"50.1278","lng":"14.3889"},{"country_code":"CZ","state_code":"52","province_code":"3100","name":"Sm\u00edchov","cp":["160 00"],"lat":"50.1278","lng":"14.3889"},{"country_code":"CZ","state_code":"52","province_code":"3100","name":"Hrad\u010dany","cp":["160 00"],"lat":"50.1278","lng":"14.3889"},{"country_code":"CZ","state_code":"52","province_code":"3100","name":"Bubene\u010d","cp":["160 00"],"lat":"50.1278","lng":"14.3889"},{"country_code":"CZ","state_code":"52","province_code":"3100","name":"Praha 6-Vokovice","cp":["160 00"],"lat":"50.1278","lng":"14.3889"},{"country_code":"CZ","state_code":"52","province_code":"3100","name":"Praha 6-Dejvice","cp":["160 00"],"lat":"50.1278","lng":"14.3889"},{"country_code":"CZ","state_code":"52","province_code":"3100","name":"Praha 5-Sm\u00edchov","cp":["160 00"],"lat":"50.1278","lng":"14.3889"},{"country_code":"CZ","state_code":"52","province_code":"3100","name":"Praha 6-Hrad\u010dany","cp":["160 00"],"lat":"50.1278","lng":"14.3889"},{"country_code":"CZ","state_code":"52","province_code":"3100","name":"Praha 6-Bubene\u010d","cp":["160 00"],"lat":"50.1278","lng":"14.3889"},{"country_code":"CZ","state_code":"52","province_code":"3100","name":"Sedlec","cp":["160 00"],"lat":"50.0953","lng":"14.3668"},{"country_code":"CZ","state_code":"52","province_code":"3100","name":"Liboc","cp":["161 00"],"lat":"50.0833","lng":"14.3167"},{"country_code":"CZ","state_code":"52","province_code":"3100","name":"Praha 6-Liboc","cp":["161 00"],"lat":"50.0833","lng":"14.3167"},{"country_code":"CZ","state_code":"52","province_code":"3100","name":"Praha 6-Ruzyn\u011b","cp":["161 00"],"lat":"50.0833","lng":"14.3167"},{"country_code":"CZ","state_code":"52","province_code":"3100","name":"Ruzyn\u011b","cp":["161 00"],"lat":"50.0833","lng":"14.3167"},{"country_code":"CZ","state_code":"52","province_code":"3100","name":"Liboc","cp":["162 00"],"lat":"50.1","lng":"14.35"},{"country_code":"CZ","state_code":"52","province_code":"3100","name":"B\u0159evnov","cp":["162 00"],"lat":"50.1","lng":"14.35"},{"country_code":"CZ","state_code":"52","province_code":"3100","name":"Veleslav\u00edn","cp":["162 00"],"lat":"50.1","lng":"14.35"},{"country_code":"CZ","state_code":"52","province_code":"3100","name":"Praha 6-St\u0159e\u0161ovice","cp":["162 00"],"lat":"50.1","lng":"14.35"},{"country_code":"CZ","state_code":"52","province_code":"3100","name":"Praha 6-Liboc","cp":["162 00"],"lat":"50.1","lng":"14.35"},{"country_code":"CZ","state_code":"52","province_code":"3100","name":"Praha 6-B\u0159evnov","cp":["162 00"],"lat":"50.1","lng":"14.35"},{"country_code":"CZ","state_code":"52","province_code":"3100","name":"Praha 6-Veleslav\u00edn","cp":["162 00"],"lat":"50.1","lng":"14.35"},{"country_code":"CZ","state_code":"52","province_code":"3100","name":"St\u0159e\u0161ovice","cp":["162 00"],"lat":"50.1","lng":"14.35"},{"country_code":"CZ","state_code":"52","province_code":"3100","name":"\u0158epy","cp":["163 00"],"lat":"50.0667","lng":"14.3"},{"country_code":"CZ","state_code":"52","province_code":"3100","name":"Praha 6-\u0158epy","cp":["163 00"],"lat":"50.0667","lng":"14.3"},{"country_code":"CZ","state_code":"52","province_code":"3100","name":"Praha 6-Nebu\u0161ice","cp":["164 00"],"lat":"50.1167","lng":"14.3083"},{"country_code":"CZ","state_code":"52","province_code":"3100","name":"P\u0159edn\u00ed Kopanina","cp":["164 00"],"lat":"50.1167","lng":"14.3"},{"country_code":"CZ","state_code":"52","province_code":"3100","name":"Praha 6-P\u0159edn\u00ed Kopanina","cp":["164 00"],"lat":"50.1167","lng":"14.3083"},{"country_code":"CZ","state_code":"52","province_code":"3100","name":"Nebu\u0161ice","cp":["164 00"],"lat":"50.1167","lng":"14.3167"},{"country_code":"CZ","state_code":"52","province_code":"3100","name":"Praha 6-Lysolaje","cp":["165 00"],"lat":"50.1333","lng":"14.375"},{"country_code":"CZ","state_code":"52","province_code":"3100","name":"Lysolaje","cp":["165 00"],"lat":"50.1333","lng":"14.3667"},{"country_code":"CZ","state_code":"52","province_code":"3100","name":"Praha 6-Suchdol","cp":["165 00"],"lat":"50.1333","lng":"14.375"},{"country_code":"CZ","state_code":"52","province_code":"3100","name":"Suchdol","cp":["165 00"],"lat":"50.1333","lng":"14.3833"},{"country_code":"CZ","state_code":"52","province_code":"3100","name":"Motol","cp":["169 00"],"lat":"50.1133","lng":"14.35"},{"country_code":"CZ","state_code":"52","province_code":"3100","name":"Praha 5-Motol","cp":["169 00"],"lat":"50.1133","lng":"14.35"},{"country_code":"CZ","state_code":"52","province_code":"3100","name":"Praha 6-B\u0159evnov","cp":["169 00"],"lat":"50.1133","lng":"14.35"},{"country_code":"CZ","state_code":"52","province_code":"3100","name":"St\u0159e\u0161ovice","cp":["169 00"],"lat":"50.1133","lng":"14.35"},{"country_code":"CZ","state_code":"52","province_code":"3100","name":"B\u0159evnov","cp":["169 00"],"lat":"50.1133","lng":"14.35"},{"country_code":"CZ","state_code":"52","province_code":"3100","name":"Praha 6-St\u0159e\u0161ovice","cp":["169 00"],"lat":"50.1133","lng":"14.35"},{"country_code":"CZ","state_code":"52","province_code":"3100","name":"Bubene\u010d","cp":["170 00"],"lat":"50.1019","lng":"14.4001"},{"country_code":"CZ","state_code":"52","province_code":"3100","name":"Hole\u0161ovice","cp":["170 00"],"lat":"50.1013","lng":"14.45"},{"country_code":"CZ","state_code":"52","province_code":"3100","name":"Praha 7-Bubene\u010d","cp":["170 00"],"lat":"50.1019","lng":"14.4001"},{"country_code":"CZ","state_code":"52","province_code":"3100","name":"Praha 7-Hole\u0161ovice","cp":["170 00"],"lat":"50.1013","lng":"14.45"},{"country_code":"CZ","state_code":"52","province_code":"3100","name":"Praha 7-Libe\u0148","cp":["171 00"],"lat":"50.1179","lng":"14.417"},{"country_code":"CZ","state_code":"52","province_code":"3100","name":"Troja","cp":["171 00"],"lat":"50.1167","lng":"14.4127"},{"country_code":"CZ","state_code":"52","province_code":"3100","name":"Praha 7-Troja","cp":["171 00"],"lat":"50.1167","lng":"14.4127"},{"country_code":"CZ","state_code":"52","province_code":"3100","name":"Libe\u0148","cp":["171 00"],"lat":"50.1179","lng":"14.417"},{"country_code":"CZ","state_code":"52","province_code":"3100","name":"Troja","cp":["180 00"],"lat":"49.9738","lng":"14.819"},{"country_code":"CZ","state_code":"52","province_code":"3100","name":"\u017di\u017ekov","cp":["180 00"],"lat":"49.9738","lng":"14.819"},{"country_code":"CZ","state_code":"52","province_code":"3100","name":"Praha 8-Troja","cp":["180 00"],"lat":"49.9738","lng":"14.819"},{"country_code":"CZ","state_code":"52","province_code":"3100","name":"Libe\u0148","cp":["180 00"],"lat":"49.9738","lng":"14.819"},{"country_code":"CZ","state_code":"52","province_code":"3100","name":"Praha 8-\u017di\u017ekov","cp":["180 00"],"lat":"49.9738","lng":"14.819"},{"country_code":"CZ","state_code":"52","province_code":"3100","name":"Praha 8-Libe\u0148","cp":["180 00"],"lat":"49.9738","lng":"14.819"},{"country_code":"CZ","state_code":"52","province_code":"3100","name":"Praha 8-Troja","cp":["181 00"],"lat":"50.1333","lng":"14.425"},{"country_code":"CZ","state_code":"52","province_code":"3100","name":"\u010cimice","cp":["181 00"],"lat":"50.1333","lng":"14.4333"},{"country_code":"CZ","state_code":"52","province_code":"3100","name":"Praha 8-\u010cimice","cp":["181 00"],"lat":"50.1333","lng":"14.425"},{"country_code":"CZ","state_code":"52","province_code":"3100","name":"Praha 8-Bohnice","cp":["181 00"],"lat":"50.1333","lng":"14.425"},{"country_code":"CZ","state_code":"52","province_code":"3100","name":"Bohnice","cp":["181 00"],"lat":"50.1333","lng":"14.4167"},{"country_code":"CZ","state_code":"52","province_code":"3100","name":"Troja","cp":["181 00"],"lat":"50.1333","lng":"14.425"},{"country_code":"CZ","state_code":"52","province_code":"3100","name":"Praha 8-\u010e\u00e1blice","cp":["182 00"],"lat":"50.1444","lng":"14.4833"},{"country_code":"CZ","state_code":"52","province_code":"3100","name":"Kobylisy","cp":["182 00"],"lat":"50.1167","lng":"14.4667"},{"country_code":"CZ","state_code":"52","province_code":"3100","name":"Praha 8-B\u0159ezin\u011bves","cp":["182 00"],"lat":"50.1444","lng":"14.4833"},{"country_code":"CZ","state_code":"52","province_code":"3100","name":"\u010e\u00e1blice","cp":["182 00"],"lat":"50.15","lng":"14.5"},{"country_code":"CZ","state_code":"52","province_code":"3100","name":"Praha 8-Libe\u0148","cp":["182 00"],"lat":"50.1444","lng":"14.4833"},{"country_code":"CZ","state_code":"52","province_code":"3100","name":"St\u0159\u00ed\u017ekov","cp":["182 00"],"lat":"50.1444","lng":"14.4833"},{"country_code":"CZ","state_code":"52","province_code":"3100","name":"Praha 8-Kobylisy","cp":["182 00"],"lat":"50.1444","lng":"14.4833"},{"country_code":"CZ","state_code":"52","province_code":"3100","name":"Praha 8-St\u0159\u00ed\u017ekov","cp":["182 00"],"lat":"50.1444","lng":"14.4833"},{"country_code":"CZ","state_code":"52","province_code":"3100","name":"Libe\u0148","cp":["182 00"],"lat":"50.1444","lng":"14.4833"},{"country_code":"CZ","state_code":"52","province_code":"3100","name":"B\u0159ezin\u011bves","cp":["182 00"],"lat":"50.1667","lng":"14.4833"},{"country_code":"CZ","state_code":"52","province_code":"3100","name":"Doln\u00ed Chabry","cp":["184 00"],"lat":"50.15","lng":"14.45"},{"country_code":"CZ","state_code":"52","province_code":"3100","name":"Praha 8-Doln\u00ed Chabry","cp":["184 00"],"lat":"50.15","lng":"14.45"},{"country_code":"CZ","state_code":"52","province_code":"3100","name":"Nov\u00e9 M\u011bsto","cp":["186 00"],"lat":"48.9667","lng":"16.9833"},{"country_code":"CZ","state_code":"52","province_code":"3100","name":"Praha 8-Nov\u00e9 M\u011bsto","cp":["186 00"],"lat":"48.9667","lng":"16.9833"},{"country_code":"CZ","state_code":"52","province_code":"3100","name":"Praha 8-Karl\u00edn","cp":["186 00"],"lat":"48.9667","lng":"16.9833"},{"country_code":"CZ","state_code":"52","province_code":"3100","name":"Karl\u00edn","cp":["186 00"],"lat":"48.9667","lng":"16.9833"},{"country_code":"CZ","state_code":"52","province_code":"3100","name":"St\u0159\u00ed\u017ekov","cp":["190 00"],"lat":"50.1167","lng":"14.5"},{"country_code":"CZ","state_code":"52","province_code":"3100","name":"Praha 9-Hrdlo\u0159ezy","cp":["190 00"],"lat":"50.1167","lng":"14.5"},{"country_code":"CZ","state_code":"52","province_code":"3100","name":"Male\u0161ice","cp":["190 00"],"lat":"50.1167","lng":"14.5"},{"country_code":"CZ","state_code":"52","province_code":"3100","name":"Libe\u0148","cp":["190 00"],"lat":"50.1167","lng":"14.5"},{"country_code":"CZ","state_code":"52","province_code":"3100","name":"Hrdlo\u0159ezy","cp":["190 00"],"lat":"50.1167","lng":"14.5"},{"country_code":"CZ","state_code":"52","province_code":"3100","name":"Praha 9-Prosek","cp":["190 00"],"lat":"50.1167","lng":"14.5"},{"country_code":"CZ","state_code":"52","province_code":"3100","name":"Praha 9-Vyso\u010dany","cp":["190 00"],"lat":"50.1167","lng":"14.5"},{"country_code":"CZ","state_code":"52","province_code":"3100","name":"Prosek","cp":["190 00"],"lat":"50.1167","lng":"14.5"},{"country_code":"CZ","state_code":"52","province_code":"3100","name":"Praha 9-St\u0159\u00ed\u017ekov","cp":["190 00"],"lat":"50.1167","lng":"14.5"},{"country_code":"CZ","state_code":"52","province_code":"3100","name":"Praha 9-Libe\u0148","cp":["190 00"],"lat":"50.1167","lng":"14.5"},{"country_code":"CZ","state_code":"52","province_code":"3100","name":"Praha 10-Male\u0161ice","cp":["190 00"],"lat":"50.1167","lng":"14.5"},{"country_code":"CZ","state_code":"52","province_code":"3100","name":"Vyso\u010dany","cp":["190 00"],"lat":"50.1167","lng":"14.5"},{"country_code":"CZ","state_code":"52","province_code":"3100","name":"B\u011bchovice","cp":["190 11"],"lat":"50.0833","lng":"14.6167"},{"country_code":"CZ","state_code":"52","province_code":"3100","name":"Praha 9-B\u011bchovice","cp":["190 11"],"lat":"50.0833","lng":"14.6167"},{"country_code":"CZ","state_code":"52","province_code":"3100","name":"Doln\u00ed Po\u010dernice","cp":["190 12"],"lat":"50.0833","lng":"14.5833"},{"country_code":"CZ","state_code":"52","province_code":"3100","name":"Praha 9-Doln\u00ed Po\u010dernice","cp":["190 12"],"lat":"50.0833","lng":"14.5833"},{"country_code":"CZ","state_code":"52","province_code":"3100","name":"Kl\u00e1novice","cp":["190 14"],"lat":"50.1","lng":"14.6667"},{"country_code":"CZ","state_code":"52","province_code":"3100","name":"Praha 9-Kl\u00e1novice","cp":["190 14"],"lat":"50.1","lng":"14.6667"},{"country_code":"CZ","state_code":"52","province_code":"3100","name":"Praha 9-Satalice","cp":["190 15"],"lat":"50.1167","lng":"14.5833"},{"country_code":"CZ","state_code":"52","province_code":"3100","name":"Satalice","cp":["190 15"],"lat":"50.1167","lng":"14.5833"},{"country_code":"CZ","state_code":"52","province_code":"3100","name":"Kolod\u011bje","cp":["190 16"],"lat":"50.0667","lng":"14.65"},{"country_code":"CZ","state_code":"52","province_code":"3100","name":"Praha 9-\u00dajezd nad Lesy","cp":["190 16"],"lat":"50.075","lng":"14.6583"},{"country_code":"CZ","state_code":"52","province_code":"3100","name":"Praha 9-Kolod\u011bje","cp":["190 16"],"lat":"50.075","lng":"14.6583"},{"country_code":"CZ","state_code":"52","province_code":"3100","name":"\u00dajezd nad Lesy","cp":["190 16"],"lat":"50.0833","lng":"14.6667"},{"country_code":"CZ","state_code":"52","province_code":"3100","name":"Praha 9-Vino\u0159","cp":["190 17"],"lat":"50.15","lng":"14.6"},{"country_code":"CZ","state_code":"52","province_code":"3100","name":"Vino\u0159","cp":["190 17"],"lat":"50.15","lng":"14.6"},{"country_code":"CZ","state_code":"52","province_code":"3100","name":"Praha 9-Horn\u00ed Po\u010dernice","cp":["193 00"],"lat":"50.1167","lng":"14.6333"},{"country_code":"CZ","state_code":"52","province_code":"3100","name":"Horn\u00ed Po\u010dernice","cp":["193 00"],"lat":"50.1167","lng":"14.6333"},{"country_code":"CZ","state_code":"52","province_code":"3100","name":"\u010cakovice","cp":["196 00"],"lat":"50.15","lng":"14.5167"},{"country_code":"CZ","state_code":"52","province_code":"3100","name":"Praha 9-\u010cakovice","cp":["196 00"],"lat":"50.1556","lng":"14.5333"},{"country_code":"CZ","state_code":"52","province_code":"3100","name":"Mi\u0161kovice","cp":["196 00"],"lat":"50.15","lng":"14.55"},{"country_code":"CZ","state_code":"52","province_code":"3100","name":"Praha 9-Mi\u0161kovice","cp":["196 00"],"lat":"50.1556","lng":"14.5333"},{"country_code":"CZ","state_code":"52","province_code":"3100","name":"Praha 9-T\u0159eboradice","cp":["196 00"],"lat":"50.1556","lng":"14.5333"},{"country_code":"CZ","state_code":"52","province_code":"3100","name":"T\u0159eboradice","cp":["196 00"],"lat":"50.1667","lng":"14.5333"},{"country_code":"CZ","state_code":"52","province_code":"3100","name":"Kbely","cp":["197 00"],"lat":"49.5667","lng":"13.6333"},{"country_code":"CZ","state_code":"52","province_code":"3100","name":"Praha 9-Kbely","cp":["197 00"],"lat":"49.5667","lng":"13.6333"},{"country_code":"CZ","state_code":"52","province_code":"3100","name":"Praha 9-Kyje","cp":["198 00"],"lat":"50.1","lng":"14.55"},{"country_code":"CZ","state_code":"52","province_code":"3100","name":"Hloub\u011bt\u00edn","cp":["198 00"],"lat":"50.1","lng":"14.5333"},{"country_code":"CZ","state_code":"52","province_code":"3100","name":"Praha 9-\u010cern\u00fd Most","cp":["198 00"],"lat":"50.1","lng":"14.55"},{"country_code":"CZ","state_code":"52","province_code":"3100","name":"Praha 9-Hloub\u011bt\u00edn","cp":["198 00"],"lat":"50.1","lng":"14.55"},{"country_code":"CZ","state_code":"52","province_code":"3100","name":"Praha 9-Hostavice","cp":["198 00"],"lat":"50.1","lng":"14.55"},{"country_code":"CZ","state_code":"52","province_code":"3100","name":"\u010cern\u00fd Most","cp":["198 00"],"lat":"50.1","lng":"14.55"},{"country_code":"CZ","state_code":"52","province_code":"3100","name":"Kyje","cp":["198 00"],"lat":"50.1","lng":"14.55"},{"country_code":"CZ","state_code":"52","province_code":"3100","name":"Hostavice","cp":["198 00"],"lat":"50.1","lng":"14.5667"},{"country_code":"CZ","state_code":"52","province_code":"3100","name":"Let\u0148any","cp":["199 00"],"lat":"50.1333","lng":"14.5167"},{"country_code":"CZ","state_code":"52","province_code":"3100","name":"Praha 9-Let\u0148any","cp":["199 00"],"lat":"50.1333","lng":"14.5167"},{"country_code":"CZ","state_code":"78","province_code":"3701","name":"La\u017e\u00e1nky","cp":["678 01"],"lat":"49.35","lng":"16.7167"},{"country_code":"CZ","state_code":"78","province_code":"3701","name":"Ole\u0161n\u00e1","cp":["678 01"],"lat":"49.3333","lng":"16.6333"},{"country_code":"CZ","state_code":"78","province_code":"3701","name":"Ob\u016frka","cp":["678 01"],"lat":"49.3611","lng":"16.6574"},{"country_code":"CZ","state_code":"78","province_code":"3701","name":"T\u011bchov","cp":["678 01"],"lat":"49.3833","lng":"16.7"},{"country_code":"CZ","state_code":"78","province_code":"3701","name":"Klepa\u010dov","cp":["678 01"],"lat":"49.35","lng":"16.6667"},{"country_code":"CZ","state_code":"78","province_code":"3701","name":"Svat\u00e1 Kate\u0159ina","cp":["678 01"],"lat":"49.3333","lng":"16.6167"},{"country_code":"CZ","state_code":"78","province_code":"3701","name":"Doln\u00ed Lhota","cp":["678 01"],"lat":"49.3833","lng":"16.6333"},{"country_code":"CZ","state_code":"78","province_code":"3701","name":"Horn\u00ed Lhota","cp":["678 01"],"lat":"49.3833","lng":"16.65"},{"country_code":"CZ","state_code":"78","province_code":"3701","name":"Ho\u0159ice","cp":["678 01"],"lat":"49.3667","lng":"16.6333"},{"country_code":"CZ","state_code":"78","province_code":"3701","name":"Blansko","cp":["678 01"],"lat":"49.3667","lng":"16.6667"},{"country_code":"CZ","state_code":"78","province_code":"3701","name":"Jablo\u0148any","cp":["679 01"],"lat":"49.4667","lng":"16.6"},{"country_code":"CZ","state_code":"78","province_code":"3701","name":"Skalice nad Svitavou","cp":["679 01"],"lat":"49.4833","lng":"16.6"},{"country_code":"CZ","state_code":"78","province_code":"3701","name":"Vod\u011brady","cp":["679 01"],"lat":"49.4833","lng":"16.55"},{"country_code":"CZ","state_code":"78","province_code":"3701","name":"Krhov","cp":["679 01"],"lat":"49.4667","lng":"16.5833"},{"country_code":"CZ","state_code":"78","province_code":"3701","name":"Mladkov","cp":["679 01"],"lat":"49.4833","lng":"16.6167"},{"country_code":"CZ","state_code":"78","province_code":"3701","name":"Obora","cp":["679 01"],"lat":"49.45","lng":"16.6"},{"country_code":"CZ","state_code":"78","province_code":"3701","name":"Lhota Rapotina","cp":["679 01"],"lat":"49.4667","lng":"16.6333"},{"country_code":"CZ","state_code":"78","province_code":"3701","name":"\u017d\u010f\u00e1r","cp":["679 02"],"lat":"49.4167","lng":"16.7"},{"country_code":"CZ","state_code":"78","province_code":"3701","name":"Hole\u0161\u00edn","cp":["679 02"],"lat":"49.4333","lng":"16.6667"},{"country_code":"CZ","state_code":"78","province_code":"3701","name":"R\u00e1jec","cp":["679 02"],"lat":"49.4167","lng":"16.6333"},{"country_code":"CZ","state_code":"78","province_code":"3701","name":"Jest\u0159eb\u00ed","cp":["679 02"],"lat":"49.4167","lng":"16.6167"},{"country_code":"CZ","state_code":"78","province_code":"3701","name":"Karol\u00edn","cp":["679 02"],"lat":"49.4167","lng":"16.6667"},{"country_code":"CZ","state_code":"78","province_code":"3701","name":"Spe\u0161ov","cp":["679 02"],"lat":"49.3833","lng":"16.6333"},{"country_code":"CZ","state_code":"78","province_code":"3701","name":"Petrovice","cp":["679 02"],"lat":"49.4167","lng":"16.7"},{"country_code":"CZ","state_code":"78","province_code":"3701","name":"Kuni\u010dky","cp":["679 02"],"lat":"49.4333","lng":"16.6833"},{"country_code":"CZ","state_code":"78","province_code":"3701","name":"R\u00e1je\u010dko","cp":["679 02"],"lat":"49.4","lng":"16.65"},{"country_code":"CZ","state_code":"78","province_code":"3701","name":"Olomu\u010dany","cp":["679 03"],"lat":"49.3333","lng":"16.6667"},{"country_code":"CZ","state_code":"78","province_code":"3701","name":"Adamov","cp":["679 04"],"lat":"49.3167","lng":"16.6667"},{"country_code":"CZ","state_code":"78","province_code":"3701","name":"K\u0159tiny","cp":["679 05"],"lat":"49.3","lng":"16.75"},{"country_code":"CZ","state_code":"78","province_code":"3701","name":"Bukovina","cp":["679 05"],"lat":"49.3","lng":"16.7667"},{"country_code":"CZ","state_code":"78","province_code":"3701","name":"B\u0159ezina","cp":["679 05"],"lat":"49.2833","lng":"16.75"},{"country_code":"CZ","state_code":"78","province_code":"3701","name":"Habr\u016fvka","cp":["679 05"],"lat":"49.3","lng":"16.7167"},{"country_code":"CZ","state_code":"78","province_code":"3701","name":"Bukovinka","cp":["679 05"],"lat":"49.3","lng":"16.8"},{"country_code":"CZ","state_code":"78","province_code":"3701","name":"Jedovnice","cp":["679 06"],"lat":"49.35","lng":"16.7667"},{"country_code":"CZ","state_code":"78","province_code":"3701","name":"Marian\u00edn","cp":["679 06"],"lat":"49.3833","lng":"16.8333"},{"country_code":"CZ","state_code":"78","province_code":"3701","name":"Hol\u0161tejn","cp":["679 06"],"lat":"49.4","lng":"16.7833"},{"country_code":"CZ","state_code":"78","province_code":"3701","name":"Vil\u00e9movice","cp":["679 06"],"lat":"49.3667","lng":"16.75"},{"country_code":"CZ","state_code":"78","province_code":"3701","name":"Rudice","cp":["679 06"],"lat":"49.3333","lng":"16.7333"},{"country_code":"CZ","state_code":"78","province_code":"3701","name":"Kul\u00ed\u0159ov","cp":["679 06"],"lat":"49.3833","lng":"16.85"},{"country_code":"CZ","state_code":"78","province_code":"3701","name":"Krasov\u00e1","cp":["679 06"],"lat":"49.3667","lng":"16.7667"},{"country_code":"CZ","state_code":"78","province_code":"3701","name":"Senet\u00e1\u0159ov","cp":["679 06"],"lat":"49.35","lng":"16.8"},{"country_code":"CZ","state_code":"78","province_code":"3701","name":"Kotvrdovice","cp":["679 07"],"lat":"49.3667","lng":"16.8"},{"country_code":"CZ","state_code":"78","province_code":"3701","name":"Doubravice nad Svitavou","cp":["679 11"],"lat":"49.4333","lng":"16.6333"},{"country_code":"CZ","state_code":"78","province_code":"3701","name":"Sloup","cp":["679 13"],"lat":"49.4167","lng":"16.75"},{"country_code":"CZ","state_code":"78","province_code":"3701","name":"Housko","cp":["679 13"],"lat":"49.4333","lng":"16.8"},{"country_code":"CZ","state_code":"78","province_code":"3701","name":"Molenburk","cp":["679 13"],"lat":"49.4333","lng":"16.8167"},{"country_code":"CZ","state_code":"78","province_code":"3701","name":"Vyso\u010dany","cp":["679 13"],"lat":"49.4119","lng":"16.7548"},{"country_code":"CZ","state_code":"78","province_code":"3701","name":"\u0160o\u0161\u016fvka","cp":["679 13"],"lat":"49.4167","lng":"16.7667"},{"country_code":"CZ","state_code":"78","province_code":"3701","name":"Veselice","cp":["679 13"],"lat":"49.4","lng":"16.7167"},{"country_code":"CZ","state_code":"78","province_code":"3701","name":"Vav\u0159inec","cp":["679 13"],"lat":"49.4","lng":"16.7167"},{"country_code":"CZ","state_code":"78","province_code":"3701","name":"Suchdol","cp":["679 13"],"lat":"49.3833","lng":"16.7167"},{"country_code":"CZ","state_code":"78","province_code":"3701","name":"Ostrov u Macochy","cp":["679 14"],"lat":"49.3833","lng":"16.7667"},{"country_code":"CZ","state_code":"78","province_code":"3701","name":"Lipovec","cp":["679 15"],"lat":"49.4","lng":"16.8"},{"country_code":"CZ","state_code":"78","province_code":"3701","name":"Br\u0165ov u \u010cern\u00e9 Hory","cp":["679 21"],"lat":"49.4056","lng":"16.5528"},{"country_code":"CZ","state_code":"78","province_code":"3701","name":"Bo\u0159itov","cp":["679 21"],"lat":"49.4167","lng":"16.6"},{"country_code":"CZ","state_code":"78","province_code":"3701","name":"Mal\u00e1 Lhota","cp":["679 21"],"lat":"49.3833","lng":"16.55"},{"country_code":"CZ","state_code":"78","province_code":"3701","name":"\u017dernovn\u00edk","cp":["679 21"],"lat":"49.4","lng":"16.55"},{"country_code":"CZ","state_code":"78","province_code":"3701","name":"\u010cern\u00e1 Hora","cp":["679 21"],"lat":"49.4167","lng":"16.5833"},{"country_code":"CZ","state_code":"78","province_code":"3701","name":"Lub\u011b","cp":["679 21"],"lat":"49.4","lng":"16.5333"},{"country_code":"CZ","state_code":"78","province_code":"3701","name":"Jene\u010d","cp":["679 21"],"lat":"49.4167","lng":"16.5"},{"country_code":"CZ","state_code":"78","province_code":"3701","name":"Lip\u016fvka","cp":["679 22"],"lat":"49.3333","lng":"16.5667"},{"country_code":"CZ","state_code":"78","province_code":"3701","name":"\u00dajezd u \u010cern\u00e9 Hory","cp":["679 22"],"lat":"49.3472","lng":"16.5722"},{"country_code":"CZ","state_code":"78","province_code":"3701","name":"Z\u00e1vist","cp":["679 22"],"lat":"49.3667","lng":"16.5667"},{"country_code":"CZ","state_code":"78","province_code":"3701","name":"La\u017eany","cp":["679 22"],"lat":"49.35","lng":"16.55"},{"country_code":"CZ","state_code":"78","province_code":"3701","name":"\u0160ebrov","cp":["679 22"],"lat":"49.3333","lng":"16.6"},{"country_code":"CZ","state_code":"78","province_code":"3701","name":"Svino\u0161ice","cp":["679 22"],"lat":"49.3333","lng":"16.5833"},{"country_code":"CZ","state_code":"78","province_code":"3701","name":"Milonice","cp":["679 22"],"lat":"49.3667","lng":"16.5667"},{"country_code":"CZ","state_code":"78","province_code":"3701","name":"Strha\u0159e","cp":["679 23"],"lat":"49.4333","lng":"16.4333"},{"country_code":"CZ","state_code":"78","province_code":"3701","name":"Ochoz u Ti\u0161nova","cp":["679 23"],"lat":"49.4333","lng":"16.4"},{"country_code":"CZ","state_code":"78","province_code":"3701","name":"Ra\u0161ov","cp":["679 23"],"lat":"49.4167","lng":"16.45"},{"country_code":"CZ","state_code":"78","province_code":"3701","name":"Synalov","cp":["679 23"],"lat":"49.4333","lng":"16.4167"},{"country_code":"CZ","state_code":"78","province_code":"3701","name":"Hlubok\u00e9 Dvory","cp":["679 23"],"lat":"49.4211","lng":"16.4256"},{"country_code":"CZ","state_code":"78","province_code":"3701","name":"Brumov","cp":["679 23"],"lat":"49.4667","lng":"16.4333"},{"country_code":"CZ","state_code":"78","province_code":"3701","name":"\u0158epka","cp":["679 23"],"lat":"49.3833","lng":"16.4167"},{"country_code":"CZ","state_code":"78","province_code":"3701","name":"Bukovice","cp":["679 23"],"lat":"49.4167","lng":"16.4833"},{"country_code":"CZ","state_code":"78","province_code":"3701","name":"Osiky","cp":["679 23"],"lat":"49.45","lng":"16.4167"},{"country_code":"CZ","state_code":"78","province_code":"3701","name":"\u017dleby","cp":["679 23"],"lat":"49.4211","lng":"16.4256"},{"country_code":"CZ","state_code":"78","province_code":"3701","name":"Rohozec","cp":["679 23"],"lat":"49.3833","lng":"16.4833"},{"country_code":"CZ","state_code":"78","province_code":"3701","name":"Brusn\u00e1","cp":["679 23"],"lat":"49.4","lng":"16.4"},{"country_code":"CZ","state_code":"78","province_code":"3701","name":"Vesel\u00ed","cp":["679 23"],"lat":"49.4","lng":"16.3833"},{"country_code":"CZ","state_code":"78","province_code":"3701","name":"B\u011ble\u010d","cp":["679 23"],"lat":"49.4333","lng":"16.3833"},{"country_code":"CZ","state_code":"78","province_code":"3701","name":"Zho\u0159","cp":["679 23"],"lat":"49.4167","lng":"16.4833"},{"country_code":"CZ","state_code":"78","province_code":"3701","name":"K\u0159eptov","cp":["679 23"],"lat":"49.4333","lng":"16.3833"},{"country_code":"CZ","state_code":"78","province_code":"3701","name":"Lomnice","cp":["679 23"],"lat":"49.4167","lng":"16.4167"},{"country_code":"CZ","state_code":"78","province_code":"3701","name":"Un\u00edn","cp":["679 24"],"lat":"49.3833","lng":"16.5"},{"country_code":"CZ","state_code":"78","province_code":"3701","name":"Sebranice","cp":["679 31"],"lat":"49.5","lng":"16.5833"},{"country_code":"CZ","state_code":"78","province_code":"3701","name":"Sasina","cp":["679 32"],"lat":"49.5167","lng":"16.5833"},{"country_code":"CZ","state_code":"78","province_code":"3701","name":"Svit\u00e1vka","cp":["679 32"],"lat":"49.5","lng":"16.6"},{"country_code":"CZ","state_code":"78","province_code":"3701","name":"V\u00edsky","cp":["679 33"],"lat":"49.5333","lng":"16.6333"},{"country_code":"CZ","state_code":"78","province_code":"3701","name":"Kn\u00ednice u Boskovic","cp":["679 34"],"lat":"49.5333","lng":"16.7"},{"country_code":"CZ","state_code":"78","province_code":"3701","name":"\u0160ebetov","cp":["679 35"],"lat":"49.55","lng":"16.7167"},{"country_code":"CZ","state_code":"78","province_code":"3701","name":"Vanovice","cp":["679 36"],"lat":"49.5667","lng":"16.6667"},{"country_code":"CZ","state_code":"78","province_code":"3701","name":"Borot\u00edn","cp":["679 37"],"lat":"49.5833","lng":"16.6667"},{"country_code":"CZ","state_code":"78","province_code":"3701","name":"Cetkovice","cp":["679 38"],"lat":"49.5833","lng":"16.7167"},{"country_code":"CZ","state_code":"78","province_code":"3701","name":"\u00dasobrno","cp":["679 39"],"lat":"49.6","lng":"16.7667"},{"country_code":"CZ","state_code":"78","province_code":"3701","name":"N\u011bm\u010dice","cp":["679 51"],"lat":"49.45","lng":"16.7167"},{"country_code":"CZ","state_code":"78","province_code":"3701","name":"\u017d\u010f\u00e1rn\u00e1","cp":["679 52"],"lat":"49.4667","lng":"16.75"},{"country_code":"CZ","state_code":"78","province_code":"3701","name":"Bene\u0161ov","cp":["679 53"],"lat":"49.5","lng":"16.7667"},{"country_code":"CZ","state_code":"78","province_code":"3701","name":"Roubanina","cp":["679 61"],"lat":"49.6167","lng":"16.6"},{"country_code":"CZ","state_code":"78","province_code":"3701","name":"Rumberk","cp":["679 61"],"lat":"49.5673","lng":"16.5687"},{"country_code":"CZ","state_code":"78","province_code":"3701","name":"Letovice","cp":["679 61"],"lat":"49.55","lng":"16.5833"},{"country_code":"CZ","state_code":"78","province_code":"3701","name":"Sk\u0159ib","cp":["679 61"],"lat":"49.5833","lng":"16.55"},{"country_code":"CZ","state_code":"78","province_code":"3701","name":"Z\u00e1bludov","cp":["679 61"],"lat":"49.55","lng":"16.55"},{"country_code":"CZ","state_code":"78","province_code":"3701","name":"T\u0159eb\u011bt\u00edn","cp":["679 61"],"lat":"49.5667","lng":"16.5833"},{"country_code":"CZ","state_code":"78","province_code":"3701","name":"Jasinov","cp":["679 61"],"lat":"49.5333","lng":"16.5333"},{"country_code":"CZ","state_code":"78","province_code":"3701","name":"Podol\u00ed","cp":["679 61"],"lat":"49.5333","lng":"16.6167"},{"country_code":"CZ","state_code":"78","province_code":"3701","name":"Doln\u00ed Smr\u017eov","cp":["679 61"],"lat":"49.6","lng":"16.5667"},{"country_code":"CZ","state_code":"78","province_code":"3701","name":"Lhota","cp":["679 61"],"lat":"49.5833","lng":"16.1833"},{"country_code":"CZ","state_code":"78","province_code":"3701","name":"M\u00edchov","cp":["679 61"],"lat":"49.5167","lng":"16.6167"},{"country_code":"CZ","state_code":"78","province_code":"3701","name":"Stvolov\u00e1","cp":["679 61"],"lat":"49.5673","lng":"16.5687"},{"country_code":"CZ","state_code":"78","province_code":"3701","name":"Vlkov","cp":["679 61"],"lat":"49.5833","lng":"16.5333"},{"country_code":"CZ","state_code":"78","province_code":"3701","name":"Klevetov","cp":["679 61"],"lat":"49.5333","lng":"16.5833"},{"country_code":"CZ","state_code":"78","province_code":"3701","name":"Drvalovice","cp":["679 61"],"lat":"49.5667","lng":"16.65"},{"country_code":"CZ","state_code":"78","province_code":"3701","name":"Kochov","cp":["679 61"],"lat":"49.5667","lng":"16.6167"},{"country_code":"CZ","state_code":"78","province_code":"3701","name":"Bezd\u011b\u010d\u00ed","cp":["679 61"],"lat":"49.5673","lng":"16.5687"},{"country_code":"CZ","state_code":"78","province_code":"3701","name":"Mezi\u0159\u00ed\u010dko","cp":["679 61"],"lat":"49.5667","lng":"16.55"},{"country_code":"CZ","state_code":"78","province_code":"3701","name":"Novi\u010d\u00ed","cp":["679 61"],"lat":"49.5833","lng":"16.6"},{"country_code":"CZ","state_code":"78","province_code":"3701","name":"Slatinka","cp":["679 61"],"lat":"49.5667","lng":"16.5667"},{"country_code":"CZ","state_code":"78","province_code":"3701","name":"Horn\u00ed Smr\u017eov","cp":["679 61"],"lat":"49.6167","lng":"16.5833"},{"country_code":"CZ","state_code":"78","province_code":"3701","name":"De\u0161tn\u00e1","cp":["679 61"],"lat":"49.6167","lng":"16.5667"},{"country_code":"CZ","state_code":"78","province_code":"3701","name":"Kladoruby","cp":["679 61"],"lat":"49.55","lng":"16.6167"},{"country_code":"CZ","state_code":"78","province_code":"3701","name":"Zbon\u011bk","cp":["679 61"],"lat":"49.5167","lng":"16.5833"},{"country_code":"CZ","state_code":"78","province_code":"3701","name":"Pam\u011btice","cp":["679 61"],"lat":"49.55","lng":"16.65"},{"country_code":"CZ","state_code":"78","province_code":"3701","name":"Chlum","cp":["679 61"],"lat":"49.6","lng":"16.6"},{"country_code":"CZ","state_code":"78","province_code":"3701","name":"Kn\u011b\u017eev\u00edsko","cp":["679 61"],"lat":"49.55","lng":"16.55"},{"country_code":"CZ","state_code":"78","province_code":"3701","name":"Babolky","cp":["679 61"],"lat":"49.5833","lng":"16.5833"},{"country_code":"CZ","state_code":"78","province_code":"3701","name":"Doln\u00ed Po\u0159\u00ed\u010d\u00ed","cp":["679 62"],"lat":"49.5667","lng":"16.5"},{"country_code":"CZ","state_code":"78","province_code":"3701","name":"Prost\u0159edn\u00ed Po\u0159\u00ed\u010d\u00ed","cp":["679 62"],"lat":"49.5833","lng":"16.4833"},{"country_code":"CZ","state_code":"78","province_code":"3701","name":"Petrov","cp":["679 62"],"lat":"49.5333","lng":"16.4833"},{"country_code":"CZ","state_code":"78","province_code":"3701","name":"Vranov\u00e1","cp":["679 62"],"lat":"49.55","lng":"16.5333"},{"country_code":"CZ","state_code":"78","province_code":"3701","name":"K\u0159et\u00edn","cp":["679 62"],"lat":"49.5667","lng":"16.5"},{"country_code":"CZ","state_code":"78","province_code":"3701","name":"V\u0159esice","cp":["679 62"],"lat":"49.5625","lng":"16.4979"},{"country_code":"CZ","state_code":"78","province_code":"3701","name":"Lazinov","cp":["679 62"],"lat":"49.5667","lng":"16.5167"},{"country_code":"CZ","state_code":"78","province_code":"3701","name":"Horn\u00ed Po\u0159\u00ed\u010d\u00ed","cp":["679 62"],"lat":"49.5833","lng":"16.4833"},{"country_code":"CZ","state_code":"78","province_code":"3701","name":"Sul\u00edkov","cp":["679 62"],"lat":"49.55","lng":"16.4833"},{"country_code":"CZ","state_code":"78","province_code":"3701","name":"Uh\u0159ice","cp":["679 63"],"lat":"49.6","lng":"16.7333"},{"country_code":"CZ","state_code":"78","province_code":"3701","name":"Sko\u010dova Lhota","cp":["679 63"],"lat":"49.6167","lng":"16.65"},{"country_code":"CZ","state_code":"78","province_code":"3701","name":"Korbelova Lhota","cp":["679 63"],"lat":"49.6","lng":"16.6667"},{"country_code":"CZ","state_code":"78","province_code":"3701","name":"Sv\u00e1rov","cp":["679 63"],"lat":"49.6","lng":"16.6167"},{"country_code":"CZ","state_code":"78","province_code":"3701","name":"Mal\u00e1 Roudka","cp":["679 63"],"lat":"49.6","lng":"16.65"},{"country_code":"CZ","state_code":"78","province_code":"3701","name":"Br\u0165ov","cp":["679 63"],"lat":"49.6167","lng":"16.6333"},{"country_code":"CZ","state_code":"78","province_code":"3701","name":"Sv\u011btl\u00e1","cp":["679 63"],"lat":"49.5667","lng":"16.7167"},{"country_code":"CZ","state_code":"78","province_code":"3701","name":"Velk\u00e1 Roudka","cp":["679 63"],"lat":"49.5833","lng":"16.6667"},{"country_code":"CZ","state_code":"78","province_code":"3701","name":"Velk\u00e9 Opatovice","cp":["679 63"],"lat":"49.6167","lng":"16.6667"},{"country_code":"CZ","state_code":"78","province_code":"3701","name":"Skrchov","cp":["679 65"],"lat":"49.5833","lng":"16.55"},{"country_code":"CZ","state_code":"78","province_code":"3701","name":"Koz\u00e1rov","cp":["679 71"],"lat":"49.4333","lng":"16.4667"},{"country_code":"CZ","state_code":"78","province_code":"3701","name":"Hodon\u00edn","cp":["679 71"],"lat":"49.5","lng":"16.4167"},{"country_code":"CZ","state_code":"78","province_code":"3701","name":"B\u00fdkovice","cp":["679 71"],"lat":"49.4333","lng":"16.5333"},{"country_code":"CZ","state_code":"78","province_code":"3701","name":"\u017der\u016ftky","cp":["679 71"],"lat":"49.4333","lng":"16.5333"},{"country_code":"CZ","state_code":"78","province_code":"3701","name":"Kunice","cp":["679 71"],"lat":"49.4833","lng":"16.5"},{"country_code":"CZ","state_code":"78","province_code":"3701","name":"Lysice","cp":["679 71"],"lat":"49.45","lng":"16.5333"},{"country_code":"CZ","state_code":"78","province_code":"3701","name":"La\u010dnov","cp":["679 71"],"lat":"49.45","lng":"16.5"},{"country_code":"CZ","state_code":"78","province_code":"3701","name":"Tasovice","cp":["679 71"],"lat":"49.5","lng":"16.4333"},{"country_code":"CZ","state_code":"78","province_code":"3701","name":"\u0160t\u011bchov","cp":["679 71"],"lat":"49.45","lng":"16.5"},{"country_code":"CZ","state_code":"78","province_code":"3701","name":"Lhota u Lysic","cp":["679 71"],"lat":"49.4667","lng":"16.5"},{"country_code":"CZ","state_code":"78","province_code":"3701","name":"Bed\u0159ichov","cp":["679 71"],"lat":"49.4667","lng":"16.4667"},{"country_code":"CZ","state_code":"78","province_code":"3701","name":"Kun\u010dina Ves","cp":["679 71"],"lat":"49.45","lng":"16.4667"},{"country_code":"CZ","state_code":"78","province_code":"3701","name":"Dlouh\u00e1 Lhota","cp":["679 71"],"lat":"49.4333","lng":"16.5167"},{"country_code":"CZ","state_code":"78","province_code":"3701","name":"Sychot\u00edn","cp":["679 72"],"lat":"49.5","lng":"16.5"},{"country_code":"CZ","state_code":"78","province_code":"3701","name":"Toubo\u0159","cp":["679 72"],"lat":"49.4833","lng":"16.5"},{"country_code":"CZ","state_code":"78","province_code":"3701","name":"Rudka","cp":["679 72"],"lat":"49.5167","lng":"16.5167"},{"country_code":"CZ","state_code":"78","province_code":"3701","name":"Hlubok\u00e9 u Kun\u0161t\u00e1tu","cp":["679 72"],"lat":"49.5","lng":"16.5312"},{"country_code":"CZ","state_code":"78","province_code":"3701","name":"N\u00fdrov","cp":["679 72"],"lat":"49.5333","lng":"16.55"},{"country_code":"CZ","state_code":"78","province_code":"3701","name":"Kun\u0161t\u00e1t","cp":["679 72"],"lat":"49.5","lng":"16.5167"},{"country_code":"CZ","state_code":"78","province_code":"3701","name":"Zbraslavec","cp":["679 72"],"lat":"49.4833","lng":"16.5333"},{"country_code":"CZ","state_code":"78","province_code":"3701","name":"\u00dajezd","cp":["679 72"],"lat":"49.4667","lng":"16.65"},{"country_code":"CZ","state_code":"78","province_code":"3701","name":"Makov","cp":["679 72"],"lat":"49.5167","lng":"16.4833"},{"country_code":"CZ","state_code":"78","province_code":"3701","name":"Rozse\u010d nad Kun\u0161t\u00e1tem","cp":["679 73"],"lat":"49.5333","lng":"16.4667"},{"country_code":"CZ","state_code":"78","province_code":"3701","name":"K\u0159t\u011bnov","cp":["679 74"],"lat":"49.55","lng":"16.4167"},{"country_code":"CZ","state_code":"78","province_code":"3701","name":"Veselka","cp":["679 74"],"lat":"49.5833","lng":"16.45"},{"country_code":"CZ","state_code":"78","province_code":"3701","name":"Lhota u Ole\u0161nice","cp":["679 74"],"lat":"49.55","lng":"16.3833"},{"country_code":"CZ","state_code":"78","province_code":"3701","name":"Crhov","cp":["679 74"],"lat":"49.55","lng":"16.4333"},{"country_code":"CZ","state_code":"78","province_code":"3701","name":"\u00dastup","cp":["679 74"],"lat":"49.5667","lng":"16.4667"},{"country_code":"CZ","state_code":"78","province_code":"3701","name":"Jobova Lhota","cp":["679 74"],"lat":"49.5833","lng":"16.45"},{"country_code":"CZ","state_code":"78","province_code":"3701","name":"Ole\u0161nice","cp":["679 74"],"lat":"49.5667","lng":"16.4167"},{"country_code":"CZ","state_code":"78","province_code":"3701","name":"Louka","cp":["679 74"],"lat":"49.5333","lng":"16.4333"},{"country_code":"CZ","state_code":"78","province_code":"3701","name":"Rozs\u00ed\u010dka","cp":["679 74"],"lat":"49.5667","lng":"16.4667"},{"country_code":"CZ","state_code":"78","province_code":"3701","name":"Kn\u011b\u017eeves","cp":["679 74"],"lat":"49.5833","lng":"16.4167"},{"country_code":"CZ","state_code":"78","province_code":"3701","name":"\u010cernovice","cp":["679 75"],"lat":"49.4833","lng":"16.4333"},{"country_code":"CZ","state_code":"78","province_code":"3701","name":"Drnovice","cp":["679 76"],"lat":"49.4667","lng":"16.55"},{"country_code":"CZ","state_code":"78","province_code":"3701","name":"Ko\u0159enec","cp":["680 01"],"lat":"49.5333","lng":"16.75"},{"country_code":"CZ","state_code":"78","province_code":"3701","name":"Okrouhl\u00e1","cp":["680 01"],"lat":"49.5167","lng":"16.7333"},{"country_code":"CZ","state_code":"78","province_code":"3701","name":"Velenov","cp":["680 01"],"lat":"49.5","lng":"16.7333"},{"country_code":"CZ","state_code":"78","province_code":"3701","name":"Hr\u00e1dkov","cp":["680 01"],"lat":"49.4833","lng":"16.7"},{"country_code":"CZ","state_code":"78","province_code":"3701","name":"Boskovice","cp":["680 01"],"lat":"49.4833","lng":"16.6667"},{"country_code":"CZ","state_code":"78","province_code":"3701","name":"Ba\u010dov","cp":["680 01"],"lat":"49.5333","lng":"16.6333"},{"country_code":"CZ","state_code":"78","province_code":"3701","name":"Chrudichromy","cp":["680 01"],"lat":"49.5","lng":"16.6333"},{"country_code":"CZ","state_code":"78","province_code":"3701","name":"Lud\u00edkov","cp":["680 01"],"lat":"49.45","lng":"16.7333"},{"country_code":"CZ","state_code":"78","province_code":"3701","name":"Valchov","cp":["680 01"],"lat":"49.4667","lng":"16.7167"},{"country_code":"CZ","state_code":"78","province_code":"3701","name":"\u00dajezd u Boskovic","cp":["680 01"],"lat":"49.5013","lng":"16.7026"},{"country_code":"CZ","state_code":"78","province_code":"3701","name":"Sudice","cp":["680 01"],"lat":"49.5333","lng":"16.6667"},{"country_code":"CZ","state_code":"78","province_code":"3701","name":"Vrat\u00edkov","cp":["680 01"],"lat":"49.5","lng":"16.7167"},{"country_code":"CZ","state_code":"78","province_code":"3701","name":"Such\u00fd","cp":["680 01"],"lat":"49.4833","lng":"16.7667"},{"country_code":"CZ","state_code":"78","province_code":"3701","name":"V\u00e1\u017eany","cp":["680 01"],"lat":"49.5333","lng":"16.6833"},{"country_code":"CZ","state_code":"78","province_code":"3702","name":"Trnit\u00e1","cp":["602 00"],"lat":"48.7667","lng":"14.7833"},{"country_code":"CZ","state_code":"78","province_code":"3702","name":"Str\u00e1nice","cp":["602 00"],"lat":"48.7667","lng":"14.7833"},{"country_code":"CZ","state_code":"78","province_code":"3702","name":"Brno-M\u011bsto","cp":["602 00"],"lat":"48.7667","lng":"14.7833"},{"country_code":"CZ","state_code":"78","province_code":"3702","name":"Veve\u0159\u00ed","cp":["602 00"],"lat":"48.7667","lng":"14.7833"},{"country_code":"CZ","state_code":"78","province_code":"3702","name":"Ponava","cp":["602 00"],"lat":"48.7667","lng":"14.7833"},{"country_code":"CZ","state_code":"78","province_code":"3702","name":"Brno-Brno M\u011bsto","cp":["602 00"],"lat":"48.7667","lng":"14.7833"},{"country_code":"CZ","state_code":"78","province_code":"3702","name":"Brno-Ponava","cp":["602 00"],"lat":"48.7667","lng":"14.7833"},{"country_code":"CZ","state_code":"78","province_code":"3702","name":"Brno-Str\u00e1nice","cp":["602 00"],"lat":"48.7667","lng":"14.7833"},{"country_code":"CZ","state_code":"78","province_code":"3702","name":"Brno-Trnit\u00e1","cp":["602 00"],"lat":"48.7667","lng":"14.7833"},{"country_code":"CZ","state_code":"78","province_code":"3702","name":"Brno-Veve\u0159\u00ed","cp":["602 00"],"lat":"48.7667","lng":"14.7833"},{"country_code":"CZ","state_code":"78","province_code":"3702","name":"Star\u00e9 Brno","cp":["603 00"],"lat":"48.7667","lng":"14.7833"},{"country_code":"CZ","state_code":"78","province_code":"3702","name":"Brno-Star\u00e9 Brno","cp":["603 00"],"lat":"48.7667","lng":"14.7833"},{"country_code":"CZ","state_code":"78","province_code":"3702","name":"Brno-Kr\u00e1lovo Pole","cp":["612 00"],"lat":"49.75","lng":"16.1333"},{"country_code":"CZ","state_code":"78","province_code":"3702","name":"Brno-Sadov\u00e1","cp":["612 00"],"lat":"49.75","lng":"16.1333"},{"country_code":"CZ","state_code":"78","province_code":"3702","name":"Sadov\u00e1","cp":["612 00"],"lat":"50.2833","lng":"15.7"},{"country_code":"CZ","state_code":"78","province_code":"3702","name":"Kr\u00e1lovo Pole","cp":["612 00"],"lat":"49.2167","lng":"16.5667"},{"country_code":"CZ","state_code":"78","province_code":"3702","name":"Brno-\u010cern\u00e1 Pole","cp":["613 00"],"lat":"49.2931","lng":"15.8639"},{"country_code":"CZ","state_code":"78","province_code":"3702","name":"\u010cern\u00e1 Pole","cp":["613 00"],"lat":"49.2931","lng":"15.8639"},{"country_code":"CZ","state_code":"78","province_code":"3702","name":"Brno-Ob\u0159any","cp":["614 00"],"lat":"49.2222","lng":"16.6444"},{"country_code":"CZ","state_code":"78","province_code":"3702","name":"Brno-Husovice","cp":["614 00"],"lat":"49.2222","lng":"16.6444"},{"country_code":"CZ","state_code":"78","province_code":"3702","name":"Brno-Malom\u011b\u0159ice","cp":["614 00"],"lat":"49.2222","lng":"16.6444"},{"country_code":"CZ","state_code":"78","province_code":"3702","name":"Ob\u0159any","cp":["614 00"],"lat":"49.2333","lng":"16.65"},{"country_code":"CZ","state_code":"78","province_code":"3702","name":"Husovice","cp":["614 00"],"lat":"49.2167","lng":"16.6333"},{"country_code":"CZ","state_code":"78","province_code":"3702","name":"Malom\u011b\u0159ice","cp":["614 00"],"lat":"49.2167","lng":"16.65"},{"country_code":"CZ","state_code":"78","province_code":"3702","name":"Brno-Z\u00e1brdovice","cp":["615 00"],"lat":"49.0167","lng":"16.3667"},{"country_code":"CZ","state_code":"78","province_code":"3702","name":"Brno-\u017didenice","cp":["615 00"],"lat":"49.0167","lng":"16.3667"},{"country_code":"CZ","state_code":"78","province_code":"3702","name":"\u017didenice","cp":["615 00"],"lat":"49.0167","lng":"16.3667"},{"country_code":"CZ","state_code":"78","province_code":"3702","name":"Z\u00e1brdovice","cp":["615 00"],"lat":"49.0167","lng":"16.3667"},{"country_code":"CZ","state_code":"78","province_code":"3702","name":"Brno-\u017dabov\u0159esky","cp":["616 00"],"lat":"49","lng":"14.3333"},{"country_code":"CZ","state_code":"78","province_code":"3702","name":"\u017dabov\u0159esky","cp":["616 00"],"lat":"49","lng":"14.3333"},{"country_code":"CZ","state_code":"78","province_code":"3702","name":"Brno-Kom\u00e1rov","cp":["617 00"],"lat":"49.25","lng":"14.6"},{"country_code":"CZ","state_code":"78","province_code":"3702","name":"Kom\u00e1rov","cp":["617 00"],"lat":"49.25","lng":"14.6"},{"country_code":"CZ","state_code":"78","province_code":"3702","name":"Brno-\u010cernovice","cp":["618 00"],"lat":"49.6167","lng":"13"},{"country_code":"CZ","state_code":"78","province_code":"3702","name":"\u010cernovice","cp":["618 00"],"lat":"49.6167","lng":"13"},{"country_code":"CZ","state_code":"78","province_code":"3702","name":"P\u0159\u00edz\u0159enice","cp":["619 00"],"lat":"49.15","lng":"16.6167"},{"country_code":"CZ","state_code":"78","province_code":"3702","name":"Brno-P\u0159\u00edz\u0159enice","cp":["619 00"],"lat":"49.1556","lng":"16.6222"},{"country_code":"CZ","state_code":"78","province_code":"3702","name":"Brno-Doln\u00ed Her\u0161pice","cp":["619 00"],"lat":"49.1556","lng":"16.6222"},{"country_code":"CZ","state_code":"78","province_code":"3702","name":"Horn\u00ed Her\u0161pice","cp":["619 00"],"lat":"49.1667","lng":"16.6167"},{"country_code":"CZ","state_code":"78","province_code":"3702","name":"Brno-Horn\u00ed Her\u0161pice","cp":["619 00"],"lat":"49.1556","lng":"16.6222"},{"country_code":"CZ","state_code":"78","province_code":"3702","name":"Doln\u00ed Her\u0161pice","cp":["619 00"],"lat":"49.15","lng":"16.6333"},{"country_code":"CZ","state_code":"78","province_code":"3702","name":"Dvorska","cp":["620 00"],"lat":"49.1333","lng":"16.7"},{"country_code":"CZ","state_code":"78","province_code":"3702","name":"Brno-Tu\u0159any","cp":["620 00"],"lat":"49.1458","lng":"16.6708"},{"country_code":"CZ","state_code":"78","province_code":"3702","name":"Brno-Hol\u00e1sky","cp":["620 00"],"lat":"49.1458","lng":"16.6708"},{"country_code":"CZ","state_code":"78","province_code":"3702","name":"Brno-Brn\u011bnsk\u00e9 Ivanovice","cp":["620 00"],"lat":"49.1458","lng":"16.6708"},{"country_code":"CZ","state_code":"78","province_code":"3702","name":"Hol\u00e1sky","cp":["620 00"],"lat":"49.15","lng":"16.65"},{"country_code":"CZ","state_code":"78","province_code":"3702","name":"Brno-Dvorska","cp":["620 00"],"lat":"49.1458","lng":"16.6708"},{"country_code":"CZ","state_code":"78","province_code":"3702","name":"Tu\u0159any","cp":["620 00"],"lat":"49.15","lng":"16.6667"},{"country_code":"CZ","state_code":"78","province_code":"3702","name":"Brn\u011bnsk\u00e9 Ivanovice","cp":["620 00"],"lat":"49.15","lng":"16.6667"},{"country_code":"CZ","state_code":"78","province_code":"3702","name":"\u0158e\u010dkovice","cp":["621 00"],"lat":"49.2667","lng":"16.5833"},{"country_code":"CZ","state_code":"78","province_code":"3702","name":"Brno-Medl\u00e1nky","cp":["621 00"],"lat":"49.2639","lng":"16.5889"},{"country_code":"CZ","state_code":"78","province_code":"3702","name":"Brno-O\u0159e\u0161\u00edn","cp":["621 00"],"lat":"49.2639","lng":"16.5889"},{"country_code":"CZ","state_code":"78","province_code":"3702","name":"Mokr\u00e1 Hora","cp":["621 00"],"lat":"49.2667","lng":"16.6"},{"country_code":"CZ","state_code":"78","province_code":"3702","name":"Brno-\u0158e\u010dkovice","cp":["621 00"],"lat":"49.2639","lng":"16.5889"},{"country_code":"CZ","state_code":"78","province_code":"3702","name":"Ivanovice","cp":["621 00"],"lat":"49.2667","lng":"16.5667"},{"country_code":"CZ","state_code":"78","province_code":"3702","name":"Brno-Ivanovice","cp":["621 00"],"lat":"49.2639","lng":"16.5889"},{"country_code":"CZ","state_code":"78","province_code":"3702","name":"Medl\u00e1nky","cp":["621 00"],"lat":"49.2333","lng":"16.5833"},{"country_code":"CZ","state_code":"78","province_code":"3702","name":"Brno-Jehnice","cp":["621 00"],"lat":"49.2639","lng":"16.5889"},{"country_code":"CZ","state_code":"78","province_code":"3702","name":"O\u0159e\u0161\u00edn","cp":["621 00"],"lat":"49.2833","lng":"16.6"},{"country_code":"CZ","state_code":"78","province_code":"3702","name":"Jehnice","cp":["621 00"],"lat":"49.2667","lng":"16.6"},{"country_code":"CZ","state_code":"78","province_code":"3702","name":"Brno-Mokr\u00e1 Hora","cp":["621 00"],"lat":"49.2639","lng":"16.5889"},{"country_code":"CZ","state_code":"78","province_code":"3702","name":"Brno-Kohoutovice","cp":["623 00"],"lat":"49.2","lng":"16.5333"},{"country_code":"CZ","state_code":"78","province_code":"3702","name":"Pis\u00e1rky","cp":["623 00"],"lat":"49.2","lng":"16.5333"},{"country_code":"CZ","state_code":"78","province_code":"3702","name":"Brno-Pis\u00e1rky","cp":["623 00"],"lat":"49.2","lng":"16.5333"},{"country_code":"CZ","state_code":"78","province_code":"3702","name":"Kohoutovice","cp":["623 00"],"lat":"49.2","lng":"16.5333"},{"country_code":"CZ","state_code":"78","province_code":"3702","name":"Kom\u00edn","cp":["624 00"],"lat":"49.2167","lng":"16.55"},{"country_code":"CZ","state_code":"78","province_code":"3702","name":"Brno-Kom\u00edn","cp":["624 00"],"lat":"49.2167","lng":"16.55"},{"country_code":"CZ","state_code":"78","province_code":"3702","name":"Brno-Nov\u00fd L\u00edskovec","cp":["625 00"],"lat":"49.1333","lng":"13.9667"},{"country_code":"CZ","state_code":"78","province_code":"3702","name":"Brno-Star\u00fd L\u00edskovec","cp":["625 00"],"lat":"49.1333","lng":"13.9667"},{"country_code":"CZ","state_code":"78","province_code":"3702","name":"Star\u00fd L\u00edskovec","cp":["625 00"],"lat":"49.1333","lng":"13.9667"},{"country_code":"CZ","state_code":"78","province_code":"3702","name":"Nov\u00fd L\u00edskovec","cp":["625 00"],"lat":"49.1333","lng":"13.9667"},{"country_code":"CZ","state_code":"78","province_code":"3702","name":"Brno-Bohunice","cp":["625 00"],"lat":"49.1333","lng":"13.9667"},{"country_code":"CZ","state_code":"78","province_code":"3702","name":"Bohunice","cp":["625 00"],"lat":"49.1333","lng":"13.9667"},{"country_code":"CZ","state_code":"78","province_code":"3702","name":"Brno-Slatina","cp":["627 00"],"lat":"48.95","lng":"13.7167"},{"country_code":"CZ","state_code":"78","province_code":"3702","name":"Slatina","cp":["627 00"],"lat":"48.95","lng":"13.7167"},{"country_code":"CZ","state_code":"78","province_code":"3702","name":"Brno-L\u00ed\u0161e\u0148","cp":["628 00"],"lat":"49.6333","lng":"15.5833"},{"country_code":"CZ","state_code":"78","province_code":"3702","name":"L\u00ed\u0161e\u0148","cp":["628 00"],"lat":"49.2","lng":"16.7"},{"country_code":"CZ","state_code":"78","province_code":"3702","name":"Vinohrady","cp":["628 00"],"lat":"50.0667","lng":"14.4667"},{"country_code":"CZ","state_code":"78","province_code":"3702","name":"Brno-Vinohrady","cp":["628 00"],"lat":"49.6333","lng":"15.5833"},{"country_code":"CZ","state_code":"78","province_code":"3702","name":"Brno-Nov\u00fd L\u00edskovec","cp":["634 00"],"lat":"49.1417","lng":"16.3667"},{"country_code":"CZ","state_code":"78","province_code":"3702","name":"Nov\u00fd L\u00edskovec","cp":["634 00"],"lat":"49.1417","lng":"16.3667"},{"country_code":"CZ","state_code":"78","province_code":"3702","name":"Brno-Kn\u00edni\u010dky","cp":["635 00"],"lat":"49.2333","lng":"16.525"},{"country_code":"CZ","state_code":"78","province_code":"3702","name":"Bystrc","cp":["635 00"],"lat":"49.2333","lng":"16.5333"},{"country_code":"CZ","state_code":"78","province_code":"3702","name":"Kn\u00edni\u010dky","cp":["635 00"],"lat":"49.2333","lng":"16.5167"},{"country_code":"CZ","state_code":"78","province_code":"3702","name":"Brno-Bystrc","cp":["635 00"],"lat":"49.2333","lng":"16.525"},{"country_code":"CZ","state_code":"78","province_code":"3702","name":"\u017didenice","cp":["636 00"],"lat":"49.1417","lng":"16.3667"},{"country_code":"CZ","state_code":"78","province_code":"3702","name":"Brno-\u017didenice","cp":["636 00"],"lat":"49.1417","lng":"16.3667"},{"country_code":"CZ","state_code":"78","province_code":"3702","name":"Brno-Jundrov","cp":["637 00"],"lat":"49.2","lng":"16.55"},{"country_code":"CZ","state_code":"78","province_code":"3702","name":"Jundrov","cp":["637 00"],"lat":"49.2","lng":"16.55"},{"country_code":"CZ","state_code":"78","province_code":"3702","name":"Lesn\u00e1","cp":["638 00"],"lat":"48.9","lng":"15.8667"},{"country_code":"CZ","state_code":"78","province_code":"3702","name":"Brno-Lesn\u00e1","cp":["638 00"],"lat":"48.9","lng":"15.8667"},{"country_code":"CZ","state_code":"78","province_code":"3702","name":"Brno-\u0160t\u00fd\u0159ice","cp":["639 00"],"lat":"49.1417","lng":"16.3667"},{"country_code":"CZ","state_code":"78","province_code":"3702","name":"\u0160t\u00fd\u0159ice","cp":["639 00"],"lat":"49.1417","lng":"16.3667"},{"country_code":"CZ","state_code":"78","province_code":"3702","name":"Brno-\u017deb\u011bt\u00edn","cp":["641 00"],"lat":"49.2","lng":"16.4833"},{"country_code":"CZ","state_code":"78","province_code":"3702","name":"\u017deb\u011bt\u00edn","cp":["641 00"],"lat":"49.2","lng":"16.4833"},{"country_code":"CZ","state_code":"78","province_code":"3702","name":"Bosonohy","cp":["642 00"],"lat":"49.1667","lng":"16.5333"},{"country_code":"CZ","state_code":"78","province_code":"3702","name":"Brno-Bosonohy","cp":["642 00"],"lat":"49.1667","lng":"16.5333"},{"country_code":"CZ","state_code":"78","province_code":"3702","name":"Chrlice","cp":["643 00"],"lat":"49.1333","lng":"16.6667"},{"country_code":"CZ","state_code":"78","province_code":"3702","name":"Brno-Chrlice","cp":["643 00"],"lat":"49.1333","lng":"16.6667"},{"country_code":"CZ","state_code":"78","province_code":"3702","name":"\u00dat\u011bchov","cp":["644 00"],"lat":"49.2833","lng":"16.6333"},{"country_code":"CZ","state_code":"78","province_code":"3702","name":"Brno-Sob\u011b\u0161ice","cp":["644 00"],"lat":"49.2667","lng":"16.6333"},{"country_code":"CZ","state_code":"78","province_code":"3702","name":"Brno-\u00dat\u011bchov","cp":["644 00"],"lat":"49.2667","lng":"16.6333"},{"country_code":"CZ","state_code":"78","province_code":"3702","name":"Sob\u011b\u0161ice","cp":["644 00"],"lat":"49.25","lng":"16.6333"},{"country_code":"CZ","state_code":"78","province_code":"3703","name":"Kanice","cp":["664 01"],"lat":"49.2667","lng":"16.7167"},{"country_code":"CZ","state_code":"78","province_code":"3703","name":"\u0158\u00edcmanice","cp":["664 01"],"lat":"49.2667","lng":"16.7"},{"country_code":"CZ","state_code":"78","province_code":"3703","name":"Babice nad Svitavou","cp":["664 01"],"lat":"49.2833","lng":"16.7"},{"country_code":"CZ","state_code":"78","province_code":"3703","name":"B\u00edlovice nad Svitavou","cp":["664 01"],"lat":"49.25","lng":"16.6667"},{"country_code":"CZ","state_code":"78","province_code":"3703","name":"Ochoz u Brna","cp":["664 02"],"lat":"49.2917","lng":"16.425"},{"country_code":"CZ","state_code":"78","province_code":"3703","name":"Host\u011bnice","cp":["664 02"],"lat":"49.2333","lng":"16.7833"},{"country_code":"CZ","state_code":"78","province_code":"3703","name":"Lhotky","cp":["664 02"],"lat":"49.35","lng":"16.0667"},{"country_code":"CZ","state_code":"78","province_code":"3703","name":"Podol\u00ed","cp":["664 03"],"lat":"49.1833","lng":"16.7333"},{"country_code":"CZ","state_code":"78","province_code":"3703","name":"Hor\u00e1kov","cp":["664 04"],"lat":"49.2167","lng":"16.75"},{"country_code":"CZ","state_code":"78","province_code":"3703","name":"Mokr\u00e1","cp":["664 04"],"lat":"49.2333","lng":"16.75"},{"country_code":"CZ","state_code":"78","province_code":"3703","name":"Mokr\u00e1-Hor\u00e1kov","cp":["664 04"],"lat":"49.225","lng":"16.75"},{"country_code":"CZ","state_code":"78","province_code":"3703","name":"Velatice","cp":["664 05"],"lat":"49.2","lng":"16.75"},{"country_code":"CZ","state_code":"78","province_code":"3703","name":"Tvaro\u017en\u00e1","cp":["664 05"],"lat":"49.2","lng":"16.7667"},{"country_code":"CZ","state_code":"78","province_code":"3703","name":"Vini\u010dn\u00e9 \u0160umice","cp":["664 06"],"lat":"49.2167","lng":"16.8167"},{"country_code":"CZ","state_code":"78","province_code":"3703","name":"Kovalovice","cp":["664 06"],"lat":"49.2","lng":"16.8167"},{"country_code":"CZ","state_code":"78","province_code":"3703","name":"Sivice","cp":["664 07"],"lat":"49.2","lng":"16.7833"},{"country_code":"CZ","state_code":"78","province_code":"3703","name":"Pozo\u0159ice","cp":["664 07"],"lat":"49.2","lng":"16.7833"},{"country_code":"CZ","state_code":"78","province_code":"3703","name":"Bla\u017eovice","cp":["664 08"],"lat":"49.1667","lng":"16.7833"},{"country_code":"CZ","state_code":"78","province_code":"3703","name":"Zb\u00fd\u0161ov","cp":["664 11"],"lat":"49.15","lng":"16.35"},{"country_code":"CZ","state_code":"78","province_code":"3703","name":"Ketkovice","cp":["664 12"],"lat":"49.15","lng":"16.2667"},{"country_code":"CZ","state_code":"78","province_code":"3703","name":"Biskoupky","cp":["664 12"],"lat":"49.1","lng":"16.2833"},{"country_code":"CZ","state_code":"78","province_code":"3703","name":"Padochov","cp":["664 12"],"lat":"49.1333","lng":"16.35"},{"country_code":"CZ","state_code":"78","province_code":"3703","name":"\u010cu\u010dice","cp":["664 12"],"lat":"49.1333","lng":"16.2833"},{"country_code":"CZ","state_code":"78","province_code":"3703","name":"Oslavany","cp":["664 12"],"lat":"49.1333","lng":"16.3333"},{"country_code":"CZ","state_code":"78","province_code":"3703","name":"Nov\u00e1 Ves","cp":["664 12"],"lat":"49.13","lng":"16.3033"},{"country_code":"CZ","state_code":"78","province_code":"3703","name":"Tet\u010dice","cp":["664 17"],"lat":"49.1667","lng":"16.3833"},{"country_code":"CZ","state_code":"78","province_code":"3703","name":"\u010ceb\u00edn","cp":["664 23"],"lat":"49.3167","lng":"16.4833"},{"country_code":"CZ","state_code":"78","province_code":"3703","name":"Dr\u00e1sov","cp":["664 24"],"lat":"49.3333","lng":"16.4833"},{"country_code":"CZ","state_code":"78","province_code":"3703","name":"\u010cesk\u00e1","cp":["664 31"],"lat":"49.2833","lng":"16.5667"},{"country_code":"CZ","state_code":"78","province_code":"3703","name":"Lelekovice","cp":["664 31"],"lat":"49.3","lng":"16.5833"},{"country_code":"CZ","state_code":"78","province_code":"3703","name":"Vranov","cp":["664 32"],"lat":"49.3167","lng":"16.6167"},{"country_code":"CZ","state_code":"78","province_code":"3703","name":"Rozdrojovice","cp":["664 34"],"lat":"49.25","lng":"16.5167"},{"country_code":"CZ","state_code":"78","province_code":"3703","name":"Moravsk\u00e9 Kn\u00ednice","cp":["664 34"],"lat":"49.3","lng":"16.5"},{"country_code":"CZ","state_code":"78","province_code":"3703","name":"Ku\u0159im","cp":["664 34"],"lat":"49.3","lng":"16.5333"},{"country_code":"CZ","state_code":"78","province_code":"3703","name":"Jina\u010dovice","cp":["664 34"],"lat":"49.2667","lng":"16.5333"},{"country_code":"CZ","state_code":"78","province_code":"3703","name":"Omice","cp":["664 41"],"lat":"49.1667","lng":"16.45"},{"country_code":"CZ","state_code":"78","province_code":"3703","name":"Pop\u016fvky","cp":["664 41"],"lat":"49.1833","lng":"16.4833"},{"country_code":"CZ","state_code":"78","province_code":"3703","name":"Troubsko","cp":["664 41"],"lat":"49.1667","lng":"16.5167"},{"country_code":"CZ","state_code":"78","province_code":"3703","name":"Mod\u0159ice","cp":["664 42"],"lat":"49.1333","lng":"16.6167"},{"country_code":"CZ","state_code":"78","province_code":"3703","name":"Hajany","cp":["664 43"],"lat":"49.1","lng":"16.5667"},{"country_code":"CZ","state_code":"78","province_code":"3703","name":"\u017dele\u0161ice","cp":["664 43"],"lat":"49.1167","lng":"16.5833"},{"country_code":"CZ","state_code":"78","province_code":"3703","name":"O\u0159echov","cp":["664 44"],"lat":"49.1167","lng":"16.5333"},{"country_code":"CZ","state_code":"78","province_code":"3703","name":"Pr\u0161tice","cp":["664 46"],"lat":"49.1167","lng":"16.4833"},{"country_code":"CZ","state_code":"78","province_code":"3703","name":"Sil\u016fvky","cp":["664 46"],"lat":"49.1","lng":"16.4667"},{"country_code":"CZ","state_code":"78","province_code":"3703","name":"Radostice","cp":["664 46"],"lat":"49.1333","lng":"16.4833"},{"country_code":"CZ","state_code":"78","province_code":"3703","name":"St\u0159elice","cp":["664 47"],"lat":"49.15","lng":"16.5"},{"country_code":"CZ","state_code":"78","province_code":"3703","name":"Moravany","cp":["664 48"],"lat":"49.15","lng":"16.5833"},{"country_code":"CZ","state_code":"78","province_code":"3703","name":"Nebovidy","cp":["664 48"],"lat":"49.1333","lng":"16.55"},{"country_code":"CZ","state_code":"78","province_code":"3703","name":"Ostopovice","cp":["664 49"],"lat":"49.1667","lng":"16.55"},{"country_code":"CZ","state_code":"78","province_code":"3703","name":"Kobylnice","cp":["664 51"],"lat":"49.1333","lng":"16.7333"},{"country_code":"CZ","state_code":"78","province_code":"3703","name":"\u0160lapanice","cp":["664 51"],"lat":"49.1667","lng":"16.7333"},{"country_code":"CZ","state_code":"78","province_code":"3703","name":"Ji\u0159\u00edkovice","cp":["664 51"],"lat":"49.1667","lng":"16.7667"},{"country_code":"CZ","state_code":"78","province_code":"3703","name":"Pon\u011btovice","cp":["664 51"],"lat":"49.15","lng":"16.75"},{"country_code":"CZ","state_code":"78","province_code":"3703","name":"Bed\u0159ichovice","cp":["664 51"],"lat":"49.1833","lng":"16.7167"},{"country_code":"CZ","state_code":"78","province_code":"3703","name":"Sokolnice","cp":["664 52"],"lat":"49.1167","lng":"16.7333"},{"country_code":"CZ","state_code":"78","province_code":"3703","name":"\u017dat\u010dany","cp":["664 53"],"lat":"49.0833","lng":"16.7333"},{"country_code":"CZ","state_code":"78","province_code":"3703","name":"\u00dajezd u Brna","cp":["664 53"],"lat":"49.0833","lng":"16.7333"},{"country_code":"CZ","state_code":"78","province_code":"3703","name":"T\u011b\u0161any","cp":["664 54"],"lat":"49.05","lng":"16.7667"},{"country_code":"CZ","state_code":"78","province_code":"3703","name":"Nesva\u010dilka","cp":["664 54"],"lat":"49.0667","lng":"16.75"},{"country_code":"CZ","state_code":"78","province_code":"3703","name":"Moutnice","cp":["664 55"],"lat":"49.05","lng":"16.7333"},{"country_code":"CZ","state_code":"78","province_code":"3703","name":"Blu\u010dina","cp":["664 56"],"lat":"49.0667","lng":"16.65"},{"country_code":"CZ","state_code":"78","province_code":"3703","name":"M\u011bn\u00edn","cp":["664 57"],"lat":"49.0833","lng":"16.7167"},{"country_code":"CZ","state_code":"78","province_code":"3703","name":"Otmarov","cp":["664 57"],"lat":"49.1","lng":"16.6833"},{"country_code":"CZ","state_code":"78","province_code":"3703","name":"Prace","cp":["664 58"],"lat":"49.1333","lng":"16.7667"},{"country_code":"CZ","state_code":"78","province_code":"3703","name":"Telnice","cp":["664 59"],"lat":"49.1","lng":"16.7333"},{"country_code":"CZ","state_code":"78","province_code":"3703","name":"Rajhradice","cp":["664 61"],"lat":"49.0833","lng":"16.6333"},{"country_code":"CZ","state_code":"78","province_code":"3703","name":"Popovice","cp":["664 61"],"lat":"49.1","lng":"16.6167"},{"country_code":"CZ","state_code":"78","province_code":"3703","name":"Opatovice","cp":["664 61"],"lat":"49.0667","lng":"16.65"},{"country_code":"CZ","state_code":"78","province_code":"3703","name":"Rajhrad","cp":["664 61"],"lat":"49.0833","lng":"16.6"},{"country_code":"CZ","state_code":"78","province_code":"3703","name":"Rebe\u0161ovice","cp":["664 61"],"lat":"49.1","lng":"16.6333"},{"country_code":"CZ","state_code":"78","province_code":"3703","name":"Holasice","cp":["664 61"],"lat":"49.0667","lng":"16.6167"},{"country_code":"CZ","state_code":"78","province_code":"3703","name":"Hru\u0161ovany u Brna","cp":["664 62"],"lat":"49.05","lng":"16.6"},{"country_code":"CZ","state_code":"78","province_code":"3703","name":"Ledce","cp":["664 62"],"lat":"49.05","lng":"16.5667"},{"country_code":"CZ","state_code":"78","province_code":"3703","name":"\u017dab\u010dice","cp":["664 63"],"lat":"49.0167","lng":"16.6"},{"country_code":"CZ","state_code":"78","province_code":"3703","name":"P\u0159\u00edsnotice","cp":["664 63"],"lat":"49","lng":"16.6167"},{"country_code":"CZ","state_code":"78","province_code":"3703","name":"Unkovice","cp":["664 63"],"lat":"49.0333","lng":"16.6167"},{"country_code":"CZ","state_code":"78","province_code":"3703","name":"Doln\u00ed Kounice","cp":["664 64"],"lat":"49.0667","lng":"16.4667"},{"country_code":"CZ","state_code":"78","province_code":"3703","name":"Nov\u00e9 Br\u00e1nice","cp":["664 64"],"lat":"49.0667","lng":"16.45"},{"country_code":"CZ","state_code":"78","province_code":"3703","name":"Trbou\u0161any","cp":["664 64"],"lat":"49.05","lng":"16.4667"},{"country_code":"CZ","state_code":"78","province_code":"3703","name":"Kupa\u0159ovice","cp":["664 64"],"lat":"49.05","lng":"16.5"},{"country_code":"CZ","state_code":"78","province_code":"3703","name":"M\u011bl\u010dany","cp":["664 64"],"lat":"49.0667","lng":"16.5"},{"country_code":"CZ","state_code":"78","province_code":"3703","name":"Pravlov","cp":["664 64"],"lat":"49.05","lng":"16.4833"},{"country_code":"CZ","state_code":"78","province_code":"3703","name":"Odrovice","cp":["664 64"],"lat":"49.0167","lng":"16.5167"},{"country_code":"CZ","state_code":"78","province_code":"3703","name":"Moravsk\u00e9 Br\u00e1nice","cp":["664 64"],"lat":"49.0833","lng":"16.45"},{"country_code":"CZ","state_code":"78","province_code":"3703","name":"Male\u0161ovice","cp":["664 65"],"lat":"49.0167","lng":"16.5"},{"country_code":"CZ","state_code":"78","province_code":"3703","name":"Medlov","cp":["664 66"],"lat":"49.0333","lng":"16.5333"},{"country_code":"CZ","state_code":"78","province_code":"3703","name":"N\u011bm\u010di\u010dky","cp":["664 66"],"lat":"49.05","lng":"16.5"},{"country_code":"CZ","state_code":"78","province_code":"3703","name":"Brat\u010dice","cp":["664 67"],"lat":"49.0667","lng":"16.5333"},{"country_code":"CZ","state_code":"78","province_code":"3703","name":"Sobotovice","cp":["664 67"],"lat":"49.0667","lng":"16.55"},{"country_code":"CZ","state_code":"78","province_code":"3703","name":"Syrovice","cp":["664 67"],"lat":"49.0833","lng":"16.55"},{"country_code":"CZ","state_code":"78","province_code":"3703","name":"Chud\u010dice","cp":["664 71"],"lat":"49.3","lng":"16.4667"},{"country_code":"CZ","state_code":"78","province_code":"3703","name":"Bran\u00ed\u0161kov","cp":["664 71"],"lat":"49.3","lng":"16.35"},{"country_code":"CZ","state_code":"78","province_code":"3703","name":"Veversk\u00e1 B\u00edt\u00fd\u0161ka","cp":["664 71"],"lat":"49.2667","lng":"16.4333"},{"country_code":"CZ","state_code":"78","province_code":"3703","name":"La\u017e\u00e1nky","cp":["664 71"],"lat":"49.35","lng":"16.7167"},{"country_code":"CZ","state_code":"78","province_code":"3703","name":"Mar\u0161ov","cp":["664 71"],"lat":"49.2833","lng":"16.3667"},{"country_code":"CZ","state_code":"78","province_code":"3703","name":"Holasice","cp":["664 71"],"lat":"49.2833","lng":"16.4"},{"country_code":"CZ","state_code":"78","province_code":"3703","name":"Hvozdec","cp":["664 71"],"lat":"49.25","lng":"16.4333"},{"country_code":"CZ","state_code":"78","province_code":"3703","name":"Debl\u00edn","cp":["664 75"],"lat":"49.3167","lng":"16.35"},{"country_code":"CZ","state_code":"78","province_code":"3703","name":"Ostrova\u010dice","cp":["664 81"],"lat":"49.2167","lng":"16.4167"},{"country_code":"CZ","state_code":"78","province_code":"3703","name":"Veversk\u00e9 Kn\u00ednice","cp":["664 81"],"lat":"49.2333","lng":"16.4167"},{"country_code":"CZ","state_code":"78","province_code":"3703","name":"\u0158\u00ed\u010dany","cp":["664 82"],"lat":"49.2167","lng":"16.3833"},{"country_code":"CZ","state_code":"78","province_code":"3703","name":"Lesn\u00ed Hlubok\u00e9","cp":["664 83"],"lat":"49.2167","lng":"16.2333"},{"country_code":"CZ","state_code":"78","province_code":"3703","name":"Rado\u0161kov","cp":["664 83"],"lat":"49.2833","lng":"16.3"},{"country_code":"CZ","state_code":"78","province_code":"3703","name":"Litostrov","cp":["664 83"],"lat":"49.2333","lng":"16.3333"},{"country_code":"CZ","state_code":"78","province_code":"3703","name":"Doma\u0161ov","cp":["664 83"],"lat":"49.25","lng":"16.3333"},{"country_code":"CZ","state_code":"78","province_code":"3703","name":"Jav\u016frek","cp":["664 83"],"lat":"49.25","lng":"16.3667"},{"country_code":"CZ","state_code":"78","province_code":"3703","name":"Rudka","cp":["664 83"],"lat":"49.2333","lng":"16.3333"},{"country_code":"CZ","state_code":"78","province_code":"3703","name":"\u0158\u00ed\u010dky","cp":["664 83"],"lat":"49.2333","lng":"16.35"},{"country_code":"CZ","state_code":"78","province_code":"3703","name":"P\u0159ibyslavice","cp":["664 83"],"lat":"49.2833","lng":"16.2667"},{"country_code":"CZ","state_code":"78","province_code":"3703","name":"Zbraslav","cp":["664 84"],"lat":"49.2167","lng":"16.3"},{"country_code":"CZ","state_code":"78","province_code":"3703","name":"Lukovany","cp":["664 84"],"lat":"49.1667","lng":"16.2833"},{"country_code":"CZ","state_code":"78","province_code":"3703","name":"P\u0159\u00edbram","cp":["664 84"],"lat":"49.2","lng":"16.3"},{"country_code":"CZ","state_code":"78","province_code":"3703","name":"\u00dajezd u Rosic","cp":["664 84"],"lat":"49.2042","lng":"16.3"},{"country_code":"CZ","state_code":"78","province_code":"3703","name":"Z\u00e1lesn\u00e1 Zho\u0159","cp":["664 84"],"lat":"49.25","lng":"16.2833"},{"country_code":"CZ","state_code":"78","province_code":"3703","name":"Zak\u0159any","cp":["664 84"],"lat":"49.1667","lng":"16.3333"},{"country_code":"CZ","state_code":"78","province_code":"3703","name":"Vysok\u00e9 Popovice","cp":["664 84"],"lat":"49.1833","lng":"16.2833"},{"country_code":"CZ","state_code":"78","province_code":"3703","name":"Stanovi\u0161t\u011b","cp":["664 84"],"lat":"49.25","lng":"16.25"},{"country_code":"CZ","state_code":"78","province_code":"3703","name":"Zast\u00e1vka","cp":["664 84"],"lat":"49.2","lng":"16.3667"},{"country_code":"CZ","state_code":"78","province_code":"3703","name":"Babice u Rosic","cp":["664 84"],"lat":"49.2042","lng":"16.3"},{"country_code":"CZ","state_code":"78","province_code":"3703","name":"Neslovice","cp":["664 91"],"lat":"49.15","lng":"16.3833"},{"country_code":"CZ","state_code":"78","province_code":"3703","name":"Alexovice","cp":["664 91"],"lat":"49.0833","lng":"16.35"},{"country_code":"CZ","state_code":"78","province_code":"3703","name":"Hl\u00edna","cp":["664 91"],"lat":"49.1167","lng":"16.4333"},{"country_code":"CZ","state_code":"78","province_code":"3703","name":"Hrub\u0161ice","cp":["664 91"],"lat":"49.0833","lng":"16.3"},{"country_code":"CZ","state_code":"78","province_code":"3703","name":"Budkovice","cp":["664 91"],"lat":"49.0667","lng":"16.35"},{"country_code":"CZ","state_code":"78","province_code":"3703","name":"Letkovice","cp":["664 91"],"lat":"49.1","lng":"16.35"},