[{"country_code":"DK","state_code":"18","province_code":"615","name":"Endelave","cp":["8789"],"lat":"55.7573","lng":"10.271"},{"country_code":"DK","state_code":"18","province_code":"727","name":"Tun\u00f8","cp":["8799"],"lat":"55.9528","lng":"10.432"},{"country_code":"DK","state_code":"20","province_code":"316","name":"Or\u00f8","cp":["4305"],"lat":"55.7718","lng":"11.8163"},{"country_code":"DK","state_code":"20","province_code":"330","name":"Agers\u00f8","cp":["4244"],"lat":"55.2149","lng":"11.1854"},{"country_code":"DK","state_code":"20","province_code":"330","name":"Om\u00f8","cp":["4245"],"lat":"55.162","lng":"11.159"},{"country_code":"DK","state_code":"20","province_code":"360","name":"Ask\u00f8 og Lille\u00f8","cp":["4942"],"lat":"54.8969","lng":"11.495"},{"country_code":"DK","state_code":"20","province_code":"360","name":"Fem\u00f8","cp":["4945"],"lat":"54.9758","lng":"11.5352"},{"country_code":"DK","state_code":"21","province_code":"430","name":"Ly\u00f8","cp":["5601"],"lat":"55.0439","lng":"10.1473"},{"country_code":"DK","state_code":"21","province_code":"430","name":"Avernak\u00f8","cp":["5602"],"lat":"55.0187","lng":"10.2845"},{"country_code":"DK","state_code":"21","province_code":"430","name":"Bj\u00f8rn\u00f8","cp":["5603"],"lat":"55.0633","lng":"10.2482"},{"country_code":"DK","state_code":"21","province_code":"482","name":"Stryn\u00f8","cp":["5943"],"lat":"54.9008","lng":"10.6118"},{"country_code":"DK","state_code":"21","province_code":"492","name":"Birkholm","cp":["5965"],"lat":"54.931","lng":"10.503"},{"country_code":"DK","state_code":"21","province_code":"580","name":"Bars\u00f8","cp":["6210"],"lat":"55.1216","lng":"9.5578"},{"country_code":"DK","state_code":"81","province_code":"773","name":"Nyk\u00f8bing M","cp":["7900"],"lat":"56.7619","lng":"8.6836"},{"country_code":"DK","state_code":"81","province_code":"773","name":"Erslev","cp":["7950"],"lat":"56.8298","lng":"8.7501"},{"country_code":"DK","state_code":"81","province_code":"773","name":"Karby","cp":["7960"],"lat":"56.7536","lng":"8.5613"},{"country_code":"DK","state_code":"81","province_code":"773","name":"Redsted M","cp":["7970"],"lat":"56.7619","lng":"8.6836"},{"country_code":"DK","state_code":"81","province_code":"773","name":"Vils","cp":["7980"],"lat":"56.7631","lng":"8.7286"},{"country_code":"DK","state_code":"81","province_code":"773","name":"\u00d8ster Assels","cp":["7990"],"lat":"56.7011","lng":"8.6946"},{"country_code":"DK","state_code":"81","province_code":"787","name":"Thisted","cp":["7700"],"lat":"56.9552","lng":"8.6949"},{"country_code":"DK","state_code":"81","province_code":"787","name":"Hanstholm","cp":["7730"],"lat":"57.1167","lng":"8.6167"},{"country_code":"DK","state_code":"81","province_code":"787","name":"Fr\u00f8strup","cp":["7741"],"lat":"57.0867","lng":"8.9958"},{"country_code":"DK","state_code":"81","province_code":"787","name":"Vesl\u00f8s","cp":["7742"],"lat":"57.0383","lng":"8.9746"},{"country_code":"DK","state_code":"81","province_code":"787","name":"Snedsted","cp":["7752"],"lat":"56.8924","lng":"8.5244"},{"country_code":"DK","state_code":"81","province_code":"787","name":"Bedsted Thy","cp":["7755"],"lat":"56.8924","lng":"8.5244"},{"country_code":"DK","state_code":"81","province_code":"787","name":"Hurup Thy","cp":["7760"],"lat":"56.7494","lng":"8.4195"},{"country_code":"DK","state_code":"81","province_code":"787","name":"Vestervig","cp":["7770"],"lat":"56.7628","lng":"8.3194"},{"country_code":"DK","state_code":"81","province_code":"810","name":"Hjallerup","cp":["9320"],"lat":"57.1647","lng":"10.1457"},{"country_code":"DK","state_code":"81","province_code":"810","name":"Dronninglund","cp":["9330"],"lat":"57.1604","lng":"10.2929"},{"country_code":"DK","state_code":"81","province_code":"810","name":"Asaa","cp":["9340"],"lat":"57.1487","lng":"10.4037"},{"country_code":"DK","state_code":"81","province_code":"810","name":"Dybvad","cp":["9352"],"lat":"57.272","lng":"10.3595"},{"country_code":"DK","state_code":"81","province_code":"810","name":"Hals","cp":["9370"],"lat":"56.9961","lng":"10.3081"},{"country_code":"DK","state_code":"81","province_code":"810","name":"Tylstrup","cp":["9382"],"lat":"57.1947","lng":"9.9531"},{"country_code":"DK","state_code":"81","province_code":"810","name":"Aabybro","cp":["9440"],"lat":"57.1584","lng":"9.7367"},{"country_code":"DK","state_code":"81","province_code":"810","name":"L\u00f8kken","cp":["9480"],"lat":"57.3705","lng":"9.7147"},{"country_code":"DK","state_code":"81","province_code":"810","name":"Br\u00f8nderslev","cp":["9700"],"lat":"57.2702","lng":"9.941"},{"country_code":"DK","state_code":"81","province_code":"810","name":"Jerslev J","cp":["9740"],"lat":"57.323","lng":"10.0722"},{"country_code":"DK","state_code":"81","province_code":"810","name":"\u00d8stervr\u00e5","cp":["9750"],"lat":"57.3417","lng":"10.2401"},{"country_code":"DK","state_code":"81","province_code":"810","name":"Vr\u00e5","cp":["9760"],"lat":"57.3476","lng":"9.9515"},{"country_code":"DK","state_code":"81","province_code":"813","name":"S\u00e6by","cp":["9300"],"lat":"57.3319","lng":"10.5225"},{"country_code":"DK","state_code":"81","province_code":"813","name":"Dronninglund","cp":["9330"],"lat":"57.1604","lng":"10.2929"},{"country_code":"DK","state_code":"81","province_code":"813","name":"Asaa","cp":["9340"],"lat":"57.1487","lng":"10.4037"},{"country_code":"DK","state_code":"81","province_code":"813","name":"Dybvad","cp":["9352"],"lat":"57.272","lng":"10.3595"},{"country_code":"DK","state_code":"81","province_code":"813","name":"\u00d8stervr\u00e5","cp":["9750"],"lat":"57.3417","lng":"10.2401"},{"country_code":"DK","state_code":"81","province_code":"813","name":"T\u00e5rs","cp":["9830"],"lat":"57.3833","lng":"10.1167"},{"country_code":"DK","state_code":"81","province_code":"813","name":"Sindal","cp":["9870"],"lat":"57.4712","lng":"10.2031"},{"country_code":"DK","state_code":"81","province_code":"813","name":"Bindslev","cp":["9881"],"lat":"57.5521","lng":"10.2036"},{"country_code":"DK","state_code":"81","province_code":"813","name":"Frederikshavn","cp":["9900"],"lat":"57.4407","lng":"10.5366"},{"country_code":"DK","state_code":"81","province_code":"813","name":"Strandby","cp":["9970"],"lat":"57.4915","lng":"10.4961"},{"country_code":"DK","state_code":"81","province_code":"813","name":"Jerup","cp":["9981"],"lat":"57.5343","lng":"10.4166"},{"country_code":"DK","state_code":"81","province_code":"813","name":"\u00c5lb\u00e6k","cp":["9982"],"lat":"57.5925","lng":"10.4046"},{"country_code":"DK","state_code":"81","province_code":"813","name":"Skagen","cp":["9990"],"lat":"57.7209","lng":"10.5839"},{"country_code":"DK","state_code":"81","province_code":"820","name":"Nibe","cp":["9240"],"lat":"56.9815","lng":"9.6392"},{"country_code":"DK","state_code":"81","province_code":"820","name":"Suldrup","cp":["9541"],"lat":"56.8488","lng":"9.7006"},{"country_code":"DK","state_code":"81","province_code":"820","name":"Aars","cp":["9600"],"lat":"56.804","lng":"9.5144"},{"country_code":"DK","state_code":"81","province_code":"820","name":"N\u00f8rager","cp":["9610"],"lat":"56.7262","lng":"9.5971"},{"country_code":"DK","state_code":"81","province_code":"820","name":"Aalestrup","cp":["9620"],"lat":"56.6947","lng":"9.4934"},{"country_code":"DK","state_code":"81","province_code":"820","name":"Gedsted","cp":["9631"],"lat":"56.6892","lng":"9.3367"},{"country_code":"DK","state_code":"81","province_code":"820","name":"Fars\u00f8","cp":["9640"],"lat":"56.7728","lng":"9.3393"},{"country_code":"DK","state_code":"81","province_code":"820","name":"L\u00f8gst\u00f8r","cp":["9670"],"lat":"56.9625","lng":"9.2583"},{"country_code":"DK","state_code":"81","province_code":"820","name":"Ranum","cp":["9681"],"lat":"56.8973","lng":"9.2287"},{"country_code":"DK","state_code":"81","province_code":"825","name":"L\u00e6s\u00f8","cp":["9940"],"lat":"57.5448","lng":"10.4827"},{"country_code":"DK","state_code":"81","province_code":"840","name":"Svenstrup J","cp":["9230"],"lat":"56.9733","lng":"9.9233"},{"country_code":"DK","state_code":"81","province_code":"840","name":"Nibe","cp":["9240"],"lat":"56.9815","lng":"9.6392"},{"country_code":"DK","state_code":"81","province_code":"840","name":"Gistrup","cp":["9260"],"lat":"56.9943","lng":"9.9909"},{"country_code":"DK","state_code":"81","province_code":"840","name":"Kongerslev","cp":["9293"],"lat":"56.9056","lng":"10.1267"},{"country_code":"DK","state_code":"81","province_code":"840","name":"Hobro","cp":["9500"],"lat":"56.6431","lng":"9.7903"},{"country_code":"DK","state_code":"81","province_code":"840","name":"Arden","cp":["9510"],"lat":"56.769","lng":"9.8618"},{"country_code":"DK","state_code":"81","province_code":"840","name":"Sk\u00f8rping","cp":["9520"],"lat":"56.8363","lng":"9.8925"},{"country_code":"DK","state_code":"81","province_code":"840","name":"St\u00f8vring","cp":["9530"],"lat":"56.8854","lng":"9.8384"},{"country_code":"DK","state_code":"81","province_code":"840","name":"Suldrup","cp":["9541"],"lat":"56.8488","lng":"9.7006"},{"country_code":"DK","state_code":"81","province_code":"840","name":"Hadsund","cp":["9560"],"lat":"56.7148","lng":"10.1168"},{"country_code":"DK","state_code":"81","province_code":"840","name":"B\u00e6lum","cp":["9574"],"lat":"56.83","lng":"10.1198"},{"country_code":"DK","state_code":"81","province_code":"840","name":"Terndrup","cp":["9575"],"lat":"56.8139","lng":"10.0615"},{"country_code":"DK","state_code":"81","province_code":"840","name":"Aars","cp":["9600"],"lat":"56.804","lng":"9.5144"},{"country_code":"DK","state_code":"81","province_code":"840","name":"N\u00f8rager","cp":["9610"],"lat":"56.7262","lng":"9.5971"},{"country_code":"DK","state_code":"81","province_code":"840","name":"Aalestrup","cp":["9620"],"lat":"56.6947","lng":"9.4934"},{"country_code":"DK","state_code":"81","province_code":"846","name":"Havndal","cp":["8970"],"lat":"56.6525","lng":"10.1967"},{"country_code":"DK","state_code":"81","province_code":"846","name":"F\u00e5rup","cp":["8990"],"lat":"56.3667","lng":"10.2494"},{"country_code":"DK","state_code":"81","province_code":"846","name":"Hobro","cp":["9500"],"lat":"56.6431","lng":"9.7903"},{"country_code":"DK","state_code":"81","province_code":"846","name":"Arden","cp":["9510"],"lat":"56.769","lng":"9.8618"},{"country_code":"DK","state_code":"81","province_code":"846","name":"Mariager","cp":["9550"],"lat":"56.6499","lng":"9.9751"},{"country_code":"DK","state_code":"81","province_code":"846","name":"Hadsund","cp":["9560"],"lat":"56.7148","lng":"10.1168"},{"country_code":"DK","state_code":"81","province_code":"846","name":"Aalestrup","cp":["9620"],"lat":"56.6947","lng":"9.4934"},{"country_code":"DK","state_code":"81","province_code":"846","name":"M\u00f8ldrup","cp":["9632"],"lat":"56.6167","lng":"9.5011"},{"country_code":"DK","state_code":"81","province_code":"849","name":"Sulsted","cp":["9381"],"lat":"57.1634","lng":"9.9567"},{"country_code":"DK","state_code":"81","province_code":"849","name":"Tylstrup","cp":["9382"],"lat":"57.1947","lng":"9.9531"},{"country_code":"DK","state_code":"81","province_code":"849","name":"Vadum","cp":["9430"],"lat":"57.1179","lng":"9.857"},{"country_code":"DK","state_code":"81","province_code":"849","name":"Aabybro","cp":["9440"],"lat":"57.1584","lng":"9.7367"},{"country_code":"DK","state_code":"81","province_code":"849","name":"Brovst","cp":["9460"],"lat":"57.0956","lng":"9.528"},{"country_code":"DK","state_code":"81","province_code":"849","name":"L\u00f8kken","cp":["9480"],"lat":"57.3705","lng":"9.7147"},{"country_code":"DK","state_code":"81","province_code":"849","name":"Pandrup","cp":["9490"],"lat":"57.2215","lng":"9.6757"},{"country_code":"DK","state_code":"81","province_code":"849","name":"Blokhus","cp":["9492"],"lat":"57.248","lng":"9.5897"},{"country_code":"DK","state_code":"81","province_code":"849","name":"Saltum","cp":["9493"],"lat":"57.2719","lng":"9.698"},{"country_code":"DK","state_code":"81","province_code":"849","name":"L\u00f8gst\u00f8r","cp":["9670"],"lat":"56.9625","lng":"9.2583"},{"country_code":"DK","state_code":"81","province_code":"849","name":"Fjerritslev","cp":["9690"],"lat":"57.0813","lng":"9.2664"},{"country_code":"DK","state_code":"81","province_code":"849","name":"Br\u00f8nderslev","cp":["9700"],"lat":"57.2702","lng":"9.941"},{"country_code":"DK","state_code":"81","province_code":"851","name":"Aalborg","cp":["9000","9100"],"lat":"57.048","lng":"9.9187"},{"country_code":"DK","state_code":"81","province_code":"851","name":"Aalborg SV","cp":["9200"],"lat":"56.9733","lng":"9.9233"},{"country_code":"DK","state_code":"81","province_code":"851","name":"Aalborg S\u00d8","cp":["9210"],"lat":"56.9733","lng":"9.9233"},{"country_code":"DK","state_code":"81","province_code":"851","name":"Aalborg \u00d8st","cp":["9220"],"lat":"56.9733","lng":"9.9233"},{"country_code":"DK","state_code":"81","province_code":"851","name":"Svenstrup J","cp":["9230"],"lat":"56.9733","lng":"9.9233"},{"country_code":"DK","state_code":"81","province_code":"851","name":"Nibe","cp":["9240"],"lat":"56.9815","lng":"9.6392"},{"country_code":"DK","state_code":"81","province_code":"851","name":"Gistrup","cp":["9260"],"lat":"56.9943","lng":"9.9909"},{"country_code":"DK","state_code":"81","province_code":"851","name":"Klarup","cp":["9270"],"lat":"57.0119","lng":"10.0562"},{"country_code":"DK","state_code":"81","province_code":"851","name":"Storvorde","cp":["9280"],"lat":"57.0039","lng":"10.1013"},{"country_code":"DK","state_code":"81","province_code":"851","name":"Kongerslev","cp":["9293"],"lat":"56.9056","lng":"10.1267"},{"country_code":"DK","state_code":"81","province_code":"851","name":"Vodskov","cp":["9310"],"lat":"57.1085","lng":"10.0222"},{"country_code":"DK","state_code":"81","province_code":"851","name":"Hjallerup","cp":["9320"],"lat":"57.1647","lng":"10.1457"},{"country_code":"DK","state_code":"81","province_code":"851","name":"Gandrup","cp":["9362"],"lat":"57.0574","lng":"10.1814"},{"country_code":"DK","state_code":"81","province_code":"851","name":"Hals","cp":["9370"],"lat":"56.9961","lng":"10.3081"},{"country_code":"DK","state_code":"81","province_code":"851","name":"Vestbjerg","cp":["9380"],"lat":"57.1317","lng":"9.9594"},{"country_code":"DK","state_code":"81","province_code":"851","name":"Sulsted","cp":["9381"],"lat":"57.1634","lng":"9.9567"},{"country_code":"DK","state_code":"81","province_code":"851","name":"Tylstrup","cp":["9382"],"lat":"57.1947","lng":"9.9531"},{"country_code":"DK","state_code":"81","province_code":"851","name":"N\u00f8rresundby","cp":["9400"],"lat":"57.0483","lng":"9.9352"},{"country_code":"DK","state_code":"81","province_code":"851","name":"Vadum","cp":["9430"],"lat":"57.1179","lng":"9.857"},{"country_code":"DK","state_code":"81","province_code":"851","name":"Aabybro","cp":["9440"],"lat":"57.1584","lng":"9.7367"},{"country_code":"DK","state_code":"81","province_code":"851","name":"St\u00f8vring","cp":["9530"],"lat":"56.8854","lng":"9.8384"},{"country_code":"DK","state_code":"81","province_code":"860","name":"L\u00f8kken","cp":["9480"],"lat":"57.3705","lng":"9.7147"},{"country_code":"DK","state_code":"81","province_code":"860","name":"Jerslev J","cp":["9740"],"lat":"57.323","lng":"10.0722"},{"country_code":"DK","state_code":"81","province_code":"860","name":"\u00d8stervr\u00e5","cp":["9750"],"lat":"57.3417","lng":"10.2401"},{"country_code":"DK","state_code":"81","province_code":"860","name":"Vr\u00e5","cp":["9760"],"lat":"57.3476","lng":"9.9515"},{"country_code":"DK","state_code":"81","province_code":"860","name":"Hj\u00f8rring","cp":["9800"],"lat":"57.4642","lng":"9.9823"},{"country_code":"DK","state_code":"81","province_code":"860","name":"T\u00e5rs","cp":["9830"],"lat":"57.3833","lng":"10.1167"},{"country_code":"DK","state_code":"81","province_code":"860","name":"Hirtshals","cp":["9850"],"lat":"57.5881","lng":"9.9592"},{"country_code":"DK","state_code":"81","province_code":"860","name":"Sindal","cp":["9870"],"lat":"57.4712","lng":"10.2031"},{"country_code":"DK","state_code":"81","province_code":"860","name":"Bindslev","cp":["9881"],"lat":"57.5521","lng":"10.2036"},{"country_code":"DK","state_code":"81","province_code":"860","name":"Frederikshavn","cp":["9900"],"lat":"57.4407","lng":"10.5366"},{"country_code":"DK","state_code":"81","province_code":"860","name":"\u00c5lb\u00e6k","cp":["9982"],"lat":"57.5925","lng":"10.4046"},{"country_code":"DK","state_code":"82","province_code":"615","name":"Bryrup","cp":["8654"],"lat":"56.0228","lng":"9.5183"},{"country_code":"DK","state_code":"82","province_code":"615","name":"Skanderborg","cp":["8660"],"lat":"56.0399","lng":"9.9272"},{"country_code":"DK","state_code":"82","province_code":"615","name":"Ry","cp":["8680"],"lat":"56.0904","lng":"9.7651"},{"country_code":"DK","state_code":"82","province_code":"615","name":"Horsens","cp":["8700"],"lat":"55.8607","lng":"9.8503"},{"country_code":"DK","state_code":"82","province_code":"615","name":"Hovedg\u00e5rd","cp":["8732"],"lat":"55.9417","lng":"9.955"},{"country_code":"DK","state_code":"82","province_code":"615","name":"Br\u00e6dstrup","cp":["8740"],"lat":"55.9715","lng":"9.6113"},{"country_code":"DK","state_code":"82","province_code":"615","name":"Gedved","cp":["8751"],"lat":"55.9308","lng":"9.846"},{"country_code":"DK","state_code":"82","province_code":"615","name":"\u00d8stbirk","cp":["8752"],"lat":"55.9648","lng":"9.7556"},{"country_code":"DK","state_code":"82","province_code":"615","name":"Flemming","cp":["8762"],"lat":"55.8687","lng":"9.6675"},{"country_code":"DK","state_code":"82","province_code":"615","name":"Klovborg","cp":["8765"],"lat":"55.9319","lng":"9.491"},{"country_code":"DK","state_code":"82","province_code":"615","name":"Stenderup","cp":["8781"],"lat":"55.7921","lng":"9.8097"},{"country_code":"DK","state_code":"82","province_code":"615","name":"Hornsyld","cp":["8783"],"lat":"55.7526","lng":"9.8512"},{"country_code":"DK","state_code":"82","province_code":"657","name":"Kib\u00e6k","cp":["6933"],"lat":"56.0317","lng":"8.857"},{"country_code":"DK","state_code":"82","province_code":"657","name":"\u00d8rnh\u00f8j","cp":["6973"],"lat":"56.1987","lng":"8.5645"},{"country_code":"DK","state_code":"82","province_code":"657","name":"Ulfborg","cp":["6990"],"lat":"56.2673","lng":"8.3217"},{"country_code":"DK","state_code":"82","province_code":"657","name":"S\u00f8nder Omme","cp":["7260"],"lat":"55.8398","lng":"8.8972"},{"country_code":"DK","state_code":"82","province_code":"657","name":"Stakroge","cp":["7270"],"lat":"55.8901","lng":"8.8473"},{"country_code":"DK","state_code":"82","province_code":"657","name":"S\u00f8nder Felding","cp":["7280"],"lat":"55.9376","lng":"8.7794"},{"country_code":"DK","state_code":"82","province_code":"657","name":"Brande","cp":["7330"],"lat":"55.9381","lng":"9.1218"},{"country_code":"DK","state_code":"82","province_code":"657","name":"Herning","cp":["7400"],"lat":"56.1393","lng":"8.9738"},{"country_code":"DK","state_code":"82","province_code":"657","name":"Sunds","cp":["7451"],"lat":"56.2042","lng":"9.0127"},{"country_code":"DK","state_code":"82","province_code":"657","name":"Karup J","cp":["7470"],"lat":"56.1757","lng":"9.0321"},{"country_code":"DK","state_code":"82","province_code":"657","name":"Vildbjerg","cp":["7480"],"lat":"56.2","lng":"8.7667"},{"country_code":"DK","state_code":"82","province_code":"657","name":"Aulum","cp":["7490"],"lat":"56.2654","lng":"8.7926"},{"country_code":"DK","state_code":"82","province_code":"657","name":"Holstebro","cp":["7500"],"lat":"56.3601","lng":"8.6161"},{"country_code":"DK","state_code":"82","province_code":"657","name":"Haderup","cp":["7540"],"lat":"56.3896","lng":"8.9943"},{"country_code":"DK","state_code":"82","province_code":"657","name":"S\u00f8rvad","cp":["7550"],"lat":"56.2629","lng":"8.6563"},{"country_code":"DK","state_code":"82","province_code":"657","name":"Vinderup","cp":["7830"],"lat":"56.4751","lng":"8.7908"},{"country_code":"DK","state_code":"82","province_code":"661","name":"Ulfborg","cp":["6990"],"lat":"56.2673","lng":"8.3217"},{"country_code":"DK","state_code":"82","province_code":"661","name":"Holstebro","cp":["7500"],"lat":"56.3601","lng":"8.6161"},{"country_code":"DK","state_code":"82","province_code":"661","name":"Haderup","cp":["7540"],"lat":"56.3896","lng":"8.9943"},{"country_code":"DK","state_code":"82","province_code":"661","name":"Hjerm","cp":["7560"],"lat":"56.4384","lng":"8.6345"},{"country_code":"DK","state_code":"82","province_code":"661","name":"Vemb","cp":["7570"],"lat":"56.3423","lng":"8.3375"},{"country_code":"DK","state_code":"82","province_code":"661","name":"Struer","cp":["7600"],"lat":"56.4912","lng":"8.5838"},{"country_code":"DK","state_code":"82","province_code":"661","name":"Skive","cp":["7800"],"lat":"56.5638","lng":"9.0402"},{"country_code":"DK","state_code":"82","province_code":"661","name":"Vinderup","cp":["7830"],"lat":"56.4751","lng":"8.7908"},{"country_code":"DK","state_code":"82","province_code":"665","name":"Ulfborg","cp":["6990"],"lat":"56.2673","lng":"8.3217"},{"country_code":"DK","state_code":"82","province_code":"665","name":"Vemb","cp":["7570"],"lat":"56.3423","lng":"8.3375"},{"country_code":"DK","state_code":"82","province_code":"665","name":"Struer","cp":["7600"],"lat":"56.4912","lng":"8.5838"},{"country_code":"DK","state_code":"82","province_code":"665","name":"Lemvig","cp":["7620"],"lat":"56.5486","lng":"8.3102"},{"country_code":"DK","state_code":"82","province_code":"665","name":"B\u00f8vlingbjerg","cp":["7650"],"lat":"56.4353","lng":"8.2029"},{"country_code":"DK","state_code":"82","province_code":"665","name":"B\u00e6kmarksbro","cp":["7660"],"lat":"56.4153","lng":"8.307"},{"country_code":"DK","state_code":"82","province_code":"665","name":"Harbo\u00f8re","cp":["7673"],"lat":"56.6175","lng":"8.1807"},{"country_code":"DK","state_code":"82","province_code":"665","name":"Thybor\u00f8n","cp":["7680"],"lat":"56.6985","lng":"8.2124"},{"country_code":"DK","state_code":"82","province_code":"671","name":"Holstebro","cp":["7500"],"lat":"56.3601","lng":"8.6161"},{"country_code":"DK","state_code":"82","province_code":"671","name":"Hjerm","cp":["7560"],"lat":"56.4384","lng":"8.6345"},{"country_code":"DK","state_code":"82","province_code":"671","name":"Struer","cp":["7600"],"lat":"56.4912","lng":"8.5838"},{"country_code":"DK","state_code":"82","province_code":"671","name":"B\u00e6kmarksbro","cp":["7660"],"lat":"56.4153","lng":"8.307"},{"country_code":"DK","state_code":"82","province_code":"671","name":"Hurup Thy","cp":["7760"],"lat":"56.7494","lng":"8.4195"},{"country_code":"DK","state_code":"82","province_code":"671","name":"Thyholm","cp":["7790"],"lat":"56.9189","lng":"8.6206"},{"country_code":"DK","state_code":"82","province_code":"671","name":"Vinderup","cp":["7830"],"lat":"56.4751","lng":"8.7908"},{"country_code":"DK","state_code":"82","province_code":"706","name":"Ebeltoft","cp":["8400"],"lat":"56.1944","lng":"10.6821"},{"country_code":"DK","state_code":"82","province_code":"706","name":"R\u00f8nde","cp":["8410"],"lat":"56.3015","lng":"10.4751"},{"country_code":"DK","state_code":"82","province_code":"706","name":"Knebel","cp":["8420"],"lat":"56.2141","lng":"10.4886"},{"country_code":"DK","state_code":"82","province_code":"706","name":"Balle","cp":["8444"],"lat":"56.2963","lng":"10.2589"},{"country_code":"DK","state_code":"82","province_code":"706","name":"Hornslet","cp":["8543"],"lat":"56.3155","lng":"10.3204"},{"country_code":"DK","state_code":"82","province_code":"706","name":"M\u00f8rke","cp":["8544"],"lat":"56.3345","lng":"10.3819"},{"country_code":"DK","state_code":"82","province_code":"706","name":"Ryomg\u00e5rd","cp":["8550"],"lat":"56.3843","lng":"10.503"},{"country_code":"DK","state_code":"82","province_code":"706","name":"Kolind","cp":["8560"],"lat":"56.3606","lng":"10.5836"},{"country_code":"DK","state_code":"82","province_code":"706","name":"Trustrup","cp":["8570"],"lat":"56.3493","lng":"10.7739"},{"country_code":"DK","state_code":"82","province_code":"706","name":"Nimtofte","cp":["8581"],"lat":"56.408","lng":"10.5686"},{"country_code":"DK","state_code":"82","province_code":"706","name":"Auning","cp":["8963"],"lat":"56.4308","lng":"10.3782"},{"country_code":"DK","state_code":"82","province_code":"707","name":"Balle","cp":["8444"],"lat":"56.2963","lng":"10.2589"},{"country_code":"DK","state_code":"82","province_code":"707","name":"Grenaa","cp":["8500"],"lat":"56.4158","lng":"10.8782"},{"country_code":"DK","state_code":"82","province_code":"707","name":"Ryomg\u00e5rd","cp":["8550"],"lat":"56.3843","lng":"10.503"},{"country_code":"DK","state_code":"82","province_code":"707","name":"Kolind","cp":["8560"],"lat":"56.3606","lng":"10.5836"},{"country_code":"DK","state_code":"82","province_code":"707","name":"Trustrup","cp":["8570"],"lat":"56.3493","lng":"10.7739"},{"country_code":"DK","state_code":"82","province_code":"707","name":"Nimtofte","cp":["8581"],"lat":"56.408","lng":"10.5686"},{"country_code":"DK","state_code":"82","province_code":"707","name":"Glesborg","cp":["8585"],"lat":"56.4775","lng":"10.7233"},{"country_code":"DK","state_code":"82","province_code":"707","name":"\u00d8rum Djurs","cp":["8586"],"lat":"56.4312","lng":"10.6202"},{"country_code":"DK","state_code":"82","province_code":"707","name":"Anholt","cp":["8592"],"lat":"56.7036","lng":"11.5455"},{"country_code":"DK","state_code":"82","province_code":"707","name":"\u00d8rsted","cp":["8950"],"lat":"56.502","lng":"10.3372"},{"country_code":"DK","state_code":"82","province_code":"707","name":"Alling\u00e5bro","cp":["8961"],"lat":"56.4649","lng":"10.3341"},{"country_code":"DK","state_code":"82","province_code":"707","name":"Auning","cp":["8963"],"lat":"56.4308","lng":"10.3782"},{"country_code":"DK","state_code":"82","province_code":"710","name":"Hadsten","cp":["8370"],"lat":"56.3282","lng":"10.0493"},{"country_code":"DK","state_code":"82","province_code":"710","name":"Trige","cp":["8380"],"lat":"56.2529","lng":"10.1484"},{"country_code":"DK","state_code":"82","province_code":"710","name":"Hinnerup","cp":["8382"],"lat":"56.2661","lng":"10.063"},{"country_code":"DK","state_code":"82","province_code":"710","name":"Hammel","cp":["8450"],"lat":"56.2576","lng":"9.8632"},{"country_code":"DK","state_code":"82","province_code":"710","name":"Sabro","cp":["8471"],"lat":"56.2133","lng":"10.0344"},{"country_code":"DK","state_code":"82","province_code":"710","name":"Sporup","cp":["8472"],"lat":"56.2133","lng":"10.0344"},{"country_code":"DK","state_code":"82","province_code":"710","name":"Sorring","cp":["8641"],"lat":"56.1769","lng":"9.7758"},{"country_code":"DK","state_code":"82","province_code":"710","name":"Bjerringbro","cp":["8850"],"lat":"56.378","lng":"9.6607"},{"country_code":"DK","state_code":"82","province_code":"710","name":"Ulstrup","cp":["8860"],"lat":"56.3899","lng":"9.7935"},{"country_code":"DK","state_code":"82","province_code":"710","name":"Lang\u00e5","cp":["8870"],"lat":"56.3903","lng":"9.8949"},{"country_code":"DK","state_code":"82","province_code":"710","name":"Thors\u00f8","cp":["8881"],"lat":"56.2995","lng":"9.7892"},{"country_code":"DK","state_code":"82","province_code":"710","name":"F\u00e5rvang","cp":["8882"],"lat":"56.2675","lng":"9.7278"},{"country_code":"DK","state_code":"82","province_code":"710","name":"Randers SV","cp":["8940"],"lat":"56.4893","lng":"10.262"},{"country_code":"DK","state_code":"82","province_code":"710","name":"Randers S\u00d8","cp":["8960"],"lat":"56.4422","lng":"10.3635"},{"country_code":"DK","state_code":"82","province_code":"727","name":"Odder","cp":["8300"],"lat":"55.9731","lng":"10.153"},{"country_code":"DK","state_code":"82","province_code":"727","name":"Malling","cp":["8340"],"lat":"56.0363","lng":"10.1963"},{"country_code":"DK","state_code":"82","province_code":"727","name":"Hundslund","cp":["8350"],"lat":"55.916","lng":"10.0521"},{"country_code":"DK","state_code":"82","province_code":"727","name":"Skanderborg","cp":["8660"],"lat":"56.0399","lng":"9.9272"},{"country_code":"DK","state_code":"82","province_code":"730","name":"Ulstrup","cp":["8860"],"lat":"56.3899","lng":"9.7935"},{"country_code":"DK","state_code":"82","province_code":"730","name":"Lang\u00e5","cp":["8870"],"lat":"56.3903","lng":"9.8949"},{"country_code":"DK","state_code":"82","province_code":"730","name":"Randers C","cp":["8900"],"lat":"56.4893","lng":"10.262"},{"country_code":"DK","state_code":"82","province_code":"730","name":"Randers NV","cp":["8920"],"lat":"56.4893","lng":"10.262"},{"country_code":"DK","state_code":"82","province_code":"730","name":"Randers N\u00d8","cp":["8930"],"lat":"56.4893","lng":"10.262"},{"country_code":"DK","state_code":"82","province_code":"730","name":"Randers SV","cp":["8940"],"lat":"56.4893","lng":"10.262"},{"country_code":"DK","state_code":"82","province_code":"730","name":"Randers S\u00d8","cp":["8960"],"lat":"56.4422","lng":"10.3635"},{"country_code":"DK","state_code":"82","province_code":"730","name":"Havndal","cp":["8970"],"lat":"56.6525","lng":"10.1967"},{"country_code":"DK","state_code":"82","province_code":"730","name":"Spentrup","cp":["8981"],"lat":"56.537","lng":"10.0379"},{"country_code":"DK","state_code":"82","province_code":"730","name":"Gjerlev J","cp":["8983"],"lat":"56.537","lng":"10.0379"},{"country_code":"DK","state_code":"82","province_code":"730","name":"F\u00e5rup","cp":["8990"],"lat":"56.3667","lng":"10.2494"},{"country_code":"DK","state_code":"82","province_code":"730","name":"Mariager","cp":["9550"],"lat":"56.6499","lng":"9.9751"},{"country_code":"DK","state_code":"82","province_code":"740","name":"Hampen","cp":["7362"],"lat":"56.019","lng":"9.3551"},{"country_code":"DK","state_code":"82","province_code":"740","name":"Bording","cp":["7441"],"lat":"56.1441","lng":"9.2765"},{"country_code":"DK","state_code":"82","province_code":"740","name":"Engesvang","cp":["7442"],"lat":"56.1707","lng":"9.3495"},{"country_code":"DK","state_code":"82","province_code":"740","name":"Karup J","cp":["7470"],"lat":"56.1757","lng":"9.0321"},{"country_code":"DK","state_code":"82","province_code":"740","name":"Hammel","cp":["8450"],"lat":"56.2576","lng":"9.8632"},{"country_code":"DK","state_code":"82","province_code":"740","name":"Sporup","cp":["8472"],"lat":"56.2133","lng":"10.0344"},{"country_code":"DK","state_code":"82","province_code":"740","name":"Silkeborg","cp":["8600"],"lat":"56.1697","lng":"9.5451"},{"country_code":"DK","state_code":"82","province_code":"740","name":"Kjellerup","cp":["8620"],"lat":"56.2858","lng":"9.4353"},{"country_code":"DK","state_code":"82","province_code":"740","name":"Lemming","cp":["8632"],"lat":"56.2405","lng":"9.5473"},{"country_code":"DK","state_code":"82","province_code":"740","name":"Sorring","cp":["8641"],"lat":"56.1769","lng":"9.7758"},{"country_code":"DK","state_code":"82","province_code":"740","name":"Ans By","cp":["8643"],"lat":"56.1769","lng":"9.7758"},{"country_code":"DK","state_code":"82","province_code":"740","name":"Them","cp":["8653"],"lat":"56.0943","lng":"9.5487"},{"country_code":"DK","state_code":"82","province_code":"740","name":"Bryrup","cp":["8654"],"lat":"56.0228","lng":"9.5183"},{"country_code":"DK","state_code":"82","province_code":"740","name":"Ry","cp":["8680"],"lat":"56.0904","lng":"9.7651"},{"country_code":"DK","state_code":"82","province_code":"740","name":"Br\u00e6dstrup","cp":["8740"],"lat":"55.9715","lng":"9.6113"},{"country_code":"DK","state_code":"82","province_code":"740","name":"Viborg","cp":["8800"],"lat":"56.4532","lng":"9.402"},{"country_code":"DK","state_code":"82","province_code":"740","name":"R\u00f8dk\u00e6rsbro","cp":["8840"],"lat":"56.3531","lng":"9.5051"},{"country_code":"DK","state_code":"82","province_code":"740","name":"Thors\u00f8","cp":["8881"],"lat":"56.2995","lng":"9.7892"},{"country_code":"DK","state_code":"82","province_code":"740","name":"F\u00e5rvang","cp":["8882"],"lat":"56.2675","lng":"9.7278"},{"country_code":"DK","state_code":"82","province_code":"740","name":"Gjern","cp":["8883"],"lat":"56.2302","lng":"9.7391"},{"country_code":"DK","state_code":"82","province_code":"741","name":"Sams\u00f8","cp":["8305"],"lat":"55.8796","lng":"10.6076"},{"country_code":"DK","state_code":"82","province_code":"746","name":"H\u00f8rning","cp":["8362"],"lat":"56.087","lng":"10.0372"},{"country_code":"DK","state_code":"82","province_code":"746","name":"Galten","cp":["8464"],"lat":"56.35","lng":"10.05"},{"country_code":"DK","state_code":"82","province_code":"746","name":"Sabro","cp":["8471"],"lat":"56.2133","lng":"10.0344"},{"country_code":"DK","state_code":"82","province_code":"746","name":"Sporup","cp":["8472"],"lat":"56.2133","lng":"10.0344"},{"country_code":"DK","state_code":"82","province_code":"746","name":"Silkeborg","cp":["8600"],"lat":"56.1697","lng":"9.5451"},{"country_code":"DK","state_code":"82","province_code":"746","name":"Skanderborg","cp":["8660"],"lat":"56.0399","lng":"9.9272"},{"country_code":"DK","state_code":"82","province_code":"746","name":"L\u00e5sby","cp":["8670"],"lat":"56.1502","lng":"9.8068"},{"country_code":"DK","state_code":"82","province_code":"746","name":"Ry","cp":["8680"],"lat":"56.0904","lng":"9.7651"},{"country_code":"DK","state_code":"82","province_code":"746","name":"Gedved","cp":["8751"],"lat":"55.9308","lng":"9.846"},{"country_code":"DK","state_code":"82","province_code":"751","name":"Aarhus C","cp":["8000","8100"],"lat":"56.1567","lng":"10.2108"},{"country_code":"DK","state_code":"82","province_code":"751","name":"Aarhus N","cp":["8200"],"lat":"56.1663","lng":"10.1987"},{"country_code":"DK","state_code":"82","province_code":"751","name":"Aarhus V","cp":["8210"],"lat":"56.1663","lng":"10.1987"},{"country_code":"DK","state_code":"82","province_code":"751","name":"Brabrand","cp":["8220"],"lat":"56.1531","lng":"10.1057"},{"country_code":"DK","state_code":"82","province_code":"751","name":"\u00c5byh\u00f8j","cp":["8230"],"lat":"56.1563","lng":"10.1653"},{"country_code":"DK","state_code":"82","province_code":"751","name":"Risskov","cp":["8240"],"lat":"56.1972","lng":"10.248"},{"country_code":"DK","state_code":"82","province_code":"751","name":"Risskov \u00d8","cp":["8245"],"lat":"56.1972","lng":"10.248"},{"country_code":"DK","state_code":"82","province_code":"751","name":"Eg\u00e5","cp":["8250"],"lat":"56.2136","lng":"10.2644"},{"country_code":"DK","state_code":"82","province_code":"751","name":"Viby J","cp":["8260"],"lat":"56.1663","lng":"10.1987"},{"country_code":"DK","state_code":"82","province_code":"751","name":"H\u00f8jbjerg","cp":["8270"],"lat":"56.1112","lng":"10.2099"},{"country_code":"DK","state_code":"82","province_code":"751","name":"Odder","cp":["8300"],"lat":"55.9731","lng":"10.153"},{"country_code":"DK","state_code":"82","province_code":"751","name":"Tranbjerg J","cp":["8310"],"lat":"56.0901","lng":"10.1194"},{"country_code":"DK","state_code":"82","province_code":"751","name":"M\u00e5rslet","cp":["8320"],"lat":"56.0636","lng":"10.1623"},{"country_code":"DK","state_code":"82","province_code":"751","name":"Beder","cp":["8330"],"lat":"56.0602","lng":"10.2118"},{"country_code":"DK","state_code":"82","province_code":"751","name":"Malling","cp":["8340"],"lat":"56.0363","lng":"10.1963"},{"country_code":"DK","state_code":"82","province_code":"751","name":"Solbjerg","cp":["8355"],"lat":"56.0427","lng":"10.0863"},{"country_code":"DK","state_code":"82","province_code":"751","name":"Hasselager","cp":["8361"],"lat":"56.1007","lng":"10.1065"},{"country_code":"DK","state_code":"82","province_code":"751","name":"H\u00f8rning","cp":["8362"],"lat":"56.087","lng":"10.0372"},{"country_code":"DK","state_code":"82","province_code":"751","name":"Trige","cp":["8380"],"lat":"56.2529","lng":"10.1484"},{"country_code":"DK","state_code":"82","province_code":"751","name":"Tilst","cp":["8381"],"lat":"56.1938","lng":"10.1128"},{"country_code":"DK","state_code":"82","province_code":"751","name":"Hinnerup","cp":["8382"],"lat":"56.2661","lng":"10.063"},{"country_code":"DK","state_code":"82","province_code":"751","name":"Harlev J","cp":["8462"],"lat":"56.35","lng":"10.05"},{"country_code":"DK","state_code":"82","province_code":"751","name":"Galten","cp":["8464"],"lat":"56.35","lng":"10.05"},{"country_code":"DK","state_code":"82","province_code":"751","name":"Sabro","cp":["8471"],"lat":"56.2133","lng":"10.0344"},{"country_code":"DK","state_code":"82","province_code":"751","name":"Lystrup","cp":["8520"],"lat":"56.4984","lng":"10.4689"},{"country_code":"DK","state_code":"82","province_code":"751","name":"Hjortsh\u00f8j","cp":["8530"],"lat":"56.2481","lng":"10.2653"},{"country_code":"DK","state_code":"82","province_code":"751","name":"Sk\u00f8dstrup","cp":["8541"],"lat":"56.2635","lng":"10.3041"},{"country_code":"DK","state_code":"82","province_code":"751","name":"Hornslet","cp":["8543"],"lat":"56.3155","lng":"10.3204"},{"country_code":"DK","state_code":"82","province_code":"751","name":"Skanderborg","cp":["8660"],"lat":"56.0399","lng":"9.9272"},{"country_code":"DK","state_code":"82","province_code":"756","name":"T\u00f8rring","cp":["7160"],"lat":"55.85","lng":"9.4833"},{"country_code":"DK","state_code":"82","province_code":"756","name":"Brande","cp":["7330"],"lat":"55.9381","lng":"9.1218"},{"country_code":"DK","state_code":"82","province_code":"756","name":"Ejstrupholm","cp":["7361"],"lat":"55.9841","lng":"9.2818"},{"country_code":"DK","state_code":"82","province_code":"756","name":"Hampen","cp":["7362"],"lat":"56.019","lng":"9.3551"},{"country_code":"DK","state_code":"82","province_code":"756","name":"Herning","cp":["7400"],"lat":"56.1393","lng":"8.9738"},{"country_code":"DK","state_code":"82","province_code":"756","name":"Ikast","cp":["7430"],"lat":"56.1388","lng":"9.1577"},{"country_code":"DK","state_code":"82","province_code":"756","name":"Bording","cp":["7441"],"lat":"56.1441","lng":"9.2765"},{"country_code":"DK","state_code":"82","province_code":"756","name":"Engesvang","cp":["7442"],"lat":"56.1707","lng":"9.3495"},{"country_code":"DK","state_code":"82","province_code":"756","name":"Sunds","cp":["7451"],"lat":"56.2042","lng":"9.0127"},{"country_code":"DK","state_code":"82","province_code":"756","name":"Silkeborg","cp":["8600"],"lat":"56.1697","lng":"9.5451"},{"country_code":"DK","state_code":"82","province_code":"756","name":"Bryrup","cp":["8654"],"lat":"56.0228","lng":"9.5183"},{"country_code":"DK","state_code":"82","province_code":"756","name":"Klovborg","cp":["8765"],"lat":"55.9319","lng":"9.491"},{"country_code":"DK","state_code":"82","province_code":"756","name":"N\u00f8rre Snede","cp":["8766"],"lat":"55.9644","lng":"9.3932"},{"country_code":"DK","state_code":"82","province_code":"760","name":"N\u00f8rre Nebel","cp":["6830"],"lat":"55.7798","lng":"8.2952"},{"country_code":"DK","state_code":"82","province_code":"760","name":"\u00d8lgod","cp":["6870"],"lat":"55.8068","lng":"8.6286"},{"country_code":"DK","state_code":"82","province_code":"760","name":"Tarm","cp":["6880"],"lat":"55.9086","lng":"8.5304"},{"country_code":"DK","state_code":"82","province_code":"760","name":"Hemmet","cp":["6893"],"lat":"55.8502","lng":"8.3756"},{"country_code":"DK","state_code":"82","province_code":"760","name":"Skjern","cp":["6900"],"lat":"55.95","lng":"8.5"},{"country_code":"DK","state_code":"82","province_code":"760","name":"Videb\u00e6k","cp":["6920"],"lat":"56.0876","lng":"8.6285"},{"country_code":"DK","state_code":"82","province_code":"760","name":"Kib\u00e6k","cp":["6933"],"lat":"56.0317","lng":"8.857"},{"country_code":"DK","state_code":"82","province_code":"760","name":"Lem St","cp":["6940"],"lat":"56.1419","lng":"8.4606"},{"country_code":"DK","state_code":"82","province_code":"760","name":"Ringk\u00f8bing","cp":["6950"],"lat":"56.0901","lng":"8.244"},{"country_code":"DK","state_code":"82","province_code":"760","name":"Hvide Sande","cp":["6960"],"lat":"56.0045","lng":"8.1294"},{"country_code":"DK","state_code":"82","province_code":"760","name":"Spjald","cp":["6971"],"lat":"56.1286","lng":"8.5084"},{"country_code":"DK","state_code":"82","province_code":"760","name":"\u00d8rnh\u00f8j","cp":["6973"],"lat":"56.1987","lng":"8.5645"},{"country_code":"DK","state_code":"82","province_code":"760","name":"Tim","cp":["6980"],"lat":"56.1956","lng":"8.3079"},{"country_code":"DK","state_code":"82","province_code":"760","name":"Ulfborg","cp":["6990"],"lat":"56.2673","lng":"8.3217"},{"country_code":"DK","state_code":"82","province_code":"760","name":"Stakroge","cp":["7270"],"lat":"55.8901","lng":"8.8473"},{"country_code":"DK","state_code":"82","province_code":"760","name":"S\u00f8nder Felding","cp":["7280"],"lat":"55.9376","lng":"8.7794"},{"country_code":"DK","state_code":"82","province_code":"760","name":"Herning","cp":["7400"],"lat":"56.1393","lng":"8.9738"},{"country_code":"DK","state_code":"82","province_code":"760","name":"Vildbjerg","cp":["7480"],"lat":"56.2","lng":"8.7667"},{"country_code":"DK","state_code":"82","province_code":"766","name":"Vejle","cp":["7100"],"lat":"55.7093","lng":"9.5357"},{"country_code":"DK","state_code":"82","province_code":"766","name":"Vejle \u00d8st","cp":["7120"],"lat":"55.758","lng":"9.4862"},{"country_code":"DK","state_code":"82","province_code":"766","name":"Juelsminde","cp":["7130"],"lat":"55.7088","lng":"10.0167"},{"country_code":"DK","state_code":"82","province_code":"766","name":"Stouby","cp":["7140"],"lat":"55.7025","lng":"9.7938"},{"country_code":"DK","state_code":"82","province_code":"766","name":"Barrit","cp":["7150"],"lat":"55.7118","lng":"9.8904"},{"country_code":"DK","state_code":"82","province_code":"766","name":"T\u00f8rring","cp":["7160"],"lat":"55.85","lng":"9.4833"},{"country_code":"DK","state_code":"82","province_code":"766","name":"Uldum","cp":["7171"],"lat":"55.8471","lng":"9.5896"},{"country_code":"DK","state_code":"82","province_code":"766","name":"Give","cp":["7323"],"lat":"55.8398","lng":"9.25"},{"country_code":"DK","state_code":"82","province_code":"766","name":"Horsens","cp":["8700"],"lat":"55.8607","lng":"9.8503"},{"country_code":"DK","state_code":"82","province_code":"766","name":"Daug\u00e5rd","cp":["8721"],"lat":"55.7351","lng":"9.703"},{"country_code":"DK","state_code":"82","province_code":"766","name":"Hedensted","cp":["8722"],"lat":"55.7704","lng":"9.7011"},{"country_code":"DK","state_code":"82","province_code":"766","name":"L\u00f8sning","cp":["8723"],"lat":"55.8024","lng":"9.6954"},{"country_code":"DK","state_code":"82","province_code":"766","name":"Flemming","cp":["8762"],"lat":"55.8687","lng":"9.6675"},{"country_code":"DK","state_code":"82","province_code":"766","name":"Rask M\u00f8lle","cp":["8763"],"lat":"55.8721","lng":"9.6135"},{"country_code":"DK","state_code":"82","province_code":"766","name":"N\u00f8rre Snede","cp":["8766"],"lat":"55.9644","lng":"9.3932"},{"country_code":"DK","state_code":"82","province_code":"766","name":"Stenderup","cp":["8781"],"lat":"55.7921","lng":"9.8097"},{"country_code":"DK","state_code":"82","province_code":"766","name":"Hornsyld","cp":["8783"],"lat":"55.7526","lng":"9.8512"},{"country_code":"DK","state_code":"82","province_code":"779","name":"Skive","cp":["7800"],"lat":"56.5638","lng":"9.0402"},{"country_code":"DK","state_code":"82","province_code":"779","name":"Vinderup","cp":["7830"],"lat":"56.4751","lng":"8.7908"},{"country_code":"DK","state_code":"82","province_code":"779","name":"H\u00f8jslev","cp":["7840"],"lat":"56.5856","lng":"9.1364"},{"country_code":"DK","state_code":"82","province_code":"779","name":"Sp\u00f8ttrup","cp":["7860"],"lat":"56.623","lng":"8.7447"},{"country_code":"DK","state_code":"82","province_code":"779","name":"Roslev","cp":["7870"],"lat":"56.7039","lng":"8.9864"},{"country_code":"DK","state_code":"82","province_code":"779","name":"Fur","cp":["7884"],"lat":"56.5537","lng":"8.9353"},{"country_code":"DK","state_code":"82","province_code":"791","name":"Karup J","cp":["7470"],"lat":"56.1757","lng":"9.0321"},{"country_code":"DK","state_code":"82","province_code":"791","name":"Haderup","cp":["7540"],"lat":"56.3896","lng":"8.9943"},{"country_code":"DK","state_code":"82","province_code":"791","name":"Skive","cp":["7800"],"lat":"56.5638","lng":"9.0402"},{"country_code":"DK","state_code":"82","province_code":"791","name":"H\u00f8jslev","cp":["7840"],"lat":"56.5856","lng":"9.1364"},{"country_code":"DK","state_code":"82","province_code":"791","name":"Stoholm Jyll","cp":["7850"],"lat":"56.5537","lng":"8.9353"},{"country_code":"DK","state_code":"82","province_code":"791","name":"Kjellerup","cp":["8620"],"lat":"56.2858","lng":"9.4353"},{"country_code":"DK","state_code":"82","province_code":"791","name":"Ans By","cp":["8643"],"lat":"56.1769","lng":"9.7758"},{"country_code":"DK","state_code":"82","province_code":"791","name":"Viborg","cp":["8800"],"lat":"56.4532","lng":"9.402"},{"country_code":"DK","state_code":"82","province_code":"791","name":"Tjele","cp":["8830"],"lat":"56.5118","lng":"9.6137"},{"country_code":"DK","state_code":"82","province_code":"791","name":"L\u00f8gstrup","cp":["8831"],"lat":"56.5103","lng":"9.3354"},{"country_code":"DK","state_code":"82","province_code":"791","name":"Skals","cp":["8832"],"lat":"56.5568","lng":"9.4038"},{"country_code":"DK","state_code":"82","province_code":"791","name":"R\u00f8dk\u00e6rsbro","cp":["8840"],"lat":"56.3531","lng":"9.5051"},{"country_code":"DK","state_code":"82","province_code":"791","name":"Bjerringbro","cp":["8850"],"lat":"56.378","lng":"9.6607"},{"country_code":"DK","state_code":"82","province_code":"791","name":"Ulstrup","cp":["8860"],"lat":"56.3899","lng":"9.7935"},{"country_code":"DK","state_code":"82","province_code":"791","name":"Hobro","cp":["9500"],"lat":"56.6431","lng":"9.7903"},{"country_code":"DK","state_code":"82","province_code":"791","name":"Aalestrup","cp":["9620"],"lat":"56.6947","lng":"9.4934"},{"country_code":"DK","state_code":"82","province_code":"791","name":"Gedsted","cp":["9631"],"lat":"56.6892","lng":"9.3367"},{"country_code":"DK","state_code":"82","province_code":"791","name":"M\u00f8ldrup","cp":["9632"],"lat":"56.6167","lng":"9.5011"},{"country_code":"DK","state_code":"83","province_code":"410","name":"Harndrup","cp":["5463"],"lat":"55.4666","lng":"10.0216"},{"country_code":"DK","state_code":"83","province_code":"410","name":"Brenderup Fyn","cp":["5464"],"lat":"55.4663","lng":"10.0398"},{"country_code":"DK","state_code":"83","province_code":"410","name":"Asperup","cp":["5466"],"lat":"55.4843","lng":"9.908"},{"country_code":"DK","state_code":"83","province_code":"410","name":"Middelfart","cp":["5500"],"lat":"55.382","lng":"10.2694"},{"country_code":"DK","state_code":"83","province_code":"410","name":"Aarup","cp":["5560"],"lat":"55.3732","lng":"10.0413"},{"country_code":"DK","state_code":"83","province_code":"410","name":"N\u00f8rre Aaby","cp":["5580"],"lat":"55.4611","lng":"9.8794"},{"country_code":"DK","state_code":"83","province_code":"410","name":"Gelsted","cp":["5591"],"lat":"55.3988","lng":"9.9731"},{"country_code":"DK","state_code":"83","province_code":"410","name":"Ejby","cp":["5592"],"lat":"55.4301","lng":"9.9297"},{"country_code":"DK","state_code":"83","province_code":"420","name":"Vissenbjerg","cp":["5492"],"lat":"55.3848","lng":"10.1378"},{"country_code":"DK","state_code":"83","province_code":"420","name":"Aarup","cp":["5560"],"lat":"55.3732","lng":"10.0413"},{"country_code":"DK","state_code":"83","province_code":"420","name":"Assens","cp":["5610"],"lat":"55.2702","lng":"9.9008"},{"country_code":"DK","state_code":"83","province_code":"420","name":"Glamsbjerg","cp":["5620"],"lat":"55.2724","lng":"10.1048"},{"country_code":"DK","state_code":"83","province_code":"420","name":"Ebberup","cp":["5631"],"lat":"55.2433","lng":"9.9821"},{"country_code":"DK","state_code":"83","province_code":"420","name":"Millinge","cp":["5642"],"lat":"55.135","lng":"10.1994"},{"country_code":"DK","state_code":"83","province_code":"420","name":"Haarby","cp":["5683"],"lat":"55.215","lng":"10.1226"},{"country_code":"DK","state_code":"83","province_code":"420","name":"Tommerup","cp":["5690"],"lat":"55.3195","lng":"10.2066"},{"country_code":"DK","state_code":"83","province_code":"430","name":"Langeskov","cp":["5550"],"lat":"55.3565","lng":"10.5845"},{"country_code":"DK","state_code":"83","province_code":"430","name":"Faaborg","cp":["5600"],"lat":"55.0951","lng":"10.2423"},{"country_code":"DK","state_code":"83","province_code":"430","name":"Millinge","cp":["5642"],"lat":"55.135","lng":"10.1994"},{"country_code":"DK","state_code":"83","province_code":"430","name":"Broby","cp":["5672"],"lat":"55.2107","lng":"10.1198"},{"country_code":"DK","state_code":"83","province_code":"430","name":"Ringe","cp":["5750"],"lat":"55.2451","lng":"10.4706"},{"country_code":"DK","state_code":"83","province_code":"430","name":"Vester Skerninge","cp":["5762"],"lat":"55.0732","lng":"10.4554"},{"country_code":"DK","state_code":"83","province_code":"430","name":"Stenstrup","cp":["5771"],"lat":"55.1335","lng":"10.5047"},{"country_code":"DK","state_code":"83","province_code":"430","name":"Kv\u00e6rndrup","cp":["5772"],"lat":"55.1775","lng":"10.5255"},{"country_code":"DK","state_code":"83","province_code":"430","name":"\u00c5rslev","cp":["5792"],"lat":"55.3035","lng":"10.4643"},{"country_code":"DK","state_code":"83","province_code":"430","name":"\u00d8rb\u00e6k","cp":["5853"],"lat":"55.2585","lng":"10.6708"},{"country_code":"DK","state_code":"83","province_code":"430","name":"Gislev","cp":["5854"],"lat":"55.2181","lng":"10.6022"},{"country_code":"DK","state_code":"83","province_code":"430","name":"Ryslinge","cp":["5856"],"lat":"55.2416","lng":"10.5367"},{"country_code":"DK","state_code":"83","province_code":"430","name":"Ferritslev Fyn","cp":["5863"],"lat":"55.2064","lng":"10.6852"},{"country_code":"DK","state_code":"83","province_code":"440","name":"Marslev","cp":["5290"],"lat":"55.3902","lng":"10.5201"},{"country_code":"DK","state_code":"83","province_code":"440","name":"Kerteminde","cp":["5300"],"lat":"55.449","lng":"10.6577"},{"country_code":"DK","state_code":"83","province_code":"440","name":"Munkebo","cp":["5330"],"lat":"55.4618","lng":"10.5558"},{"country_code":"DK","state_code":"83","province_code":"440","name":"Rynkeby","cp":["5350"],"lat":"55.4008","lng":"10.6137"},{"country_code":"DK","state_code":"83","province_code":"440","name":"Mesinge","cp":["5370"],"lat":"55.4986","lng":"10.647"},{"country_code":"DK","state_code":"83","province_code":"440","name":"Dalby","cp":["5380"],"lat":"55.517","lng":"10.6592"},{"country_code":"DK","state_code":"83","province_code":"440","name":"Martofte","cp":["5390"],"lat":"55.5464","lng":"10.6578"},{"country_code":"DK","state_code":"83","province_code":"440","name":"Ullerslev","cp":["5540"],"lat":"55.3617","lng":"10.6519"},{"country_code":"DK","state_code":"83","province_code":"440","name":"Langeskov","cp":["5550"],"lat":"55.3565","lng":"10.5845"},{"country_code":"DK","state_code":"83","province_code":"440","name":"Ferritslev Fyn","cp":["5863"],"lat":"55.2064","lng":"10.6852"},{"country_code":"DK","state_code":"83","province_code":"450","name":"Ullerslev","cp":["5540"],"lat":"55.3617","lng":"10.6519"},{"country_code":"DK","state_code":"83","province_code":"450","name":"Langeskov","cp":["5550"],"lat":"55.3565","lng":"10.5845"},{"country_code":"DK","state_code":"83","province_code":"450","name":"Nyborg","cp":["5800"],"lat":"55.3127","lng":"10.7896"},{"country_code":"DK","state_code":"83","province_code":"450","name":"\u00d8rb\u00e6k","cp":["5853"],"lat":"55.2585","lng":"10.6708"},{"country_code":"DK","state_code":"83","province_code":"450","name":"Fr\u00f8rup","cp":["5871"],"lat":"55.2424","lng":"10.7156"},{"country_code":"DK","state_code":"83","province_code":"450","name":"Hesselager","cp":["5874"],"lat":"55.1755","lng":"10.7452"},{"country_code":"DK","state_code":"83","province_code":"461","name":"Odense C","cp":["5000","5100"],"lat":"55.3959","lng":"10.3883"},{"country_code":"DK","state_code":"83","province_code":"461","name":"Odense V","cp":["5200"],"lat":"55.3902","lng":"10.5201"},{"country_code":"DK","state_code":"83","province_code":"461","name":"Odense NV","cp":["5210"],"lat":"55.3902","lng":"10.5201"},{"country_code":"DK","state_code":"83","province_code":"461","name":"Odense S\u00d8","cp":["5220"],"lat":"55.3902","lng":"10.5201"},{"country_code":"DK","state_code":"83","province_code":"461","name":"Odense M","cp":["5230"],"lat":"55.3902","lng":"10.5201"},{"country_code":"DK","state_code":"83","province_code":"461","name":"Odense N\u00d8","cp":["5240"],"lat":"55.3902","lng":"10.5201"},{"country_code":"DK","state_code":"83","province_code":"461","name":"Odense SV","cp":["5250"],"lat":"55.3902","lng":"10.5201"},{"country_code":"DK","state_code":"83","province_code":"461","name":"Odense S","cp":["5260"],"lat":"55.3902","lng":"10.5201"},{"country_code":"DK","state_code":"83","province_code":"461","name":"Odense N","cp":["5270"],"lat":"55.3902","lng":"10.5201"},{"country_code":"DK","state_code":"83","province_code":"461","name":"Agedrup","cp":["5320"],"lat":"55.4324","lng":"10.4888"},{"country_code":"DK","state_code":"83","province_code":"461","name":"Munkebo","cp":["5330"],"lat":"55.4618","lng":"10.5558"},{"country_code":"DK","state_code":"83","province_code":"461","name":"Blommenslyst","cp":["5491"],"lat":"55.3895","lng":"10.2629"},{"country_code":"DK","state_code":"83","province_code":"461","name":"Vissenbjerg","cp":["5492"],"lat":"55.3848","lng":"10.1378"},{"country_code":"DK","state_code":"83","province_code":"479","name":"Svendborg","cp":["5700"],"lat":"55.0598","lng":"10.6068"},{"country_code":"DK","state_code":"83","province_code":"479","name":"Vester Skerninge","cp":["5762"],"lat":"55.0732","lng":"10.4554"},{"country_code":"DK","state_code":"83","province_code":"479","name":"Stenstrup","cp":["5771"],"lat":"55.1335","lng":"10.5047"},{"country_code":"DK","state_code":"83","province_code":"479","name":"Kv\u00e6rndrup","cp":["5772"],"lat":"55.1775","lng":"10.5255"},{"country_code":"DK","state_code":"83","province_code":"479","name":"Gislev","cp":["5854"],"lat":"55.2181","lng":"10.6022"},{"country_code":"DK","state_code":"83","province_code":"479","name":"Hesselager","cp":["5874"],"lat":"55.1755","lng":"10.7452"},{"country_code":"DK","state_code":"83","province_code":"479","name":"Sk\u00e5rup Fyn","cp":["5881"],"lat":"55.1251","lng":"10.7146"},{"country_code":"DK","state_code":"83","province_code":"479","name":"Vejstrup","cp":["5882"],"lat":"55.1059","lng":"10.7124"},{"country_code":"DK","state_code":"83","province_code":"479","name":"Oure","cp":["5883"],"lat":"55.1197","lng":"10.7234"},{"country_code":"DK","state_code":"83","province_code":"479","name":"Gudme","cp":["5884"],"lat":"55.1498","lng":"10.708"},{"country_code":"DK","state_code":"83","province_code":"479","name":"Gudbjerg Sydfyn","cp":["5892"],"lat":"55.2064","lng":"10.6852"},{"country_code":"DK","state_code":"83","province_code":"480","name":"Odense N","cp":["5270"],"lat":"55.3902","lng":"10.5201"},{"country_code":"DK","state_code":"83","province_code":"480","name":"Bogense","cp":["5400"],"lat":"55.5669","lng":"10.0886"},{"country_code":"DK","state_code":"83","province_code":"480","name":"Otterup","cp":["5450"],"lat":"55.5153","lng":"10.3976"},{"country_code":"DK","state_code":"83","province_code":"480","name":"Morud","cp":["5462"],"lat":"55.4481","lng":"10.1896"},{"country_code":"DK","state_code":"83","province_code":"480","name":"S\u00f8nders\u00f8","cp":["5471"],"lat":"55.4853","lng":"10.2554"},{"country_code":"DK","state_code":"83","province_code":"480","name":"Veflinge","cp":["5474"],"lat":"55.4755","lng":"10.1602"},{"country_code":"DK","state_code":"83","province_code":"480","name":"Skamby","cp":["5485"],"lat":"55.5208","lng":"10.2749"},{"country_code":"DK","state_code":"83","province_code":"480","name":"Blommenslyst","cp":["5491"],"lat":"55.3895","lng":"10.2629"},{"country_code":"DK","state_code":"83","province_code":"480","name":"Vissenbjerg","cp":["5492"],"lat":"55.3848","lng":"10.1378"},{"country_code":"DK","state_code":"83","province_code":"480","name":"Aarup","cp":["5560"],"lat":"55.3732","lng":"10.0413"},{"country_code":"DK","state_code":"83","province_code":"482","name":"Rudk\u00f8bing","cp":["5900"],"lat":"54.9364","lng":"10.7102"},{"country_code":"DK","state_code":"83","province_code":"482","name":"Humble","cp":["5932"],"lat":"54.8297","lng":"10.6996"},{"country_code":"DK","state_code":"83","province_code":"482","name":"Bagenkop","cp":["5935"],"lat":"54.7498","lng":"10.676"},{"country_code":"DK","state_code":"83","province_code":"482","name":"Tranek\u00e6r","cp":["5953"],"lat":"54.9976","lng":"10.8438"},{"country_code":"DK","state_code":"83","province_code":"492","name":"Marstal","cp":["5960"],"lat":"54.8562","lng":"10.5173"},{"country_code":"DK","state_code":"83","province_code":"492","name":"\u00c6r\u00f8sk\u00f8bing","cp":["5970"],"lat":"54.888","lng":"10.4112"},{"country_code":"DK","state_code":"83","province_code":"492","name":"S\u00f8by \u00c6r\u00f8","cp":["5985"],"lat":"54.8763","lng":"10.643"},{"country_code":"DK","state_code":"83","province_code":"510","name":"Christiansfeld","cp":["6070"],"lat":"55.3582","lng":"9.487"},{"country_code":"DK","state_code":"83","province_code":"510","name":"Hejls","cp":["6094"],"lat":"55.3831","lng":"9.5765"},{"country_code":"DK","state_code":"83","province_code":"510","name":"Haderslev","cp":["6100"],"lat":"55.2538","lng":"9.4898"},{"country_code":"DK","state_code":"83","province_code":"510","name":"Vojens","cp":["6500"],"lat":"55.2464","lng":"9.306"},{"country_code":"DK","state_code":"83","province_code":"510","name":"Gram","cp":["6510"],"lat":"55.2895","lng":"9.0491"},{"country_code":"DK","state_code":"83","province_code":"510","name":"Toftlund","cp":["6520"],"lat":"55.1886","lng":"9.0693"},{"country_code":"DK","state_code":"83","province_code":"510","name":"Agerskov","cp":["6534"],"lat":"55.1289","lng":"9.1355"},{"country_code":"DK","state_code":"83","province_code":"510","name":"Bevtoft","cp":["6541"],"lat":"55.2018","lng":"9.2147"},{"country_code":"DK","state_code":"83","province_code":"510","name":"Sommersted","cp":["6560"],"lat":"55.3187","lng":"9.2956"},{"country_code":"DK","state_code":"83","province_code":"510","name":"R\u00f8dding","cp":["6630"],"lat":"55.3657","lng":"9.0632"},{"country_code":"DK","state_code":"83","province_code":"530","name":"Vorbasse","cp":["6623"],"lat":"55.6299","lng":"9.0824"},{"country_code":"DK","state_code":"83","province_code":"530","name":"Hovborg","cp":["6682"],"lat":"55.6081","lng":"8.9396"},{"country_code":"DK","state_code":"83","province_code":"530","name":"Ansager","cp":["6823"],"lat":"55.7031","lng":"8.7586"},{"country_code":"DK","state_code":"83","province_code":"530","name":"Billund","cp":["7190"],"lat":"55.7335","lng":"9.1079"},{"country_code":"DK","state_code":"83","province_code":"530","name":"Grindsted","cp":["7200"],"lat":"55.754","lng":"8.9123"},{"country_code":"DK","state_code":"83","province_code":"530","name":"Hejnsvig","cp":["7250"],"lat":"55.6953","lng":"8.9973"},{"country_code":"DK","state_code":"83","province_code":"530","name":"S\u00f8nder Omme","cp":["7260"],"lat":"55.8398","lng":"8.8972"},{"country_code":"DK","state_code":"83","province_code":"530","name":"Stakroge","cp":["7270"],"lat":"55.8901","lng":"8.8473"},{"country_code":"DK","state_code":"83","province_code":"540","name":"Gr\u00e5sten","cp":["6300"],"lat":"54.9192","lng":"9.5952"},{"country_code":"DK","state_code":"83","province_code":"540","name":"Broager","cp":["6310"],"lat":"54.8874","lng":"9.681"},{"country_code":"DK","state_code":"83","province_code":"540","name":"Egernsund","cp":["6320"],"lat":"54.9054","lng":"9.6071"},{"country_code":"DK","state_code":"83","province_code":"540","name":"S\u00f8nderborg","cp":["6400"],"lat":"54.9093","lng":"9.8074"},{"country_code":"DK","state_code":"83","province_code":"540","name":"Nordborg","cp":["6430"],"lat":"55.0573","lng":"9.7408"},{"country_code":"DK","state_code":"83","province_code":"540","name":"Augustenborg","cp":["6440"],"lat":"54.952","lng":"9.8722"},{"country_code":"DK","state_code":"83","province_code":"540","name":"Sydals","cp":["6470"],"lat":"54.994","lng":"9.7903"},{"country_code":"DK","state_code":"83","province_code":"550","name":"L\u00f8gumkloster","cp":["6240"],"lat":"55.0594","lng":"8.9551"},{"country_code":"DK","state_code":"83","province_code":"550","name":"Bredebro","cp":["6261"],"lat":"55.0548","lng":"8.8293"},{"country_code":"DK","state_code":"83","province_code":"550","name":"T\u00f8nder","cp":["6270"],"lat":"54.9331","lng":"8.8667"},{"country_code":"DK","state_code":"83","province_code":"550","name":"H\u00f8jer","cp":["6280"],"lat":"54.9634","lng":"8.6985"},{"country_code":"DK","state_code":"83","province_code":"550","name":"Toftlund","cp":["6520"],"lat":"55.1886","lng":"9.0693"},{"country_code":"DK","state_code":"83","province_code":"550","name":"Agerskov","cp":["6534"],"lat":"55.1289","lng":"9.1355"},{"country_code":"DK","state_code":"83","province_code":"550","name":"Branderup J","cp":["6535"],"lat":"55.1289","lng":"9.1355"},{"country_code":"DK","state_code":"83","province_code":"550","name":"Bevtoft","cp":["6541"],"lat":"55.2018","lng":"9.2147"},{"country_code":"DK","state_code":"83","province_code":"550","name":"Sk\u00e6rb\u00e6k","cp":["6780"],"lat":"55.1574","lng":"8.769"},{"country_code":"DK","state_code":"83","province_code":"550","name":"R\u00f8m\u00f8","cp":["6792"],"lat":"55.1132","lng":"8.5428"},{"country_code":"DK","state_code":"83","province_code":"561","name":"Holsted","cp":["6670"],"lat":"55.5109","lng":"8.9187"},{"country_code":"DK","state_code":"83","province_code":"561","name":"F\u00f8vling","cp":["6683"],"lat":"55.4521","lng":"8.9396"},{"country_code":"DK","state_code":"83","province_code":"561","name":"G\u00f8rding","cp":["6690"],"lat":"55.4746","lng":"8.7974"},{"country_code":"DK","state_code":"83","province_code":"561","name":"Esbjerg","cp":["6700","6701"],"lat":"55.4703","lng":"8.4519"},{"country_code":"DK","state_code":"83","province_code":"561","name":"Esbjerg \u00d8","cp":["6705"],"lat":"55.4703","lng":"8.4519"},{"country_code":"DK","state_code":"83","province_code":"561","name":"Esbjerg V","cp":["6710"],"lat":"55.4187","lng":"8.6685"},{"country_code":"DK","state_code":"83","province_code":"561","name":"Esbjerg N","cp":["6715"],"lat":"55.4187","lng":"8.6685"},{"country_code":"DK","state_code":"83","province_code":"561","name":"Tj\u00e6reborg","cp":["6731"],"lat":"55.4646","lng":"8.5797"},{"country_code":"DK","state_code":"83","province_code":"561","name":"Bramming","cp":["6740"],"lat":"55.4695","lng":"8.7001"},{"country_code":"DK","state_code":"83","province_code":"561","name":"Ribe","cp":["6760"],"lat":"55.3305","lng":"8.7697"},{"country_code":"DK","state_code":"83","province_code":"561","name":"Gredstedbro","cp":["6771"],"lat":"55.3983","lng":"8.7391"},{"country_code":"DK","state_code":"83","province_code":"561","name":"\u00c5rre","cp":["6818"],"lat":"55.5725","lng":"8.6675"},{"country_code":"DK","state_code":"83","province_code":"563","name":"Fan\u00f8","cp":["6720"],"lat":"55.435","lng":"8.3679"},{"country_code":"DK","state_code":"83","province_code":"573","name":"Hovborg","cp":["6682"],"lat":"55.6081","lng":"8.9396"},{"country_code":"DK","state_code":"83","province_code":"573","name":"Agerb\u00e6k","cp":["6753"],"lat":"55.6","lng":"8.8"},{"country_code":"DK","state_code":"83","province_code":"573","name":"Varde","cp":["6800"],"lat":"55.6211","lng":"8.4807"},{"country_code":"DK","state_code":"83","province_code":"573","name":"\u00c5rre","cp":["6818"],"lat":"55.5725","lng":"8.6675"},{"country_code":"DK","state_code":"83","province_code":"573","name":"Ansager","cp":["6823"],"lat":"55.7031","lng":"8.7586"},{"country_code":"DK","state_code":"83","province_code":"573","name":"N\u00f8rre Nebel","cp":["6830"],"lat":"55.7798","lng":"8.2952"},{"country_code":"DK","state_code":"83","province_code":"573","name":"Oksb\u00f8l","cp":["6840"],"lat":"55.6268","lng":"8.2876"},{"country_code":"DK","state_code":"83","province_code":"573","name":"Janderup Vestj","cp":["6851"],"lat":"55.6336","lng":"8.2018"},{"country_code":"DK","state_code":"83","province_code":"573","name":"Billum","cp":["6852"],"lat":"55.6167","lng":"8.3333"},{"country_code":"DK","state_code":"83","province_code":"573","name":"Vejers Strand","cp":["6853"],"lat":"55.6333","lng":"8.1333"},{"country_code":"DK","state_code":"83","province_code":"573","name":"Henne","cp":["6854"],"lat":"55.7317","lng":"8.2209"},{"country_code":"DK","state_code":"83","province_code":"573","name":"Outrup","cp":["6855"],"lat":"55.6336","lng":"8.2018"},{"country_code":"DK","state_code":"83","province_code":"573","name":"Bl\u00e5vand","cp":["6857"],"lat":"55.5529","lng":"8.1198"},{"country_code":"DK","state_code":"83","province_code":"573","name":"Tistrup","cp":["6862"],"lat":"55.7172","lng":"8.6043"},{"country_code":"DK","state_code":"83","province_code":"573","name":"\u00d8lgod","cp":["6870"],"lat":"55.8068","lng":"8.6286"},{"country_code":"DK","state_code":"83","province_code":"573","name":"Tarm","cp":["6880"],"lat":"55.9086","lng":"8.5304"},{"country_code":"DK","state_code":"83","province_code":"573","name":"Grindsted","cp":["7200"],"lat":"55.754","lng":"8.9123"},{"country_code":"DK","state_code":"83","province_code":"575","name":"Vejen","cp":["6600"],"lat":"55.4812","lng":"9.1379"},{"country_code":"DK","state_code":"83","province_code":"575","name":"Gesten","cp":["6621"],"lat":"55.5253","lng":"9.2076"},{"country_code":"DK","state_code":"83","province_code":"575","name":"B\u00e6kke","cp":["6622"],"lat":"55.5703","lng":"9.1397"},{"country_code":"DK","state_code":"83","province_code":"575","name":"Vorbasse","cp":["6623"],"lat":"55.6299","lng":"9.0824"},{"country_code":"DK","state_code":"83","province_code":"575","name":"R\u00f8dding","cp":["6630"],"lat":"55.3657","lng":"9.0632"},{"country_code":"DK","state_code":"83","province_code":"575","name":"Br\u00f8rup","cp":["6650"],"lat":"55.4819","lng":"9.0176"},{"country_code":"DK","state_code":"83","province_code":"575","name":"Lintrup","cp":["6660"],"lat":"55.5544","lng":"8.9278"},{"country_code":"DK","state_code":"83","province_code":"575","name":"Holsted","cp":["6670"],"lat":"55.5109","lng":"8.9187"},{"country_code":"DK","state_code":"83","province_code":"575","name":"Hovborg","cp":["6682"],"lat":"55.6081","lng":"8.9396"},{"country_code":"DK","state_code":"83","province_code":"575","name":"F\u00f8vling","cp":["6683"],"lat":"55.4521","lng":"8.9396"},{"country_code":"DK","state_code":"83","province_code":"575","name":"G\u00f8rding","cp":["6690"],"lat":"55.4746","lng":"8.7974"},{"country_code":"DK","state_code":"83","province_code":"575","name":"Glejbjerg","cp":["6752"],"lat":"55.5667","lng":"8.8333"},{"country_code":"DK","state_code":"83","province_code":"575","name":"Agerb\u00e6k","cp":["6753"],"lat":"55.6","lng":"8.8"},{"country_code":"DK","state_code":"83","province_code":"580","name":"Aabenraa","cp":["6200"],"lat":"55.0443","lng":"9.4174"},{"country_code":"DK","state_code":"83","province_code":"580","name":"R\u00f8dekro","cp":["6230"],"lat":"55.0702","lng":"9.3164"},{"country_code":"DK","state_code":"83","province_code":"580","name":"Padborg","cp":["6330"],"lat":"54.8266","lng":"9.3625"},{"country_code":"DK","state_code":"83","province_code":"580","name":"Krus\u00e5","cp":["6340"],"lat":"54.851","lng":"9.4013"},{"country_code":"DK","state_code":"83","province_code":"580","name":"Tinglev","cp":["6360"],"lat":"54.931","lng":"9.2524"},{"country_code":"DK","state_code":"83","province_code":"580","name":"Bylderup-Bov","cp":["6372"],"lat":"54.9387","lng":"9.0857"},{"country_code":"DK","state_code":"83","province_code":"580","name":"Bolderslev","cp":["6392"],"lat":"54.9925","lng":"9.284"},{"country_code":"DK","state_code":"83","province_code":"580","name":"Agerskov","cp":["6534"],"lat":"55.1289","lng":"9.1355"},{"country_code":"DK","state_code":"83","province_code":"607","name":"Fredericia","cp":["7000","7007"],"lat":"55.5657","lng":"9.7526"},{"country_code":"DK","state_code":"83","province_code":"621","name":"Kolding","cp":["6000"],"lat":"55.4904","lng":"9.4722"},{"country_code":"DK","state_code":"83","province_code":"621","name":"Egtved","cp":["6040"],"lat":"55.618","lng":"9.301"},{"country_code":"DK","state_code":"83","province_code":"621","name":"Almind","cp":["6051"],"lat":"55.5649","lng":"9.487"},{"country_code":"DK","state_code":"83","province_code":"621","name":"Viuf","cp":["6052"],"lat":"55.5853","lng":"9.4924"},{"country_code":"DK","state_code":"83","province_code":"621","name":"Jordrup","cp":["6064"],"lat":"55.558","lng":"9.3122"},{"country_code":"DK","state_code":"83","province_code":"621","name":"Christiansfeld","cp":["6070"],"lat":"55.3582","lng":"9.487"},{"country_code":"DK","state_code":"83","province_code":"621","name":"Bjert","cp":["6091"],"lat":"55.4077","lng":"9.5738"},{"country_code":"DK","state_code":"83","province_code":"621","name":"S\u00f8nder Stenderup","cp":["6092"],"lat":"55.4623","lng":"9.6119"},{"country_code":"DK","state_code":"83","province_code":"621","name":"Sj\u00f8lund","cp":["6093"],"lat":"55.4024","lng":"9.5302"},{"country_code":"DK","state_code":"83","province_code":"621","name":"Hejls","cp":["6094"],"lat":"55.3831","lng":"9.5765"},{"country_code":"DK","state_code":"83","province_code":"621","name":"Haderslev","cp":["6100"],"lat":"55.2538","lng":"9.4898"},{"country_code":"DK","state_code":"83","province_code":"621","name":"Nordborg","cp":["6430"],"lat":"55.0573","lng":"9.7408"},{"country_code":"DK","state_code":"83","province_code":"621","name":"Sommersted","cp":["6560"],"lat":"55.3187","lng":"9.2956"},{"country_code":"DK","state_code":"83","province_code":"621","name":"Vamdrup","cp":["6580"],"lat":"55.4276","lng":"9.2843"},{"country_code":"DK","state_code":"83","province_code":"621","name":"Lunderskov","cp":["6640"],"lat":"55.4838","lng":"9.2992"},{"country_code":"DK","state_code":"83","province_code":"630","name":"Egtved","cp":["6040"],"lat":"55.618","lng":"9.301"},{"country_code":"DK","state_code":"83","province_code":"630","name":"Viuf","cp":["6052"],"lat":"55.5853","lng":"9.4924"},{"country_code":"DK","state_code":"83","province_code":"630","name":"Vorbasse","cp":["6623"],"lat":"55.6299","lng":"9.0824"},{"country_code":"DK","state_code":"83","province_code":"630","name":"Fredericia","cp":["7000"],"lat":"55.5657","lng":"9.7526"},{"country_code":"DK","state_code":"83","province_code":"630","name":"B\u00f8rkop","cp":["7080"],"lat":"55.6379","lng":"9.6482"},{"country_code":"DK","state_code":"83","province_code":"630","name":"Vejle","cp":["7100"],"lat":"55.7093","lng":"9.5357"},{"country_code":"DK","state_code":"83","province_code":"630","name":"Vejle \u00d8st","cp":["7120"],"lat":"55.758","lng":"9.4862"},{"country_code":"DK","state_code":"83","province_code":"630","name":"T\u00f8rring","cp":["7160"],"lat":"55.85","lng":"9.4833"},{"country_code":"DK","state_code":"83","province_code":"630","name":"Vonge","cp":["7173"],"lat":"55.8604","lng":"9.4194"},{"country_code":"DK","state_code":"83","province_code":"630","name":"Bredsten","cp":["7182"],"lat":"55.7013","lng":"9.385"},{"country_code":"DK","state_code":"83","province_code":"630","name":"Randb\u00f8l","cp":["7183"],"lat":"55.6943","lng":"9.2475"},{"country_code":"DK","state_code":"83","province_code":"630","name":"Vandel","cp":["7184"],"lat":"55.7085","lng":"9.2133"},{"country_code":"DK","state_code":"83","province_code":"630","name":"Billund","cp":["7190"],"lat":"55.7335","lng":"9.1079"},{"country_code":"DK","state_code":"83","province_code":"630","name":"Grindsted","cp":["7200"],"lat":"55.754","lng":"8.9123"},{"country_code":"DK","state_code":"83","province_code":"630","name":"Jelling","cp":["7300"],"lat":"55.7559","lng":"9.4258"},{"country_code":"DK","state_code":"83","province_code":"630","name":"Gadbjerg","cp":["7321"],"lat":"55.7715","lng":"9.3248"},{"country_code":"DK","state_code":"83","province_code":"630","name":"Give","cp":["7323"],"lat":"55.8398","lng":"9.25"},{"country_code":"DK","state_code":"83","province_code":"630","name":"Brande","cp":["7330"],"lat":"55.9381","lng":"9.1218"},{"country_code":"DK","state_code":"83","province_code":"630","name":"Ejstrupholm","cp":["7361"],"lat":"55.9841","lng":"9.2818"},{"country_code":"DK","state_code":"84","province_code":"101","name":"K\u00f8benhavn C","cp":["0900"],"lat":"57.048","lng":"9.9187"},{"country_code":"DK","state_code":"84","province_code":"101","name":"Udland","cp":["0960"],"lat":"56.804","lng":"9.5144"},{"country_code":"DK","state_code":"84","province_code":"101","name":"K\u00f8benhavn C","cp":["0999"],"lat":"57.7209","lng":"10.5839"},{"country_code":"DK","state_code":"84","province_code":"101","name":"K\u00f8benhavn K","cp":["1001","1002","1003","1004","1005","1006","1007","1008","1009","1010","1011","1012","1013","1014","1015","1016","1017","1018","1019","1020","1021","1022","1023","1024","1025","1026","1050","1051","1052","1053","1054","1055","1056","1057","1058","1059","1060","1061","1062","1063","1064","1065","1066","1067","1068","1069","1070","1071","1072","1073","1074","1092","1093","1095","1098","1100","1101","1102","1103","1104","1105","1106","1107","1110","1111","1112","1113","1114","1115","1116","1117","1118","1119","1120","1121","1122","1123","1124","1125","1126","1127","1128","1129","1130","1131","1140","1147","1148","1150","1151","1152","1153","1154","1155","1156","1157","1158","1159","1160","1161","1162","1164","1165","1166","1167","1168","1169","1170","1171","1172","1173","1174","1175","1200","1201","1202","1203","1204","1205","1206","1207","1208","1209","1210","1211","1213","1214","1215","1216","1217","1218","1219","1220","1221","1240","1250","1251","1253","1254","1255","1256","1257","1259","1260","1261","1263","1264","1265","1266","1267","1268","1270","1271","1291","1300","1301","1302","1303","1304","1306","1307","1308","1309","1310","1311","1312","1313","1314","1315","1316","1317","1318","1319","1320","1321","1322","1323","1324","1325","1326","1327","1328","1329","1350","1352","1353","1354","1355","1356","1357","1358","1359","1360","1361","1362","1363","1364","1365","1366","1367","1368","1369","1370","1371","1400","1401","1402","1403","1406","1407","1408","1409","1410","1411","1412","1413","1414","1415","1416","1417","1418","1419","1420","1421","1422","1423","1424","1425","1426","1427","1428","1429","1430","1432","1433","1434","1435","1436","1437","1438","1439","1440","1441","1448","1450","1451","1452","1453","1454","1455","1456","1457","1458","1459","1460","1462","1463","1464","1466","1467","1468","1470","1471","1472"],"lat":"55.6759","lng":"12.5655"},{"country_code":"DK","state_code":"84","province_code":"101","name":"K\u00f8benhavn V","cp":["1500","1501","1502","1503","1504","1505","1506","1507","1508","1509","1510"],"lat":"55.6759","lng":"12.5655"},{"country_code":"DK","state_code":"84","province_code":"101","name":"Centraltastning","cp":["1513"],"lat":"55.6711","lng":"12.5653"},{"country_code":"DK","state_code":"84","province_code":"101","name":"K\u00f8benhavn V","cp":["1550","1551","1552","1553","1554","1555","1556","1557","1558","1559","1560","1561","1562","1563","1564","1567","1568","1569","1570","1571","1572","1573","1574","1575","1576","1577","1592","1599","1600","1601","1602","1603","1604","1606","1607","1608","1609","1610","1611","1612","1613","1614","1615","1616","1617","1618","1619","1620","1621","1622","1623","1624","1630","1631","1632","1633","1634","1635","1650","1651","1652","1653","1654","1655","1656","1657","1658","1659","1660","1661","1662","1663","1664","1665","1666","1667","1668","1669","1670","1671","1672","1673","1674","1675","1676","1677","1699","1700","1701","1702","1703","1704","1705","1706","1707","1708","1709","1710","1711","1712","1714","1715","1716","1717","1718","1719","1720","1721","1722","1723","1724","1725","1726","1727","1728","1729","1730","1731","1732","1733","1734","1735","1736","1737","1738","1739","1749","1750","1751","1752","1753","1754","1755","1756","1757","1758","1759","1760","1761","1762","1763","1764","1765","1766","1770","1771","1772","1773","1774","1775","1777","1780","1785","1786","1787","1790","1799"],"lat":"55.6759","lng":"12.5655"},{"country_code":"DK","state_code":"84","province_code":"101","name":"Frederiksberg C","cp":["1810"],"lat":"55.6794","lng":"12.5346"},{"country_code":"DK","state_code":"84","province_code":"101","name":"Frederiksberg","cp":["2000"],"lat":"55.6794","lng":"12.5346"},{"country_code":"DK","state_code":"84","province_code":"101","name":"K\u00f8benhavn \u00d8","cp":["2100"],"lat":"55.6759","lng":"12.5655"},{"country_code":"DK","state_code":"84","province_code":"101","name":"Nordhavn","cp":["2150"],"lat":"55.6759","lng":"12.5655"},{"country_code":"DK","state_code":"84","province_code":"101","name":"K\u00f8benhavn N","cp":["2200"],"lat":"55.6759","lng":"12.5655"},{"country_code":"DK","state_code":"84","province_code":"101","name":"K\u00f8benhavn S","cp":["2300"],"lat":"55.6759","lng":"12.5655"},{"country_code":"DK","state_code":"84","province_code":"101","name":"K\u00f8benhavn NV","cp":["2400"],"lat":"55.6759","lng":"12.5655"},{"country_code":"DK","state_code":"84","province_code":"101","name":"K\u00f8benhavn SV","cp":["2450"],"lat":"55.6759","lng":"12.5655"},{"country_code":"DK","state_code":"84","province_code":"101","name":"Valby","cp":["2500"],"lat":"55.6581","lng":"12.5241"},{"country_code":"DK","state_code":"84","province_code":"101","name":"R\u00f8dovre","cp":["2610"],"lat":"55.6806","lng":"12.4537"},{"country_code":"DK","state_code":"84","province_code":"101","name":"Br\u00f8nsh\u00f8j","cp":["2700"],"lat":"55.7057","lng":"12.4964"},{"country_code":"DK","state_code":"84","province_code":"101","name":"Vanl\u00f8se","cp":["2720"],"lat":"55.6836","lng":"12.4871"},{"country_code":"DK","state_code":"84","province_code":"101","name":"Kastrup","cp":["2770"],"lat":"55.6352","lng":"12.6489"},{"country_code":"DK","state_code":"84","province_code":"101","name":"S\u00f8borg","cp":["2860"],"lat":"55.7302","lng":"12.5098"},{"country_code":"DK","state_code":"84","province_code":"101","name":"Hellerup","cp":["2900"],"lat":"55.732","lng":"12.5709"},{"country_code":"DK","state_code":"84","province_code":"101","name":"Vildbjerg","cp":["7480"],"lat":"56.2","lng":"8.7667"},{"country_code":"DK","state_code":"84","province_code":"147","name":"Frederiksberg C","cp":["1800","1801","1802","1803","1804","1805","1806","1807","1808","1809","1810","1811","1812","1813","1814","1815","1816","1817","1818","1819","1820","1822","1823","1824","1825","1826","1827","1828","1829","1835","1850","1851","1852","1853","1854","1855","1856","1857","1860","1861","1862","1863","1864","1865","1866","1867","1868","1870","1871","1872","1873","1874","1875","1876","1877","1878","1879","1900","1901","1902","1903","1904","1905","1906","1908","1909","1910","1911","1912","1913","1914","1915","1916","1917","1920","1921","1922","1923","1924","1925","1926","1927","1928","1950","1951","1952","1953","1954","1955","1956","1957","1958","1959","1960","1961","1962","1963","1964","1965","1966","1967","1970","1971","1972","1973","1974"],"lat":"55.6794","lng":"12.5346"},{"country_code":"DK","state_code":"84","province_code":"147","name":"Frederiksberg","cp":["2000"],"lat":"55.6794","lng":"12.5346"},{"country_code":"DK","state_code":"84","province_code":"147","name":"K\u00f8benhavn N","cp":["2200"],"lat":"55.6759","lng":"12.5655"},{"country_code":"DK","state_code":"84","province_code":"147","name":"Valby","cp":["2500"],"lat":"55.6581","lng":"12.5241"},{"country_code":"DK","state_code":"84","province_code":"147","name":"Vanl\u00f8se","cp":["2720"],"lat":"55.6836","lng":"12.4871"},{"country_code":"DK","state_code":"84","province_code":"151","name":"Herlev","cp":["2730"],"lat":"55.7237","lng":"12.44"},{"country_code":"DK","state_code":"84","province_code":"151","name":"Skovlunde","cp":["2740"],"lat":"55.7157","lng":"12.398"},{"country_code":"DK","state_code":"84","province_code":"151","name":"Ballerup","cp":["2750"],"lat":"55.7316","lng":"12.3633"},{"country_code":"DK","state_code":"84","province_code":"151","name":"M\u00e5l\u00f8v","cp":["2760"],"lat":"55.7553","lng":"12.3233"},{"country_code":"DK","state_code":"84","province_code":"151","name":"V\u00e6rl\u00f8se","cp":["3500"],"lat":"55.7825","lng":"12.3686"},{"country_code":"DK","state_code":"84","province_code":"153","name":"K\u00f8benhavns Pakkecent","cp":["0917"],"lat":"55.6759","lng":"12.5655"},{"country_code":"DK","state_code":"84","province_code":"153","name":"Glostrup","cp":["2600"],"lat":"55.6666","lng":"12.4038"},{"country_code":"DK","state_code":"84","province_code":"153","name":"Br\u00f8ndby","cp":["2605"],"lat":"55.6503","lng":"12.41"},{"country_code":"DK","state_code":"84","province_code":"153","name":"Albertslund","cp":["2620"],"lat":"55.6569","lng":"12.3638"},{"country_code":"DK","state_code":"84","province_code":"153","name":"Hvidovre","cp":["2650"],"lat":"55.6572","lng":"12.4736"},{"country_code":"DK","state_code":"84","province_code":"153","name":"Br\u00f8ndby Strand","cp":["2660"],"lat":"55.6167","lng":"12.35"},{"country_code":"DK","state_code":"84","province_code":"155","name":"Drag\u00f8r","cp":["2791"],"lat":"55.5945","lng":"12.6664"},{"country_code":"DK","state_code":"84","province_code":"157","name":"Kongens Lyngby","cp":["2800"],"lat":"55.7704","lng":"12.5038"},{"country_code":"DK","state_code":"84","province_code":"157","name":"Gentofte","cp":["2820"],"lat":"55.749","lng":"12.546"},{"country_code":"DK","state_code":"84","province_code":"157","name":"Dysseg\u00e5rd","cp":["2870"],"lat":"55.7728","lng":"12.494"},{"country_code":"DK","state_code":"84","province_code":"157","name":"Hellerup","cp":["2900"],"lat":"55.732","lng":"12.5709"},{"country_code":"DK","state_code":"84","province_code":"157","name":"Charlottenlund","cp":["2920"],"lat":"55.7537","lng":"12.5918"},{"country_code":"DK","state_code":"84","province_code":"157","name":"Klampenborg","cp":["2930"],"lat":"55.7763","lng":"12.5901"},{"country_code":"DK","state_code":"84","province_code":"159","name":"Herlev","cp":["2730"],"lat":"55.7237","lng":"12.44"},{"country_code":"DK","state_code":"84","province_code":"159","name":"Kongens Lyngby","cp":["2800"],"lat":"55.7704","lng":"12.5038"},{"country_code":"DK","state_code":"84","province_code":"159","name":"Gentofte","cp":["2820"],"lat":"55.749","lng":"12.546"},{"country_code":"DK","state_code":"84","province_code":"159","name":"S\u00f8borg","cp":["2860"],"lat":"55.7302","lng":"12.5098"},{"country_code":"DK","state_code":"84","province_code":"159","name":"Bagsv\u00e6rd","cp":["2880"],"lat":"55.7618","lng":"12.4679"},{"country_code":"DK","state_code":"84","province_code":"159","name":"V\u00e6rl\u00f8se","cp":["3500"],"lat":"55.7825","lng":"12.3686"},{"country_code":"DK","state_code":"84","province_code":"161","name":"Glostrup","cp":["2600"],"lat":"55.6666","lng":"12.4038"},{"country_code":"DK","state_code":"84","province_code":"163","name":"Herlev","cp":["2730"],"lat":"55.7237","lng":"12.44"},{"country_code":"DK","state_code":"84","province_code":"163","name":"Skovlunde","cp":["2740"],"lat":"55.7157","lng":"12.398"},{"country_code":"DK","state_code":"84","province_code":"163","name":"Bagsv\u00e6rd","cp":["2880"],"lat":"55.7618","lng":"12.4679"},{"country_code":"DK","state_code":"84","province_code":"165","name":"Glostrup","cp":["2600"],"lat":"55.6666","lng":"12.4038"},{"country_code":"DK","state_code":"84","province_code":"165","name":"Albertslund","cp":["2620"],"lat":"55.6569","lng":"12.3638"},{"country_code":"DK","state_code":"84","province_code":"165","name":"Ballerup","cp":["2750"],"lat":"55.7316","lng":"12.3633"},{"country_code":"DK","state_code":"84","province_code":"167","name":"R\u00f8dovre","cp":["2610"],"lat":"55.6806","lng":"12.4537"},{"country_code":"DK","state_code":"84","province_code":"167","name":"Hvidovre","cp":["2650"],"lat":"55.6572","lng":"12.4736"},{"country_code":"DK","state_code":"84","province_code":"167","name":"Br\u00f8ndby Strand","cp":["2660"],"lat":"55.6167","lng":"12.35"},{"country_code":"DK","state_code":"84","province_code":"169","name":"H\u00f8je Taastrup","cp":["0800"],"lat":"55.6471","lng":"12.2742"},{"country_code":"DK","state_code":"84","province_code":"169","name":"Taastrup","cp":["2630"],"lat":"55.6517","lng":"12.2922"},{"country_code":"DK","state_code":"84","province_code":"169","name":"Hedehusene","cp":["2640"],"lat":"55.647","lng":"12.1936"},{"country_code":"DK","state_code":"84","province_code":"169","name":"Roskilde","cp":["4000"],"lat":"55.6415","lng":"12.0803"},{"country_code":"DK","state_code":"84","province_code":"173","name":"Kongens Lyngby","cp":["2800"],"lat":"55.7704","lng":"12.5038"},{"country_code":"DK","state_code":"84","province_code":"173","name":"Virum","cp":["2830"],"lat":"55.7949","lng":"12.451"},{"country_code":"DK","state_code":"84","province_code":"173","name":"Holte","cp":["2840"],"lat":"55.8167","lng":"12.4667"},{"country_code":"DK","state_code":"84","province_code":"173","name":"Klampenborg","cp":["2930"],"lat":"55.7763","lng":"12.5901"},{"country_code":"DK","state_code":"84","province_code":"173","name":"V\u00e6rl\u00f8se","cp":["3500"],"lat":"55.7825","lng":"12.3686"},{"country_code":"DK","state_code":"84","province_code":"175","name":"R\u00f8dovre","cp":["2610"],"lat":"55.6806","lng":"12.4537"},{"country_code":"DK","state_code":"84","province_code":"175","name":"Herlev","cp":["2730"],"lat":"55.7237","lng":"12.44"},{"country_code":"DK","state_code":"84","province_code":"183","name":"Ish\u00f8j","cp":["2635"],"lat":"55.6154","lng":"12.3518"},{"country_code":"DK","state_code":"84","province_code":"183","name":"Hedehusene","cp":["2640"],"lat":"55.647","lng":"12.1936"},{"country_code":"DK","state_code":"84","province_code":"185","name":"K\u00f8benhavn V","cp":["1532","1533"],"lat":"55.6759","lng":"12.5655"},{"country_code":"DK","state_code":"84","province_code":"185","name":"K\u00f8benhavn S","cp":["2300"],"lat":"55.6759","lng":"12.5655"},{"country_code":"DK","state_code":"84","province_code":"185","name":"Kastrup","cp":["2770"],"lat":"55.6352","lng":"12.6489"},{"country_code":"DK","state_code":"84","province_code":"185","name":"Drag\u00f8r","cp":["2791"],"lat":"55.5945","lng":"12.6664"},{"country_code":"DK","state_code":"84","province_code":"187","name":"Vallensb\u00e6k","cp":["2625"],"lat":"55.6333","lng":"12.3667"},{"country_code":"DK","state_code":"84","province_code":"187","name":"Vallensb\u00e6k Strand","cp":["2665"],"lat":"55.6139","lng":"12.3895"},{"country_code":"DK","state_code":"84","province_code":"190","name":"Bagsv\u00e6rd","cp":["2880"],"lat":"55.7618","lng":"12.4679"},{"country_code":"DK","state_code":"84","province_code":"190","name":"Birker\u00f8d","cp":["3460"],"lat":"55.8476","lng":"12.4279"},{"country_code":"DK","state_code":"84","province_code":"190","name":"V\u00e6rl\u00f8se","cp":["3500"],"lat":"55.7825","lng":"12.3686"},{"country_code":"DK","state_code":"84","province_code":"190","name":"Farum","cp":["3520"],"lat":"55.8086","lng":"12.3607"},{"country_code":"DK","state_code":"84","province_code":"190","name":"Lynge","cp":["3540"],"lat":"55.8394","lng":"12.2772"},{"country_code":"DK","state_code":"84","province_code":"201","name":"Hiller\u00f8d","cp":["3400"],"lat":"55.9279","lng":"12.3008"},{"country_code":"DK","state_code":"84","province_code":"201","name":"Aller\u00f8d","cp":["3450"],"lat":"55.8703","lng":"12.3574"},{"country_code":"DK","state_code":"84","province_code":"201","name":"Birker\u00f8d","cp":["3460"],"lat":"55.8476","lng":"12.4279"},{"country_code":"DK","state_code":"84","province_code":"201","name":"Farum","cp":["3520"],"lat":"55.8086","lng":"12.3607"},{"country_code":"DK","state_code":"84","province_code":"201","name":"Lynge","cp":["3540"],"lat":"55.8394","lng":"12.2772"},{"country_code":"DK","state_code":"84","province_code":"201","name":"Slangerup","cp":["3550"],"lat":"55.85","lng":"12.1833"},{"country_code":"DK","state_code":"84","province_code":"210","name":"H\u00f8rsholm","cp":["2970"],"lat":"55.881","lng":"12.5011"},{"country_code":"DK","state_code":"84","province_code":"210","name":"Kokkedal","cp":["2980"],"lat":"55.9118","lng":"12.4995"},{"country_code":"DK","state_code":"84","province_code":"210","name":"Niv\u00e5","cp":["2990"],"lat":"55.9341","lng":"12.5048"},{"country_code":"DK","state_code":"84","province_code":"210","name":"Humleb\u00e6k","cp":["3050"],"lat":"55.9618","lng":"12.5341"},{"country_code":"DK","state_code":"84","province_code":"210","name":"Esperg\u00e6rde","cp":["3060"],"lat":"56","lng":"12.5667"},{"country_code":"DK","state_code":"84","province_code":"210","name":"Hiller\u00f8d","cp":["3400"],"lat":"55.9279","lng":"12.3008"},{"country_code":"DK","state_code":"84","province_code":"210","name":"Aller\u00f8d","cp":["3450"],"lat":"55.8703","lng":"12.3574"},{"country_code":"DK","state_code":"84","province_code":"210","name":"Fredensborg","cp":["3480"],"lat":"55.9756","lng":"12.4031"},{"country_code":"DK","state_code":"84","province_code":"210","name":"Kvistg\u00e5rd","cp":["3490"],"lat":"55.9935","lng":"12.5045"},{"country_code":"DK","state_code":"84","province_code":"217","name":"Helsing\u00f8r","cp":["3000"],"lat":"56.0361","lng":"12.6136"},{"country_code":"DK","state_code":"84","province_code":"217","name":"Humleb\u00e6k","cp":["3050"],"lat":"55.9618","lng":"12.5341"},{"country_code":"DK","state_code":"84","province_code":"217","name":"Esperg\u00e6rde","cp":["3060"],"lat":"56","lng":"12.5667"},{"country_code":"DK","state_code":"84","province_code":"217","name":"Snekkersten","cp":["3070"],"lat":"56.009","lng":"12.586"},{"country_code":"DK","state_code":"84","province_code":"217","name":"Tik\u00f8b","cp":["3080"],"lat":"56.0206","lng":"12.4531"},{"country_code":"DK","state_code":"84","province_code":"217","name":"Hornb\u00e6k","cp":["3100"],"lat":"56.0854","lng":"12.4505"},{"country_code":"DK","state_code":"84","province_code":"217","name":"\u00c5lsg\u00e5rde","cp":["3140"],"lat":"56.0756","lng":"12.5399"},{"country_code":"DK","state_code":"84","province_code":"217","name":"Helleb\u00e6k","cp":["3150"],"lat":"56.0682","lng":"12.5578"},{"country_code":"DK","state_code":"84","province_code":"217","name":"Gr\u00e6sted","cp":["3230"],"lat":"56.0656","lng":"12.2851"},{"country_code":"DK","state_code":"84","province_code":"217","name":"Fredensborg","cp":["3480"],"lat":"55.9756","lng":"12.4031"},{"country_code":"DK","state_code":"84","province_code":"217","name":"Kvistg\u00e5rd","cp":["3490"],"lat":"55.9935","lng":"12.5045"},{"country_code":"DK","state_code":"84","province_code":"219","name":"Helsinge","cp":["3200"],"lat":"56.0228","lng":"12.1975"},{"country_code":"DK","state_code":"84","province_code":"219","name":"Gr\u00e6sted","cp":["3230"],"lat":"56.0656","lng":"12.2851"},{"country_code":"DK","state_code":"84","province_code":"219","name":"\u00d8lsted","cp":["3310"],"lat":"55.9232","lng":"12.0707"},{"country_code":"DK","state_code":"84","province_code":"219","name":"Sk\u00e6vinge","cp":["3320"],"lat":"55.9079","lng":"12.1504"},{"country_code":"DK","state_code":"84","province_code":"219","name":"G\u00f8rl\u00f8se","cp":["3330"],"lat":"55.8852","lng":"12.1982"},{"country_code":"DK","state_code":"84","province_code":"219","name":"Hiller\u00f8d","cp":["3400"],"lat":"55.9279","lng":"12.3008"},{"country_code":"DK","state_code":"84","province_code":"219","name":"Aller\u00f8d","cp":["3450"],"lat":"55.8703","lng":"12.3574"},{"country_code":"DK","state_code":"84","province_code":"219","name":"Fredensborg","cp":["3480"],"lat":"55.9756","lng":"12.4031"},{"country_code":"DK","state_code":"84","province_code":"219","name":"Lynge","cp":["3540"],"lat":"55.8394","lng":"12.2772"},{"country_code":"DK","state_code":"84","province_code":"219","name":"Slangerup","cp":["3550"],"lat":"55.85","lng":"12.1833"},{"country_code":"DK","state_code":"84","province_code":"219","name":"Frederikssund","cp":["3600"],"lat":"55.8396","lng":"12.069"},{"country_code":"DK","state_code":"84","province_code":"223","name":"Vedb\u00e6k","cp":["2950"],"lat":"55.8473","lng":"12.5689"},{"country_code":"DK","state_code":"84","province_code":"223","name":"Rungsted Kyst","cp":["2960"],"lat":"55.8349","lng":"12.5451"},{"country_code":"DK","state_code":"84","province_code":"223","name":"H\u00f8rsholm","cp":["2970"],"lat":"55.881","lng":"12.5011"},{"country_code":"DK","state_code":"84","province_code":"223","name":"Kokkedal","cp":["2980"],"lat":"55.9118","lng":"12.4995"},{"country_code":"DK","state_code":"84","province_code":"230","name":"Kongens Lyngby","cp":["2800"],"lat":"55.7704","lng":"12.5038"},{"country_code":"DK","state_code":"84","province_code":"230","name":"Virum","cp":["2830"],"lat":"55.7949","lng":"12.451"},{"country_code":"DK","state_code":"84","province_code":"230","name":"Holte","cp":["2840"],"lat":"55.8167","lng":"12.4667"},{"country_code":"DK","state_code":"84","province_code":"230","name":"N\u00e6rum","cp":["2850"],"lat":"55.816","lng":"12.5385"},{"country_code":"DK","state_code":"84","province_code":"230","name":"Skodsborg","cp":["2942"],"lat":"55.8225","lng":"12.5732"},{"country_code":"DK","state_code":"84","province_code":"230","name":"Vedb\u00e6k","cp":["2950"],"lat":"55.8473","lng":"12.5689"},{"country_code":"DK","state_code":"84","province_code":"230","name":"H\u00f8rsholm","cp":["2970"],"lat":"55.881","lng":"12.5011"},{"country_code":"DK","state_code":"84","province_code":"230","name":"Birker\u00f8d","cp":["3460"],"lat":"55.8476","lng":"12.4279"},{"country_code":"DK","state_code":"84","province_code":"240","name":"Ballerup","cp":["2750"],"lat":"55.7316","lng":"12.3633"},{"country_code":"DK","state_code":"84","province_code":"240","name":"Sm\u00f8rum","cp":["2765"],"lat":"55.7423","lng":"12.3028"},{"country_code":"DK","state_code":"84","province_code":"240","name":"V\u00e6rl\u00f8se","cp":["3500"],"lat":"55.7825","lng":"12.3686"},{"country_code":"DK","state_code":"84","province_code":"240","name":"Farum","cp":["3520"],"lat":"55.8086","lng":"12.3607"},{"country_code":"DK","state_code":"84","province_code":"240","name":"Lynge","cp":["3540"],"lat":"55.8394","lng":"12.2772"},{"country_code":"DK","state_code":"84","province_code":"240","name":"Slangerup","cp":["3550"],"lat":"55.85","lng":"12.1833"},{"country_code":"DK","state_code":"84","province_code":"240","name":"\u00d8lstykke","cp":["3650"],"lat":"55.7916","lng":"12.145"},{"country_code":"DK","state_code":"84","province_code":"240","name":"Stenl\u00f8se","cp":["3660"],"lat":"55.7683","lng":"12.1972"},{"country_code":"DK","state_code":"84","province_code":"240","name":"Veks\u00f8 Sj\u00e6lland","cp":["3670"],"lat":"55.8223","lng":"12.0862"},{"country_code":"DK","state_code":"84","province_code":"250","name":"Slangerup","cp":["3550"],"lat":"55.85","lng":"12.1833"},{"country_code":"DK","state_code":"84","province_code":"250","name":"Frederikssund","cp":["3600"],"lat":"55.8396","lng":"12.069"},{"country_code":"DK","state_code":"84","province_code":"250","name":"J\u00e6gerspris","cp":["3630"],"lat":"55.8554","lng":"11.9679"},{"country_code":"DK","state_code":"84","province_code":"250","name":"Skibby","cp":["4050"],"lat":"55.7512","lng":"11.9608"},{"country_code":"DK","state_code":"84","province_code":"260","name":"Frederiksv\u00e6rk","cp":["3300"],"lat":"55.9707","lng":"12.0225"},{"country_code":"DK","state_code":"84","province_code":"260","name":"\u00d8lsted","cp":["3310"],"lat":"55.9232","lng":"12.0707"},{"country_code":"DK","state_code":"84","province_code":"260","name":"Sk\u00e6vinge","cp":["3320"],"lat":"55.9079","lng":"12.1504"},{"country_code":"DK","state_code":"84","province_code":"260","name":"Liseleje","cp":["3360"],"lat":"56.0053","lng":"11.9483"},{"country_code":"DK","state_code":"84","province_code":"260","name":"Melby","cp":["3370"],"lat":"55.9962","lng":"11.9676"},{"country_code":"DK","state_code":"84","province_code":"260","name":"Hundested","cp":["3390"],"lat":"55.9667","lng":"11.8667"},{"country_code":"DK","state_code":"84","province_code":"260","name":"Frederikssund","cp":["3600"],"lat":"55.8396","lng":"12.069"},{"country_code":"DK","state_code":"84","province_code":"270","name":"Hornb\u00e6k","cp":["3100"],"lat":"56.0854","lng":"12.4505"},{"country_code":"DK","state_code":"84","province_code":"270","name":"Dronningm\u00f8lle","cp":["3120"],"lat":"56.0949","lng":"12.3852"},{"country_code":"DK","state_code":"84","province_code":"270","name":"Helsinge","cp":["3200"],"lat":"56.0228","lng":"12.1975"},{"country_code":"DK","state_code":"84","province_code":"270","name":"Vejby","cp":["3210"],"lat":"56.0639","lng":"12.1419"},{"country_code":"DK","state_code":"84","province_code":"270","name":"Tisvildeleje","cp":["3220"],"lat":"56.0598","lng":"12.0741"},{"country_code":"DK","state_code":"84","province_code":"270","name":"Gr\u00e6sted","cp":["3230"],"lat":"56.0656","lng":"12.2851"},{"country_code":"DK","state_code":"84","province_code":"270","name":"Gilleleje","cp":["3250"],"lat":"56.122","lng":"12.3106"},{"country_code":"DK","state_code":"84","province_code":"270","name":"Frederiksv\u00e6rk","cp":["3300"],"lat":"55.9707","lng":"12.0225"},{"country_code":"DK","state_code":"84","province_code":"400","name":"R\u00f8nne","cp":["3700"],"lat":"55.1009","lng":"14.7066"},{"country_code":"DK","state_code":"84","province_code":"400","name":"Aakirkeby","cp":["3720"],"lat":"55.0708","lng":"14.9198"},{"country_code":"DK","state_code":"84","province_code":"400","name":"Nex\u00f8","cp":["3730"],"lat":"55.0607","lng":"15.1306"},{"country_code":"DK","state_code":"84","province_code":"400","name":"Svaneke","cp":["3740"],"lat":"55.1357","lng":"15.1414"},{"country_code":"DK","state_code":"84","province_code":"400","name":"\u00d8stermarie","cp":["3751"],"lat":"55.1407","lng":"15.0125"},{"country_code":"DK","state_code":"84","province_code":"400","name":"Gudhjem","cp":["3760"],"lat":"55.2105","lng":"14.9713"},{"country_code":"DK","state_code":"84","province_code":"400","name":"Allinge","cp":["3770"],"lat":"55.2759","lng":"14.8024"},{"country_code":"DK","state_code":"84","province_code":"400","name":"Klemensker","cp":["3782"],"lat":"55.1727","lng":"14.8099"},{"country_code":"DK","state_code":"84","province_code":"400","name":"Hasle","cp":["3790"],"lat":"55.1821","lng":"14.7112"},{"country_code":"DK","state_code":"84","province_code":"411","name":"Gudhjem","cp":["3760"],"lat":"55.2105","lng":"14.9713"},{"country_code":"DK","state_code":"85","province_code":"253","name":"Hedehusene","cp":["2640"],"lat":"55.647","lng":"12.1936"},{"country_code":"DK","state_code":"85","province_code":"253","name":"Greve","cp":["2670"],"lat":"55.5833","lng":"12.3"},{"country_code":"DK","state_code":"85","province_code":"253","name":"Karlslunde","cp":["2690"],"lat":"55.5726","lng":"12.2258"},{"country_code":"DK","state_code":"85","province_code":"253","name":"Tune","cp":["4030"],"lat":"55.5953","lng":"12.1832"},{"country_code":"DK","state_code":"85","province_code":"259","name":"Ringsted","cp":["4100"],"lat":"55.4426","lng":"11.7901"},{"country_code":"DK","state_code":"85","province_code":"259","name":"Viby Sj\u00e6lland","cp":["4130"],"lat":"55.5487","lng":"12.0239"},{"country_code":"DK","state_code":"85","province_code":"259","name":"Borup","cp":["4140"],"lat":"55.4947","lng":"11.9758"},{"country_code":"DK","state_code":"85","province_code":"259","name":"Jystrup Midtsj","cp":["4174"],"lat":"55.4082","lng":"11.6872"},{"country_code":"DK","state_code":"85","province_code":"259","name":"Lejre","cp":["4320"],"lat":"55.6046","lng":"11.9748"},{"country_code":"DK","state_code":"85","province_code":"259","name":"K\u00f8ge","cp":["4600"],"lat":"55.458","lng":"12.1821"},{"country_code":"DK","state_code":"85","province_code":"259","name":"Lille Skensved","cp":["4623"],"lat":"55.5098","lng":"12.1351"},{"country_code":"DK","state_code":"85","province_code":"259","name":"Bj\u00e6verskov","cp":["4632"],"lat":"55.4576","lng":"12.0365"},{"country_code":"DK","state_code":"85","province_code":"259","name":"Herf\u00f8lge","cp":["4681"],"lat":"55.4137","lng":"12.1433"},{"country_code":"DK","state_code":"85","province_code":"259","name":"Tureby","cp":["4682"],"lat":"55.373","lng":"12.0769"},