[{"country_code":"DO","state_code":"","province_code":"","name":"Centro de Los Heroes","cp":["10101"],"lat":"18.6881","lng":"-69.9905"},{"country_code":"DO","state_code":"","province_code":"","name":"Mata Hambre","cp":["10102"],"lat":"18.45","lng":"-69.9333"},{"country_code":"DO","state_code":"","province_code":"","name":"Zona Universitaria","cp":["10103"],"lat":"18.6881","lng":"-69.9905"},{"country_code":"DO","state_code":"","province_code":"","name":"San Geronimo","cp":["10104"],"lat":"18.7667","lng":"-69.4667"},{"country_code":"DO","state_code":"","province_code":"","name":"Ciudad Universitaria","cp":["10105"],"lat":"18.6881","lng":"-69.9905"},{"country_code":"DO","state_code":"","province_code":"","name":"Los Robles","cp":["10106"],"lat":"19.4333","lng":"-70.4"},{"country_code":"DO","state_code":"","province_code":"","name":"El Vergel","cp":["10107"],"lat":"18.45","lng":"-70.0833"},{"country_code":"DO","state_code":"","province_code":"","name":"Esperilla","cp":["10107"],"lat":"18.45","lng":"-70.0833"},{"country_code":"DO","state_code":"","province_code":"","name":"El Manguito","cp":["10108"],"lat":"18.8","lng":"-70.0333"},{"country_code":"DO","state_code":"","province_code":"","name":"Esperilla","cp":["10108"],"lat":"18.45","lng":"-70.0833"},{"country_code":"DO","state_code":"","province_code":"","name":"La Julia","cp":["10109"],"lat":"18.4667","lng":"-69.9333"},{"country_code":"DO","state_code":"","province_code":"","name":"El Embajador","cp":["10110"],"lat":"18.45","lng":"-69.9333"},{"country_code":"DO","state_code":"","province_code":"","name":"Bella Vista","cp":["10111","10112"],"lat":"18.45","lng":"-69.9333"},{"country_code":"DO","state_code":"","province_code":"","name":"Sarasota","cp":["10113"],"lat":"18.45","lng":"-69.9333"},{"country_code":"DO","state_code":"","province_code":"","name":"Mirador Norte","cp":["10114"],"lat":"18.45","lng":"-69.9333"},{"country_code":"DO","state_code":"","province_code":"","name":"El Portal","cp":["10115"],"lat":"18.45","lng":"-69.9333"},{"country_code":"DO","state_code":"","province_code":"","name":"Atala","cp":["10115"],"lat":"18.45","lng":"-69.9333"},{"country_code":"DO","state_code":"","province_code":"","name":"Rocamar","cp":["10115"],"lat":"18.45","lng":"-69.9333"},{"country_code":"DO","state_code":"","province_code":"","name":"30 de Mayo","cp":["10116"],"lat":"18.45","lng":"-69.9333"},{"country_code":"DO","state_code":"","province_code":"","name":"Ciudad Gandera","cp":["10116"],"lat":"18.45","lng":"-69.9333"},{"country_code":"DO","state_code":"","province_code":"","name":"Hoduras","cp":["10117"],"lat":"18.45","lng":"-69.9333"},{"country_code":"DO","state_code":"","province_code":"","name":"Ensanche La Paz","cp":["10117"],"lat":"18.45","lng":"-69.9333"},{"country_code":"DO","state_code":"","province_code":"","name":"Costa Brava","cp":["10118"],"lat":"18.45","lng":"-69.9333"},{"country_code":"DO","state_code":"","province_code":"","name":"El Cacique","cp":["10118"],"lat":"18.45","lng":"-69.9333"},{"country_code":"DO","state_code":"","province_code":"","name":"Los Arrecifes","cp":["10118"],"lat":"18.45","lng":"-69.9333"},{"country_code":"DO","state_code":"","province_code":"","name":"Antillas","cp":["10118"],"lat":"18.45","lng":"-69.9333"},{"country_code":"DO","state_code":"","province_code":"","name":"Naco","cp":["10119"],"lat":"18.45","lng":"-69.9333"},{"country_code":"DO","state_code":"","province_code":"","name":"La Yuca","cp":["10120"],"lat":"18.4833","lng":"-69.9833"},{"country_code":"DO","state_code":"","province_code":"","name":"Arboleda (Naco)","cp":["10121"],"lat":"18.4667","lng":"-69.7833"},{"country_code":"DO","state_code":"","province_code":"","name":"Naco","cp":["10122"],"lat":"18.4667","lng":"-69.7833"},{"country_code":"DO","state_code":"","province_code":"","name":"Centro Olimpico","cp":["10122"],"lat":"18.4667","lng":"-69.7833"},{"country_code":"DO","state_code":"","province_code":"","name":"Naco","cp":["10123","10124"],"lat":"18.4667","lng":"-69.7833"},{"country_code":"DO","state_code":"","province_code":"","name":"Lopez de Vega","cp":["10125"],"lat":"18.4667","lng":"-69.7833"},{"country_code":"DO","state_code":"","province_code":"","name":"Paraiso","cp":["10126"],"lat":"18.45","lng":"-69.4167"},{"country_code":"DO","state_code":"","province_code":"","name":"Piantini","cp":["10127"],"lat":"18.4667","lng":"-69.95"},{"country_code":"DO","state_code":"","province_code":"","name":"Carmelita","cp":["10128"],"lat":"18.4667","lng":"-69.7833"},{"country_code":"DO","state_code":"","province_code":"","name":"Urbanizacion Fernandez","cp":["10129"],"lat":"18.4667","lng":"-69.7833"},{"country_code":"DO","state_code":"","province_code":"","name":"Los Praditos","cp":["10130"],"lat":"18.55","lng":"-69.8125"},{"country_code":"DO","state_code":"","province_code":"","name":"Julieta Morales","cp":["10130"],"lat":"18.55","lng":"-69.8125"},{"country_code":"DO","state_code":"","province_code":"","name":"Los Prados","cp":["10131","10132"],"lat":"18.4667","lng":"-69.95"},{"country_code":"DO","state_code":"","province_code":"","name":"Castellana","cp":["10133"],"lat":"18.55","lng":"-69.8125"},{"country_code":"DO","state_code":"","province_code":"","name":"San Geronimo","cp":["10134"],"lat":"18.7667","lng":"-69.4667"},{"country_code":"DO","state_code":"","province_code":"","name":"Urb. Las Praderas","cp":["10135"],"lat":"18.55","lng":"-69.8125"},{"country_code":"DO","state_code":"","province_code":"","name":"Encarnacion","cp":["10135"],"lat":"18.55","lng":"-69.8125"},{"country_code":"DO","state_code":"","province_code":"","name":"Ciudad Moderna","cp":["10135"],"lat":"18.55","lng":"-69.8125"},{"country_code":"DO","state_code":"","province_code":"","name":"Residencial Rosmil","cp":["10136"],"lat":"18.55","lng":"-69.8125"},{"country_code":"DO","state_code":"","province_code":"","name":"Los Restauradores","cp":["10137"],"lat":"18.55","lng":"-69.8125"},{"country_code":"DO","state_code":"","province_code":"","name":"Manganagua","cp":["10138"],"lat":"18.5","lng":"-69.8833"},{"country_code":"DO","state_code":"","province_code":"","name":"Los Millones","cp":["10139","10140","10141","10142"],"lat":"18.55","lng":"-69.8125"},{"country_code":"DO","state_code":"","province_code":"","name":"Estela Marina ( Los Millones).","cp":["10143"],"lat":"18.4556","lng":"-69.95"},{"country_code":"DO","state_code":"","province_code":"","name":"Los Millones","cp":["10144"],"lat":"18.4556","lng":"-69.95"},{"country_code":"DO","state_code":"","province_code":"","name":"Ensanche Quisqueya","cp":["10145","10146"],"lat":"18.45","lng":"-69.95"},{"country_code":"DO","state_code":"","province_code":"","name":"Evaristo Morales","cp":["10147"],"lat":"18.4556","lng":"-69.95"},{"country_code":"DO","state_code":"","province_code":"","name":"Piantini","cp":["10148"],"lat":"18.4667","lng":"-69.95"},{"country_code":"DO","state_code":"","province_code":"","name":"El Millon","cp":["10149"],"lat":"18.4556","lng":"-69.95"},{"country_code":"DO","state_code":"","province_code":"","name":"Piantini","cp":["10150"],"lat":"18.4667","lng":"-69.95"},{"country_code":"DO","state_code":"","province_code":"","name":"Don Bosco","cp":["10201","10202"],"lat":"18.4667","lng":"-69.9"},{"country_code":"DO","state_code":"","province_code":"","name":"Miraflores","cp":["10203"],"lat":"18.4667","lng":"-69.9"},{"country_code":"DO","state_code":"","province_code":"","name":"Gazcue ( Plaza de La Cultura )","cp":["10204"],"lat":"18.4667","lng":"-69.9"},{"country_code":"DO","state_code":"","province_code":"","name":"Gazcue","cp":["10205"],"lat":"18.4667","lng":"-69.9"},{"country_code":"DO","state_code":"","province_code":"","name":"Ensanche Independencia","cp":["10206"],"lat":"18.4667","lng":"-69.9"},{"country_code":"DO","state_code":"","province_code":"","name":"La Primavera","cp":["10207"],"lat":"18.4667","lng":"-69.9"},{"country_code":"DO","state_code":"","province_code":"","name":"Ciudad Nueva","cp":["10208"],"lat":"18.4667","lng":"-69.9"},{"country_code":"DO","state_code":"","province_code":"","name":"Ensanche Lugo","cp":["10209"],"lat":"18.4667","lng":"-69.9"},{"country_code":"DO","state_code":"","province_code":"","name":"Zona Colonial","cp":["10210"],"lat":"18.5917","lng":"-69.8944"},{"country_code":"DO","state_code":"","province_code":"","name":"San Lazaro","cp":["10211"],"lat":"18.5917","lng":"-69.8944"},{"country_code":"DO","state_code":"","province_code":"","name":"San Miguel","cp":["10212"],"lat":"18.5","lng":"-70.0167"},{"country_code":"DO","state_code":"","province_code":"","name":"Borojol","cp":["10213"],"lat":"19.15","lng":"-69.75"},{"country_code":"DO","state_code":"","province_code":"","name":"Villa Francisca","cp":["10214","10215"],"lat":"18.4667","lng":"-69.9"},{"country_code":"DO","state_code":"","province_code":"","name":"San Carlos","cp":["10216","10217"],"lat":"18.4833","lng":"-69.9"},{"country_code":"DO","state_code":"","province_code":"","name":"Reparto Aguedita ( Gazcue)","cp":["10218"],"lat":"18.5917","lng":"-69.8944"},{"country_code":"DO","state_code":"","province_code":"","name":"Mejoramiento Social","cp":["10301"],"lat":"18.5985","lng":"-70.0136"},{"country_code":"DO","state_code":"","province_code":"","name":"San Martin de Porres","cp":["10302"],"lat":"18.5","lng":"-69.8833"},{"country_code":"DO","state_code":"","province_code":"","name":"Guachupita","cp":["10302"],"lat":"18.75","lng":"-69.4"},{"country_code":"DO","state_code":"","province_code":"","name":"Maria Auxiliadora","cp":["10302"],"lat":"18.5","lng":"-69.8833"},{"country_code":"DO","state_code":"","province_code":"","name":"La Fuente","cp":["10302"],"lat":"18.4833","lng":"-69.8833"},{"country_code":"DO","state_code":"","province_code":"","name":"La Cienaga","cp":["10303"],"lat":"18.6167","lng":"-70.2333"},{"country_code":"DO","state_code":"","province_code":"","name":"Los Guandules","cp":["10304"],"lat":"19.2833","lng":"-71.4"},{"country_code":"DO","state_code":"","province_code":"","name":"Domingo Savio","cp":["10304"],"lat":"19.2833","lng":"-71.4"},{"country_code":"DO","state_code":"","province_code":"","name":"Maria Auxiliadora","cp":["10305"],"lat":"18.5","lng":"-69.8833"},{"country_code":"DO","state_code":"","province_code":"","name":"Agua Dulce","cp":["10305"],"lat":"18.5","lng":"-69.8833"},{"country_code":"DO","state_code":"","province_code":"","name":"27 de Febrero","cp":["10305"],"lat":"18.5","lng":"-69.8833"},{"country_code":"DO","state_code":"","province_code":"","name":"Mejoramiento Social","cp":["10306"],"lat":"18.5985","lng":"-70.0136"},{"country_code":"DO","state_code":"","province_code":"","name":"Villa Maria","cp":["10307"],"lat":"18.4833","lng":"-69.9"},{"country_code":"DO","state_code":"","province_code":"","name":"Villa Consuelo","cp":["10308","10309"],"lat":"18.4833","lng":"-69.9"},{"country_code":"DO","state_code":"","province_code":"","name":"Ensanche Luperon","cp":["10401"],"lat":"18.5","lng":"-69.9"},{"country_code":"DO","state_code":"","province_code":"","name":"Ensanche Espaillat","cp":["10402"],"lat":"18.5","lng":"-69.8833"},{"country_code":"DO","state_code":"","province_code":"","name":"Gualey","cp":["10403"],"lat":"18.5","lng":"-69.9167"},{"country_code":"DO","state_code":"","province_code":"","name":"24 de Abril","cp":["10404"],"lat":"18.5","lng":"-69.9167"},{"country_code":"DO","state_code":"","province_code":"","name":"Simon Bolivar","cp":["10405"],"lat":"18.5","lng":"-69.9"},{"country_code":"DO","state_code":"","province_code":"","name":"Ensanche Luperon","cp":["10406"],"lat":"18.5","lng":"-69.9"},{"country_code":"DO","state_code":"","province_code":"","name":"Capotillo","cp":["10407"],"lat":"18.5","lng":"-69.9"},{"country_code":"DO","state_code":"","province_code":"","name":"La Zurza","cp":["10408"],"lat":"18.5","lng":"-70.0167"},{"country_code":"DO","state_code":"","province_code":"","name":"Villas Agricolas","cp":["10409"],"lat":"18.5","lng":"-69.9167"},{"country_code":"DO","state_code":"","province_code":"","name":"La Caridad","cp":["10410"],"lat":"18.5","lng":"-69.9"},{"country_code":"DO","state_code":"","province_code":"","name":"Villas Agricolas","cp":["10410"],"lat":"18.5","lng":"-69.9"},{"country_code":"DO","state_code":"","province_code":"","name":"El Ensanchito","cp":["10411"],"lat":"18.4833","lng":"-69.9"},{"country_code":"DO","state_code":"","province_code":"","name":"Villa Juana","cp":["10412","10413"],"lat":"18.4917","lng":"-69.9"},{"country_code":"DO","state_code":"","province_code":"","name":"Cristo Rey","cp":["10501"],"lat":"18.5","lng":"-69.9333"},{"country_code":"DO","state_code":"","province_code":"","name":"El Caliche","cp":["10501"],"lat":"18.4833","lng":"-69.9833"},{"country_code":"DO","state_code":"","province_code":"","name":"Trueva","cp":["10501"],"lat":"18.4917","lng":"-69.9583"},{"country_code":"DO","state_code":"","province_code":"","name":"Santa Rosa","cp":["10502"],"lat":"18.5333","lng":"-70.0667"},{"country_code":"DO","state_code":"","province_code":"","name":"Las Flores","cp":["10502"],"lat":"19.8","lng":"-70.7"},{"country_code":"DO","state_code":"","province_code":"","name":"La Cuarenta","cp":["10502"],"lat":"19.25","lng":"-70.4"},{"country_code":"DO","state_code":"","province_code":"","name":"Yaquito","cp":["10502"],"lat":"19.1944","lng":"-70.3889"},{"country_code":"DO","state_code":"","province_code":"","name":"La Isabela","cp":["10503"],"lat":"18.6667","lng":"-70.15"},{"country_code":"DO","state_code":"","province_code":"","name":"Parque Isabela","cp":["10503"],"lat":"18.6667","lng":"-70.15"},{"country_code":"DO","state_code":"","province_code":"","name":"Cerro de Arroyo Hdo.","cp":["10504"],"lat":"18.7218","lng":"-70.2474"},{"country_code":"DO","state_code":"","province_code":"","name":"Isabel Villas","cp":["10504"],"lat":"18.7218","lng":"-70.2474"},{"country_code":"DO","state_code":"","province_code":"","name":"Cuesta Hermosa III","cp":["10504"],"lat":"18.7218","lng":"-70.2474"},{"country_code":"DO","state_code":"","province_code":"","name":"Urb. Puerta de Hierro","cp":["10505"],"lat":"18.5083","lng":"-70.3292"},{"country_code":"DO","state_code":"","province_code":"","name":"Buena Vista","cp":["10505"],"lat":"18.3333","lng":"-70.2833"},{"country_code":"DO","state_code":"","province_code":"","name":"Manzano","cp":["10505"],"lat":"18.5167","lng":"-69.9667"},{"country_code":"DO","state_code":"","province_code":"","name":"Fundacion","cp":["10505"],"lat":"18.4167","lng":"-70.1667"},{"country_code":"DO","state_code":"","province_code":"","name":"Arroyo Manzano","cp":["10505"],"lat":"18.5083","lng":"-70.3292"},{"country_code":"DO","state_code":"","province_code":"","name":"La Meseta","cp":["10505"],"lat":"18.7667","lng":"-70.9"},{"country_code":"DO","state_code":"","province_code":"","name":"Pista de Motocros La Yuca","cp":["10505"],"lat":"18.5083","lng":"-70.3292"},{"country_code":"DO","state_code":"","province_code":"","name":"Cuesta Brava","cp":["10505"],"lat":"18.5083","lng":"-70.3292"},{"country_code":"DO","state_code":"","province_code":"","name":"Altos de Arroyo Hondo II","cp":["10506"],"lat":"18.7218","lng":"-70.2474"},{"country_code":"DO","state_code":"","province_code":"","name":"Cuesta Hermosa","cp":["10507"],"lat":"18.8167","lng":"-70.05"},{"country_code":"DO","state_code":"","province_code":"","name":"Colinas de Arroyo Hondo","cp":["10507"],"lat":"18.8167","lng":"-70.05"},{"country_code":"DO","state_code":"","province_code":"","name":"Lomas de Arroyo Hondo","cp":["10507"],"lat":"18.8167","lng":"-70.05"},{"country_code":"DO","state_code":"","province_code":"","name":"Los Arroyos","cp":["10507"],"lat":"18.8167","lng":"-70.05"},{"country_code":"DO","state_code":"","province_code":"","name":"La Puya","cp":["10507"],"lat":"18.8167","lng":"-70.05"},{"country_code":"DO","state_code":"","province_code":"","name":"Los Pinos","cp":["10508"],"lat":"18.4","lng":"-70.3333"},{"country_code":"DO","state_code":"","province_code":"","name":"La Aldaba","cp":["10508"],"lat":"18.65","lng":"-70.3083"},{"country_code":"DO","state_code":"","province_code":"","name":"El Pino","cp":["10508"],"lat":"18.9","lng":"-70.2833"},{"country_code":"DO","state_code":"","province_code":"","name":"La Agustinita","cp":["10509"],"lat":"18.7218","lng":"-70.2474"},{"country_code":"DO","state_code":"","province_code":"","name":"Carmen Amelia","cp":["10509"],"lat":"18.7218","lng":"-70.2474"},{"country_code":"DO","state_code":"","province_code":"","name":"Los Caminos","cp":["10510"],"lat":"18.4917","lng":"-69.9292"},{"country_code":"DO","state_code":"","province_code":"","name":"Viejo Arroyo Hondo","cp":["10510"],"lat":"18.4917","lng":"-69.9292"},{"country_code":"DO","state_code":"","province_code":"","name":"La Fe","cp":["10511","10512"],"lat":"18.4833","lng":"-69.9333"},{"country_code":"DO","state_code":"","province_code":"","name":"Ens. Kennedy","cp":["10513"],"lat":"18.4917","lng":"-69.9292"},{"country_code":"DO","state_code":"","province_code":"","name":"Cachiman","cp":["10514"],"lat":"18.4917","lng":"-69.9292"},{"country_code":"DO","state_code":"","province_code":"","name":"Ens. La Fe","cp":["10514"],"lat":"18.4917","lng":"-69.9292"},{"country_code":"DO","state_code":"","province_code":"","name":"Barrio Obrero","cp":["10515"],"lat":"18.5","lng":"-69.9167"},{"country_code":"DO","state_code":"","province_code":"","name":"La Agustina","cp":["10516"],"lat":"18.5","lng":"-69.9333"},{"country_code":"DO","state_code":"","province_code":"","name":"La Cementera","cp":["10516"],"lat":"18.5","lng":"-69.9333"},{"country_code":"DO","state_code":"","province_code":"","name":"Lanna Gautier","cp":["10516"],"lat":"18.5","lng":"-69.9333"},{"country_code":"DO","state_code":"","province_code":"","name":"Constelacion","cp":["10601"],"lat":"18.58","lng":"-70.6767"},{"country_code":"DO","state_code":"","province_code":"","name":"Los Proceres","cp":["10601"],"lat":"18.58","lng":"-70.6767"},{"country_code":"DO","state_code":"","province_code":"","name":"Los Jardines del Norte","cp":["10602"],"lat":"18.58","lng":"-70.6767"},{"country_code":"DO","state_code":"","province_code":"","name":"Las Villas","cp":["10603"],"lat":"18.58","lng":"-70.6767"},{"country_code":"DO","state_code":"","province_code":"","name":"Los Rios","cp":["10604"],"lat":"18.8667","lng":"-71.25"},{"country_code":"DO","state_code":"","province_code":"","name":"La Esperanza","cp":["10604"],"lat":"18.6","lng":"-70.5"},{"country_code":"DO","state_code":"","province_code":"","name":"Cerros de Arroyo Hdo III","cp":["10605"],"lat":"18.58","lng":"-70.6767"},{"country_code":"DO","state_code":"","province_code":"","name":"Altos de Arroyo Hdo. I","cp":["10605"],"lat":"18.58","lng":"-70.6767"},{"country_code":"DO","state_code":"","province_code":"","name":"Altos de Arroyo Hdo. III","cp":["10605"],"lat":"18.58","lng":"-70.6767"},{"country_code":"DO","state_code":"","province_code":"","name":"Colinas del Seminario","cp":["10606"],"lat":"18.58","lng":"-70.6767"},{"country_code":"DO","state_code":"","province_code":"","name":"Residencial La Yuca","cp":["10606"],"lat":"18.58","lng":"-70.6767"},{"country_code":"DO","state_code":"","province_code":"","name":"Los Guayabos","cp":["10607"],"lat":"18.6","lng":"-70.5167"},{"country_code":"DO","state_code":"","province_code":"","name":"El Condado","cp":["10607"],"lat":"18.5167","lng":"-70.65"},{"country_code":"DO","state_code":"","province_code":"","name":"La Ceiba","cp":["10607"],"lat":"18.4333","lng":"-70.7833"},{"country_code":"DO","state_code":"","province_code":"","name":"Villa Claudia","cp":["10607"],"lat":"18.5167","lng":"-70.65"},{"country_code":"DO","state_code":"","province_code":"","name":"Don Honorio","cp":["10607"],"lat":"18.5167","lng":"-70.65"},{"country_code":"DO","state_code":"","province_code":"","name":"Las Colinas","cp":["10608"],"lat":"18.4","lng":"-70.3333"},{"country_code":"DO","state_code":"","province_code":"","name":"Pradera Hermosa","cp":["10608"],"lat":"18.4","lng":"-70.3333"},{"country_code":"DO","state_code":"","province_code":"","name":"Villa Elena","cp":["10608"],"lat":"18.4","lng":"-70.3333"},{"country_code":"DO","state_code":"","province_code":"","name":"Villa Marina","cp":["10608"],"lat":"18.4","lng":"-70.3333"},{"country_code":"DO","state_code":"","province_code":"","name":"Los Pinos","cp":["10608"],"lat":"18.4","lng":"-70.3333"},{"country_code":"DO","state_code":"","province_code":"","name":"Pantoja","cp":["10701"],"lat":"18.5167","lng":"-70"},{"country_code":"DO","state_code":"","province_code":"","name":"Lotificacion Vista Verde","cp":["10701"],"lat":"18.5917","lng":"-70.075"},{"country_code":"DO","state_code":"","province_code":"","name":"La Redencion","cp":["10701"],"lat":"18.5917","lng":"-70.075"},{"country_code":"DO","state_code":"","province_code":"","name":"La Isabela","cp":["10701"],"lat":"18.6667","lng":"-70.15"},{"country_code":"DO","state_code":"","province_code":"","name":"Batey Palmarejo","cp":["10701"],"lat":"18.5917","lng":"-70.075"},{"country_code":"DO","state_code":"","province_code":"","name":"Colinas del Norte","cp":["10701"],"lat":"18.5917","lng":"-70.075"},{"country_code":"DO","state_code":"","province_code":"","name":"Reparto Miguelina","cp":["10702"],"lat":"19.15","lng":"-70.2833"},{"country_code":"DO","state_code":"","province_code":"","name":"Reparto Samaria","cp":["10702"],"lat":"19.15","lng":"-70.2833"},{"country_code":"DO","state_code":"","province_code":"","name":"Urbanizacion Palma Real","cp":["10702"],"lat":"19.15","lng":"-70.2833"},{"country_code":"DO","state_code":"","province_code":"","name":"Urb. Brisa del Norte","cp":["10702"],"lat":"19.15","lng":"-70.2833"},{"country_code":"DO","state_code":"","province_code":"","name":"Palma Real","cp":["10702"],"lat":"19.15","lng":"-70.2833"},{"country_code":"DO","state_code":"","province_code":"","name":"Los Girasoles","cp":["10702"],"lat":"19.15","lng":"-70.2833"},{"country_code":"DO","state_code":"","province_code":"","name":"Los Angeles","cp":["10702"],"lat":"19.2833","lng":"-70.5667"},{"country_code":"DO","state_code":"","province_code":"","name":"Los Peralejos","cp":["10702"],"lat":"19.0167","lng":"-70"},{"country_code":"DO","state_code":"","province_code":"","name":"Invi","cp":["10801"],"lat":"19.075","lng":"-70.5667"},{"country_code":"DO","state_code":"","province_code":"","name":"Lebron","cp":["10801"],"lat":"19.075","lng":"-70.5667"},{"country_code":"DO","state_code":"","province_code":"","name":"Barrio Chavon","cp":["10801"],"lat":"19.075","lng":"-70.5667"},{"country_code":"DO","state_code":"","province_code":"","name":"El Tamarindo","cp":["10801"],"lat":"19.1667","lng":"-70.3833"},{"country_code":"DO","state_code":"","province_code":"","name":"Los Alcarrizos","cp":["10801"],"lat":"18.5167","lng":"-70.0167"},{"country_code":"DO","state_code":"","province_code":"","name":"Barrio La Fe","cp":["10801"],"lat":"19.5667","lng":"-71.7167"},{"country_code":"DO","state_code":"","province_code":"","name":"Barrio La Esperanza","cp":["10801"],"lat":"19.05","lng":"-70.15"},{"country_code":"DO","state_code":"","province_code":"","name":"Barrio La Union","cp":["10801"],"lat":"19.075","lng":"-70.5667"},{"country_code":"DO","state_code":"","province_code":"","name":"Obras Publicas","cp":["10801"],"lat":"19.075","lng":"-70.5667"},{"country_code":"DO","state_code":"","province_code":"","name":"Barrio La Torre","cp":["10801"],"lat":"19.075","lng":"-70.5667"},{"country_code":"DO","state_code":"","province_code":"","name":"Barrio La Pi\u00f1a","cp":["10802"],"lat":"19.15","lng":"-70.7"},{"country_code":"DO","state_code":"","province_code":"","name":"Los Alcarrizos III","cp":["10802"],"lat":"19.15","lng":"-70.7"},{"country_code":"DO","state_code":"","province_code":"","name":"Barrio Landia","cp":["10802"],"lat":"19.15","lng":"-70.7"},{"country_code":"DO","state_code":"","province_code":"","name":"Barrio Paraiso","cp":["10802"],"lat":"19.15","lng":"-70.7"},{"country_code":"DO","state_code":"","province_code":"","name":"La Pi\u00f1ita","cp":["10802"],"lat":"19.15","lng":"-70.7"},{"country_code":"DO","state_code":"","province_code":"","name":"Zona Franca de Los Alcarrizos","cp":["10802"],"lat":"19.15","lng":"-70.7"},{"country_code":"DO","state_code":"","province_code":"","name":"Los Libertadores","cp":["10802"],"lat":"19.15","lng":"-70.7"},{"country_code":"DO","state_code":"","province_code":"","name":"Los Americanos","cp":["10802"],"lat":"19.15","lng":"-70.7"},{"country_code":"DO","state_code":"","province_code":"","name":"Villa San Felipe","cp":["10802"],"lat":"19.15","lng":"-70.7"},{"country_code":"DO","state_code":"","province_code":"","name":"Valle Encantado","cp":["10802"],"lat":"19.15","lng":"-70.7"},{"country_code":"DO","state_code":"","province_code":"","name":"Barrio Gran Poder de Dios","cp":["10802"],"lat":"19.15","lng":"-70.7"},{"country_code":"DO","state_code":"","province_code":"","name":"La Compuerta","cp":["10802"],"lat":"19.15","lng":"-70.7"},{"country_code":"DO","state_code":"","province_code":"","name":"Barrio Las Mercedes","cp":["10803"],"lat":"18.9444","lng":"-70.5056"},{"country_code":"DO","state_code":"","province_code":"","name":"24 de Abril","cp":["10803"],"lat":"19.85","lng":"-71.65"},{"country_code":"DO","state_code":"","province_code":"","name":"Varia","cp":["10803"],"lat":"18.5","lng":"-70.0333"},{"country_code":"DO","state_code":"","province_code":"","name":"Savica","cp":["10803"],"lat":"18.4833","lng":"-69.8333"},{"country_code":"DO","state_code":"","province_code":"","name":"El Chucho","cp":["10803"],"lat":"18.9444","lng":"-70.5056"},{"country_code":"DO","state_code":"","province_code":"","name":"Urbanizacion Las Mercedes","cp":["10803"],"lat":"18.9444","lng":"-70.5056"},{"country_code":"DO","state_code":"","province_code":"","name":"La Cienaga","cp":["10804"],"lat":"19.1333","lng":"-70.6667"},{"country_code":"DO","state_code":"","province_code":"","name":"El Catorce","cp":["10804"],"lat":"19.1333","lng":"-70.6667"},{"country_code":"DO","state_code":"","province_code":"","name":"Altos del Oeste","cp":["10804"],"lat":"19.1333","lng":"-70.6667"},{"country_code":"DO","state_code":"","province_code":"","name":"Villas Naco","cp":["10804"],"lat":"19.1333","lng":"-70.6667"},{"country_code":"DO","state_code":"","province_code":"","name":"La Concordia","cp":["10804"],"lat":"19.1333","lng":"-70.6667"},{"country_code":"DO","state_code":"","province_code":"","name":"Cerros de Palmarejo","cp":["10805"],"lat":"18.7333","lng":"-71.1833"},{"country_code":"DO","state_code":"","province_code":"","name":"Barrio Arenoso","cp":["10805"],"lat":"18.7333","lng":"-71.1833"},{"country_code":"DO","state_code":"","province_code":"","name":"Nuevo Amanecer","cp":["10805"],"lat":"18.7333","lng":"-71.1833"},{"country_code":"DO","state_code":"","province_code":"","name":"Palmarejito","cp":["10805"],"lat":"18.7333","lng":"-71.1833"},{"country_code":"DO","state_code":"","province_code":"","name":"Puerto Rico","cp":["10805"],"lat":"18.7333","lng":"-71.1833"},{"country_code":"DO","state_code":"","province_code":"","name":"Urb. San Rafael","cp":["10805"],"lat":"18.7333","lng":"-71.1833"},{"country_code":"DO","state_code":"","province_code":"","name":"Barrio Progreso","cp":["10805"],"lat":"18.7333","lng":"-71.1833"},{"country_code":"DO","state_code":"","province_code":"","name":"Las Crorias","cp":["10805"],"lat":"18.7333","lng":"-71.1833"},{"country_code":"DO","state_code":"","province_code":"","name":"Nuevo Horizonte","cp":["10805"],"lat":"18.7333","lng":"-71.1833"},{"country_code":"DO","state_code":"","province_code":"","name":"Ciudad Codiana","cp":["10805"],"lat":"18.7333","lng":"-71.1833"},{"country_code":"DO","state_code":"","province_code":"","name":"Pueblo Nuevo","cp":["10805"],"lat":"18.7333","lng":"-71.1833"},{"country_code":"DO","state_code":"","province_code":"","name":"Urb. Olimpo","cp":["10901"],"lat":"18.4833","lng":"-69.9833"},{"country_code":"DO","state_code":"","province_code":"","name":"Urb. Las Palmas","cp":["10901"],"lat":"18.4833","lng":"-69.9833"},{"country_code":"DO","state_code":"","province_code":"","name":"Villa Aura","cp":["10901"],"lat":"18.4833","lng":"-69.9833"},{"country_code":"DO","state_code":"","province_code":"","name":"El Caliche","cp":["10901"],"lat":"18.4833","lng":"-69.9833"},{"country_code":"DO","state_code":"","province_code":"","name":"San Miguel","cp":["10902"],"lat":"18.5","lng":"-70.0167"},{"country_code":"DO","state_code":"","province_code":"","name":"Batey Bienvenido","cp":["10902"],"lat":"18.4867","lng":"-70.0133"},{"country_code":"DO","state_code":"","province_code":"","name":"Alameda","cp":["10902"],"lat":"18.4867","lng":"-70.0133"},{"country_code":"DO","state_code":"","province_code":"","name":"Barrio Antillano","cp":["10902"],"lat":"18.4867","lng":"-70.0133"},{"country_code":"DO","state_code":"","province_code":"","name":"Bella Colina","cp":["10902"],"lat":"18.4867","lng":"-70.0133"},{"country_code":"DO","state_code":"","province_code":"","name":"Residencial Almendra","cp":["10902"],"lat":"18.4867","lng":"-70.0133"},{"country_code":"DO","state_code":"","province_code":"","name":"Residencial Alameda","cp":["10902"],"lat":"18.4867","lng":"-70.0133"},{"country_code":"DO","state_code":"","province_code":"","name":"Villa Peravia","cp":["10902"],"lat":"18.4867","lng":"-70.0133"},{"country_code":"DO","state_code":"","province_code":"","name":"Manoguayabo","cp":["10902"],"lat":"18.4833","lng":"-70"},{"country_code":"DO","state_code":"","province_code":"","name":"Buenas Noches","cp":["10902"],"lat":"18.4833","lng":"-70.05"},{"country_code":"DO","state_code":"","province_code":"","name":"La Venta","cp":["10902"],"lat":"18.4833","lng":"-69.9667"},{"country_code":"DO","state_code":"","province_code":"","name":"Hato Nuevo","cp":["10902"],"lat":"18.4833","lng":"-70.0333"},{"country_code":"DO","state_code":"","province_code":"","name":"Bayona","cp":["10903"],"lat":"18.4667","lng":"-70"},{"country_code":"DO","state_code":"","province_code":"","name":"Villa Nazaret","cp":["10903"],"lat":"18.4667","lng":"-70"},{"country_code":"DO","state_code":"","province_code":"","name":"Paraiso del Caribe","cp":["10903"],"lat":"18.4667","lng":"-70"},{"country_code":"DO","state_code":"","province_code":"","name":"Rivera del Haina","cp":["10903"],"lat":"18.4667","lng":"-70"},{"country_code":"DO","state_code":"","province_code":"","name":"Residencial Loyola","cp":["10904"],"lat":"18.45","lng":"-69.9833"},{"country_code":"DO","state_code":"","province_code":"","name":"El Abanico de Herrera","cp":["10904"],"lat":"18.45","lng":"-69.9833"},{"country_code":"DO","state_code":"","province_code":"","name":"El Palmar","cp":["10904"],"lat":"18.45","lng":"-69.9833"},{"country_code":"DO","state_code":"","province_code":"","name":"Lotificacion Engombe","cp":["10904"],"lat":"18.45","lng":"-69.9833"},{"country_code":"DO","state_code":"","province_code":"","name":"Engome","cp":["10904"],"lat":"18.45","lng":"-69.9833"},{"country_code":"DO","state_code":"","province_code":"","name":"Ens. Ivan Guzman Klan","cp":["10904"],"lat":"18.45","lng":"-69.9833"},{"country_code":"DO","state_code":"","province_code":"","name":"Rosa Maria","cp":["10904"],"lat":"18.45","lng":"-69.9833"},{"country_code":"DO","state_code":"","province_code":"","name":"Las Caobitas","cp":["10905"],"lat":"18.45","lng":"-70.4667"},{"country_code":"DO","state_code":"","province_code":"","name":"Las Caobas","cp":["10905"],"lat":"18.45","lng":"-70.4667"},{"country_code":"DO","state_code":"","province_code":"","name":"Ciudad Agraria","cp":["10905"],"lat":"18.45","lng":"-70.4667"},{"country_code":"DO","state_code":"","province_code":"","name":"Zona Industrial de Herrera","cp":["11001"],"lat":"19.3367","lng":"-71.3267"},{"country_code":"DO","state_code":"","province_code":"","name":"Barrio Enriquillo","cp":["11002"],"lat":"19.3367","lng":"-71.3267"},{"country_code":"DO","state_code":"","province_code":"","name":"Barrio Holguin","cp":["11002"],"lat":"19.3367","lng":"-71.3267"},{"country_code":"DO","state_code":"","province_code":"","name":"Barrio Buenos Aires","cp":["11003"],"lat":"19.1","lng":"-71.6333"},{"country_code":"DO","state_code":"","province_code":"","name":"Duarte","cp":["11003"],"lat":"19.1","lng":"-71.6333"},{"country_code":"DO","state_code":"","province_code":"","name":"Juan Pablo Duarte","cp":["11003"],"lat":"19.1","lng":"-71.6333"},{"country_code":"DO","state_code":"","province_code":"","name":"Las Palmas","cp":["11003"],"lat":"19.1","lng":"-71.6333"},{"country_code":"DO","state_code":"","province_code":"","name":"San Francisco","cp":["11004"],"lat":"19.5333","lng":"-71.6167"},{"country_code":"DO","state_code":"","province_code":"","name":"La Rosa","cp":["11004"],"lat":"19.1333","lng":"-71.2833"},{"country_code":"DO","state_code":"","province_code":"","name":"Luz Divina","cp":["11004"],"lat":"19.3333","lng":"-71.45"},{"country_code":"DO","state_code":"","province_code":"","name":"Galaxia","cp":["11004"],"lat":"19.3333","lng":"-71.45"},{"country_code":"DO","state_code":"","province_code":"","name":"Urb. El Rosal","cp":["11004"],"lat":"19.3333","lng":"-71.45"},{"country_code":"DO","state_code":"","province_code":"","name":"Barrio Josue","cp":["11005"],"lat":"19.4583","lng":"-71.05"},{"country_code":"DO","state_code":"","province_code":"","name":"Herrera","cp":["11005"],"lat":"19.35","lng":"-70.3833"},{"country_code":"DO","state_code":"","province_code":"","name":"Barrio Libertador","cp":["11005"],"lat":"19.5667","lng":"-71.7167"},{"country_code":"DO","state_code":"","province_code":"","name":"Ens. Paraiso","cp":["11005"],"lat":"19.4583","lng":"-71.05"},{"country_code":"DO","state_code":"","province_code":"","name":"Aesa","cp":["11101"],"lat":"18.65","lng":"-69.75"},{"country_code":"DO","state_code":"","province_code":"","name":"Atlantida","cp":["11101"],"lat":"18.65","lng":"-69.75"},{"country_code":"DO","state_code":"","province_code":"","name":"16 de Agosto","cp":["11101"],"lat":"18.65","lng":"-69.75"},{"country_code":"DO","state_code":"","province_code":"","name":"Barrio Invi","cp":["11101"],"lat":"18.65","lng":"-69.75"},{"country_code":"DO","state_code":"","province_code":"","name":"Residencial Jose Contreras","cp":["11102"],"lat":"18.825","lng":"-69.4417"},{"country_code":"DO","state_code":"","province_code":"","name":"Mirador","cp":["11102"],"lat":"18.8333","lng":"-69.8333"},{"country_code":"DO","state_code":"","province_code":"","name":"Buenos Aires del","cp":["11102"],"lat":"18.8167","lng":"-69.05"},{"country_code":"DO","state_code":"","province_code":"","name":"Costa Caribe","cp":["11102"],"lat":"18.825","lng":"-69.4417"},{"country_code":"DO","state_code":"","province_code":"","name":"Gacela","cp":["11102"],"lat":"18.825","lng":"-69.4417"},{"country_code":"DO","state_code":"","province_code":"","name":"Km. 8","cp":["11103"],"lat":"18.65","lng":"-69.75"},{"country_code":"DO","state_code":"","province_code":"","name":"Nordesa III","cp":["11103"],"lat":"18.65","lng":"-69.75"},{"country_code":"DO","state_code":"","province_code":"","name":"Miramar","cp":["11103"],"lat":"18.65","lng":"-69.75"},{"country_code":"DO","state_code":"","province_code":"","name":"Mar Azul","cp":["11104"],"lat":"18.65","lng":"-69.75"},{"country_code":"DO","state_code":"","province_code":"","name":"Las Acacias","cp":["11104"],"lat":"18.65","lng":"-69.75"},{"country_code":"DO","state_code":"","province_code":"","name":"Tropicana","cp":["11105"],"lat":"18.5","lng":"-69.8167"},{"country_code":"DO","state_code":"","province_code":"","name":"Km. 7","cp":["11105"],"lat":"18.5","lng":"-69.8167"},{"country_code":"DO","state_code":"","province_code":"","name":"Dominicanos Ausentes","cp":["11105"],"lat":"18.5","lng":"-69.8167"},{"country_code":"DO","state_code":"","province_code":"","name":"Jardines del Sur","cp":["11105"],"lat":"18.5","lng":"-69.8167"},{"country_code":"DO","state_code":"","province_code":"","name":"San Jose","cp":["11105"],"lat":"18.5","lng":"-69.8167"},{"country_code":"DO","state_code":"","province_code":"","name":"San Miguel","cp":["11106"],"lat":"18.5","lng":"-70.0167"},{"country_code":"DO","state_code":"","province_code":"","name":"Resd. Enriquillo","cp":["11106"],"lat":"18.5","lng":"-70.0167"},{"country_code":"DO","state_code":"","province_code":"","name":"Loteria","cp":["11106"],"lat":"18.5","lng":"-70.0167"},{"country_code":"DO","state_code":"","province_code":"","name":"El Pedregal","cp":["11107"],"lat":"18.6","lng":"-70.0333"},{"country_code":"DO","state_code":"","province_code":"","name":"Luz Consuelo","cp":["11107"],"lat":"18.6","lng":"-70.0333"},{"country_code":"DO","state_code":"","province_code":"","name":"Sandra I","cp":["11107"],"lat":"18.6","lng":"-70.0333"},{"country_code":"DO","state_code":"","province_code":"","name":"Sandra","cp":["11107"],"lat":"18.6","lng":"-70.0333"},{"country_code":"DO","state_code":"","province_code":"","name":"Los Cacicazgos","cp":["11108"],"lat":"18.65","lng":"-69.75"},{"country_code":"DO","state_code":"","province_code":"","name":"Mirador Sur","cp":["11109"],"lat":"18.65","lng":"-69.75"},{"country_code":"DO","state_code":"","province_code":"","name":"Los Maestros","cp":["11110"],"lat":"18.4278","lng":"-70"},{"country_code":"DO","state_code":"","province_code":"","name":"Renacimiento","cp":["11111","11112"],"lat":"18.4278","lng":"-70"},{"country_code":"DO","state_code":"","province_code":"","name":"Urb. Real","cp":["11112"],"lat":"18.4278","lng":"-70"},{"country_code":"DO","state_code":"","province_code":"","name":"Zona Industrial de Herrera","cp":["11113"],"lat":"18.4278","lng":"-70"},{"country_code":"DO","state_code":"","province_code":"","name":"Res. Santo Domingo","cp":["11114"],"lat":"18.4278","lng":"-70"},{"country_code":"DO","state_code":"","province_code":"","name":"Ensanche Altagracia","cp":["11114"],"lat":"18.4278","lng":"-70"},{"country_code":"DO","state_code":"","province_code":"","name":"Barrio Paraiso","cp":["11115"],"lat":"18.4333","lng":"-70"},{"country_code":"DO","state_code":"","province_code":"","name":"El Caf\u00e9","cp":["11115"],"lat":"18.4333","lng":"-70"},{"country_code":"DO","state_code":"","province_code":"","name":"Colinas de Canaan","cp":["11115"],"lat":"18.4333","lng":"-70"},{"country_code":"DO","state_code":"","province_code":"","name":"Residencial Canaan","cp":["11116"],"lat":"18.4278","lng":"-70"},{"country_code":"DO","state_code":"","province_code":"","name":"12 de Haina","cp":["11116"],"lat":"18.4278","lng":"-70"},{"country_code":"DO","state_code":"","province_code":"","name":"Villas del Caf\u00e9","cp":["11116"],"lat":"18.4278","lng":"-70"},{"country_code":"DO","state_code":"","province_code":"","name":"La Placeta","cp":["11117"],"lat":"18.4333","lng":"-70"},{"country_code":"DO","state_code":"","province_code":"","name":"Puerto de Haina","cp":["11117"],"lat":"18.425","lng":"-70"},{"country_code":"DO","state_code":"","province_code":"","name":"Costa Verde","cp":["11117"],"lat":"18.4167","lng":"-70"},{"country_code":"DO","state_code":"","province_code":"","name":"Manresa","cp":["11117"],"lat":"18.425","lng":"-70"},{"country_code":"DO","state_code":"","province_code":"","name":"Costa Azul","cp":["11117"],"lat":"18.425","lng":"-70"},{"country_code":"DO","state_code":"","province_code":"","name":"Villa Satelite","cp":["11201"],"lat":"18.4917","lng":"-70.0833"},{"country_code":"DO","state_code":"","province_code":"","name":"El Mamey","cp":["11201"],"lat":"18.4333","lng":"-70.2667"},{"country_code":"DO","state_code":"","province_code":"","name":"Urb. Sarah Gabriela","cp":["11201"],"lat":"18.4917","lng":"-70.0833"},{"country_code":"DO","state_code":"","province_code":"","name":"Vista Bella","cp":["11201"],"lat":"18.4917","lng":"-70.0833"},{"country_code":"DO","state_code":"","province_code":"","name":"Mara\u00f1on","cp":["11201"],"lat":"18.4917","lng":"-70.0833"},{"country_code":"DO","state_code":"","province_code":"","name":"Haras Nacionales","cp":["11201"],"lat":"18.4917","lng":"-70.0833"},{"country_code":"DO","state_code":"","province_code":"","name":"Villa Nueva","cp":["11201"],"lat":"18.4917","lng":"-70.0833"},{"country_code":"DO","state_code":"","province_code":"","name":"Villa Mella","cp":["11201"],"lat":"18.55","lng":"-69.9"},{"country_code":"DO","state_code":"","province_code":"","name":"Valle Verde","cp":["11201"],"lat":"18.4917","lng":"-70.0833"},{"country_code":"DO","state_code":"","province_code":"","name":"Jardines de Genovena","cp":["11201"],"lat":"18.4917","lng":"-70.0833"},{"country_code":"DO","state_code":"","province_code":"","name":"Rep. Villa Maria","cp":["11201"],"lat":"18.4917","lng":"-70.0833"},{"country_code":"DO","state_code":"","province_code":"","name":"Villa Carmela","cp":["11201"],"lat":"18.4917","lng":"-70.0833"},{"country_code":"DO","state_code":"","province_code":"","name":"Urb. El Remanso","cp":["11202"],"lat":"18.5667","lng":"-69.9167"},{"country_code":"DO","state_code":"","province_code":"","name":"Mara\u00f1on II","cp":["11202"],"lat":"18.5667","lng":"-69.9167"},{"country_code":"DO","state_code":"","province_code":"","name":"Ensanche Paraiso","cp":["11202"],"lat":"18.5667","lng":"-69.9167"},{"country_code":"DO","state_code":"","province_code":"","name":"Mata Los Indios","cp":["11202"],"lat":"18.5667","lng":"-69.9167"},{"country_code":"DO","state_code":"","province_code":"","name":"Res. El Dorado","cp":["11202"],"lat":"18.5667","lng":"-69.9167"},{"country_code":"DO","state_code":"","province_code":"","name":"Carlos Alvarez","cp":["11202"],"lat":"18.5667","lng":"-69.9167"},{"country_code":"DO","state_code":"","province_code":"","name":"Urb. Primavera","cp":["11203"],"lat":"18","lng":"-71.2167"},{"country_code":"DO","state_code":"","province_code":"","name":"Colonia de Los Doctores","cp":["11203"],"lat":"18","lng":"-71.2167"},{"country_code":"DO","state_code":"","province_code":"","name":"Maria Isabela","cp":["11203"],"lat":"18","lng":"-71.2167"},{"country_code":"DO","state_code":"","province_code":"","name":"Barrio Nuevo","cp":["11203"],"lat":"18","lng":"-71.2167"},{"country_code":"DO","state_code":"","province_code":"","name":"Los Conucos","cp":["11204"],"lat":"18.6","lng":"-70.15"},{"country_code":"DO","state_code":"","province_code":"","name":"Suriel","cp":["11204"],"lat":"18.9667","lng":"-70.7"},{"country_code":"DO","state_code":"","province_code":"","name":"El Fundo","cp":["11204"],"lat":"18.5167","lng":"-70.15"},{"country_code":"DO","state_code":"","province_code":"","name":"Urb. Santa Cruz","cp":["11204"],"lat":"18.6944","lng":"-70.3333"},{"country_code":"DO","state_code":"","province_code":"","name":"Isabela","cp":["11205"],"lat":"18.5333","lng":"-69.9833"},{"country_code":"DO","state_code":"","province_code":"","name":"Santa Cruz","cp":["11205"],"lat":"18.55","lng":"-70.1167"},{"country_code":"DO","state_code":"","province_code":"","name":"El Torito","cp":["11205"],"lat":"18.7667","lng":"-70.45"},{"country_code":"DO","state_code":"","province_code":"","name":"Zona Industrial de La Isabela","cp":["11205"],"lat":"18.6167","lng":"-70.1833"},{"country_code":"DO","state_code":"","province_code":"","name":"Urb. Maximo Gomez","cp":["11205"],"lat":"18.6167","lng":"-70.1833"},{"country_code":"DO","state_code":"","province_code":"","name":"Res. Sol de Luz","cp":["11205"],"lat":"18.6167","lng":"-70.1833"},{"country_code":"DO","state_code":"","province_code":"","name":"Ceuta","cp":["11206"],"lat":"18.5833","lng":"-70.2652"},{"country_code":"DO","state_code":"","province_code":"","name":"Cerros de Buena Vista II","cp":["11206"],"lat":"18.5833","lng":"-70.2652"},{"country_code":"DO","state_code":"","province_code":"","name":"Zona Industrial de Villa Mella","cp":["11206"],"lat":"18.5833","lng":"-70.2652"},{"country_code":"DO","state_code":"","province_code":"","name":"De Villa Mella","cp":["11206"],"lat":"18.5833","lng":"-70.2652"},{"country_code":"DO","state_code":"","province_code":"","name":"Cerros de Buena Vista I","cp":["11206"],"lat":"18.5833","lng":"-70.2652"},{"country_code":"DO","state_code":"","province_code":"","name":"El Eden","cp":["11207"],"lat":"18.9333","lng":"-70.0667"},{"country_code":"DO","state_code":"","province_code":"","name":"Campechito II","cp":["11207"],"lat":"18.9333","lng":"-70.0667"},{"country_code":"DO","state_code":"","province_code":"","name":"La Antena","cp":["11207"],"lat":"18.9333","lng":"-70.0667"},{"country_code":"DO","state_code":"","province_code":"","name":"La Javilla","cp":["11207"],"lat":"18.9333","lng":"-70.0667"},{"country_code":"DO","state_code":"","province_code":"","name":"Cruz Grande (Villa Mella Y Sabana Perdida )","cp":["11207"],"lat":"18.9333","lng":"-70.0667"},{"country_code":"DO","state_code":"","province_code":"","name":"Reparto Rudima","cp":["11207"],"lat":"18.9333","lng":"-70.0667"},{"country_code":"DO","state_code":"","province_code":"","name":"Radiante","cp":["11207"],"lat":"18.9333","lng":"-70.0667"},{"country_code":"DO","state_code":"","province_code":"","name":"Proyecto Ciudad","cp":["11301"],"lat":"19.5833","lng":"-70.9833"},{"country_code":"DO","state_code":"","province_code":"","name":"Nueva Isabela","cp":["11301"],"lat":"19.5833","lng":"-70.9833"},{"country_code":"DO","state_code":"","province_code":"","name":"Guaricanos","cp":["11301"],"lat":"19.5833","lng":"-70.9833"},{"country_code":"DO","state_code":"","province_code":"","name":"Modelo","cp":["11301"],"lat":"19.5833","lng":"-70.9833"},{"country_code":"DO","state_code":"","province_code":"","name":"Barrio Norte","cp":["11301"],"lat":"19.5833","lng":"-70.9833"},{"country_code":"DO","state_code":"","province_code":"","name":"Altos del Parque","cp":["11302"],"lat":"18.3722","lng":"-70.3722"},{"country_code":"DO","state_code":"","province_code":"","name":"Los Casabes","cp":["11302"],"lat":"18.5667","lng":"-69.95"},{"country_code":"DO","state_code":"","province_code":"","name":"Jacagua","cp":["11302"],"lat":"18.55","lng":"-69.95"},{"country_code":"DO","state_code":"","province_code":"","name":"Las Palmeras","cp":["11302"],"lat":"18.3722","lng":"-70.3722"},{"country_code":"DO","state_code":"","province_code":"","name":"Proyecto Bnv","cp":["11302"],"lat":"18.3722","lng":"-70.3722"},{"country_code":"DO","state_code":"","province_code":"","name":"Barrio Hnas. Mirabal","cp":["11302"],"lat":"18.3722","lng":"-70.3722"},{"country_code":"DO","state_code":"","province_code":"","name":"Ponce","cp":["11302"],"lat":"18.3722","lng":"-70.3722"},{"country_code":"DO","state_code":"","province_code":"","name":"Barrio Nuevo","cp":["11302"],"lat":"18","lng":"-71.2167"},{"country_code":"DO","state_code":"","province_code":"","name":"El Majagual","cp":["11401"],"lat":"19.0333","lng":"-70.3"},{"country_code":"DO","state_code":"","province_code":"","name":"Lotes Y Servicios","cp":["11401"],"lat":"19.0333","lng":"-70.3"},{"country_code":"DO","state_code":"","province_code":"","name":"Barrio Nuevo","cp":["11402"],"lat":"18","lng":"-71.2167"},{"country_code":"DO","state_code":"","province_code":"","name":"La Mina","cp":["11402"],"lat":"18.4833","lng":"-70.7667"},{"country_code":"DO","state_code":"","province_code":"","name":"Cerros de La Yuca","cp":["11402"],"lat":"18.6222","lng":"-71.2111"},{"country_code":"DO","state_code":"","province_code":"","name":"Res. Noelia","cp":["11402"],"lat":"18.6222","lng":"-71.2111"},{"country_code":"DO","state_code":"","province_code":"","name":"El Milloncito","cp":["11402"],"lat":"18.6222","lng":"-71.2111"},{"country_code":"DO","state_code":"","province_code":"","name":"Altos de Chavon","cp":["11402"],"lat":"18.6222","lng":"-71.2111"},{"country_code":"DO","state_code":"","province_code":"","name":"Villa Esperanza","cp":["11402"],"lat":"19.3833","lng":"-71.65"},{"country_code":"DO","state_code":"","province_code":"","name":"Libertad","cp":["11403"],"lat":"19.4833","lng":"-70.7333"},{"country_code":"DO","state_code":"","province_code":"","name":"Los Palmares","cp":["11403"],"lat":"19.4833","lng":"-70.7333"},{"country_code":"DO","state_code":"","province_code":"","name":"Progreso","cp":["11403"],"lat":"19.4833","lng":"-70.7333"},{"country_code":"DO","state_code":"","province_code":"","name":"Urb. Charles de Gaulle","cp":["11403"],"lat":"19.4833","lng":"-70.7333"},{"country_code":"DO","state_code":"","province_code":"","name":"Altos de Sabana Perdida","cp":["11404"],"lat":"18.525","lng":"-69.8917"},{"country_code":"DO","state_code":"","province_code":"","name":"2 de Enero","cp":["11404"],"lat":"18.525","lng":"-69.8917"},{"country_code":"DO","state_code":"","province_code":"","name":"Sabana Centro","cp":["11404"],"lat":"18.525","lng":"-69.8917"},{"country_code":"DO","state_code":"","province_code":"","name":"Sabana Perdida","cp":["11404"],"lat":"18.55","lng":"-69.8667"},{"country_code":"DO","state_code":"","province_code":"","name":"La Barquita","cp":["11404"],"lat":"18.5","lng":"-69.9167"},{"country_code":"DO","state_code":"","province_code":"","name":"Ensanche Cristal","cp":["11404"],"lat":"18.525","lng":"-69.8917"},{"country_code":"DO","state_code":"","province_code":"","name":"Cerros de Sabana Perdida","cp":["11404"],"lat":"18.525","lng":"-69.8917"},{"country_code":"DO","state_code":"","province_code":"","name":"Colinas del Ozama","cp":["11404"],"lat":"18.525","lng":"-69.8917"},{"country_code":"DO","state_code":"","province_code":"","name":"Los Coordinadores","cp":["11405"],"lat":"18.7762","lng":"-70.6357"},{"country_code":"DO","state_code":"","province_code":"","name":"Loteria","cp":["11405"],"lat":"18.7762","lng":"-70.6357"},{"country_code":"DO","state_code":"","province_code":"","name":"Salome Ure\u00f1a","cp":["11405"],"lat":"18.7762","lng":"-70.6357"},{"country_code":"DO","state_code":"","province_code":"","name":"Villa Blanca","cp":["11405"],"lat":"18.7762","lng":"-70.6357"},{"country_code":"DO","state_code":"","province_code":"","name":"Enrriquillo","cp":["11405"],"lat":"18.7762","lng":"-70.6357"},{"country_code":"DO","state_code":"","province_code":"","name":"Ensanche Ozama","cp":["11501"],"lat":"18.4833","lng":"-69.8667"},{"country_code":"DO","state_code":"","province_code":"","name":"Molinuevo","cp":["11502"],"lat":"18.7667","lng":"-70.3267"},{"country_code":"DO","state_code":"","province_code":"","name":"Jardines de Alma Rosa","cp":["11503"],"lat":"18.7667","lng":"-70.3267"},{"country_code":"DO","state_code":"","province_code":"","name":"Ens. Alma Rosa (Lado Oeste)","cp":["11503"],"lat":"18.7667","lng":"-70.3267"},{"country_code":"DO","state_code":"","province_code":"","name":"Ens. Alma Rosa (Lado Este)","cp":["11504"],"lat":"18.7667","lng":"-70.3267"},{"country_code":"DO","state_code":"","province_code":"","name":"Villa Faro","cp":["11505"],"lat":"18.5","lng":"-69.85"},{"country_code":"DO","state_code":"","province_code":"","name":"Ivette","cp":["11506"],"lat":"18.7667","lng":"-70.3267"},{"country_code":"DO","state_code":"","province_code":"","name":"Urb. Italia","cp":["11506"],"lat":"18.7667","lng":"-70.3267"},{"country_code":"DO","state_code":"","province_code":"","name":"Alma Rosa II","cp":["11506"],"lat":"18.7667","lng":"-70.3267"},{"country_code":"DO","state_code":"","province_code":"","name":"El Rosal","cp":["11506"],"lat":"18.7667","lng":"-70.3267"},{"country_code":"DO","state_code":"","province_code":"","name":"Savica","cp":["11507"],"lat":"18.4833","lng":"-69.8333"},{"country_code":"DO","state_code":"","province_code":"","name":"Ralma","cp":["11507"],"lat":"18.4833","lng":"-69.8333"},{"country_code":"DO","state_code":"","province_code":"","name":"Franconia","cp":["11508"],"lat":"18.6","lng":"-70.5"},{"country_code":"DO","state_code":"","province_code":"","name":"La Esperanza","cp":["11508"],"lat":"18.6","lng":"-70.5"},{"country_code":"DO","state_code":"","province_code":"","name":"Vecinos Unidos","cp":["11508"],"lat":"18.6","lng":"-70.5"},{"country_code":"DO","state_code":"","province_code":"","name":"Loteria","cp":["11508"],"lat":"18.6","lng":"-70.5"},{"country_code":"DO","state_code":"","province_code":"","name":"Paraiso Oriental","cp":["11508"],"lat":"18.6","lng":"-70.5"},{"country_code":"DO","state_code":"","province_code":"","name":"Urb. Amanda","cp":["11508"],"lat":"18.6","lng":"-70.5"},{"country_code":"DO","state_code":"","province_code":"","name":"Alpes I","cp":["11509"],"lat":"19.7667","lng":"-71.5833"},{"country_code":"DO","state_code":"","province_code":"","name":"Sol Naciente","cp":["11509"],"lat":"19.7667","lng":"-71.5833"},{"country_code":"DO","state_code":"","province_code":"","name":"Res. Oriente","cp":["11509"],"lat":"19.7667","lng":"-71.5833"},{"country_code":"DO","state_code":"","province_code":"","name":"Isabel","cp":["11509"],"lat":"19.7667","lng":"-71.5833"},{"country_code":"DO","state_code":"","province_code":"","name":"Mi Sue\u00f1o","cp":["11509"],"lat":"19.7667","lng":"-71.5833"},{"country_code":"DO","state_code":"","province_code":"","name":"Bello Campo","cp":["11509"],"lat":"19.7667","lng":"-71.5833"},{"country_code":"DO","state_code":"","province_code":"","name":"Hamarap","cp":["11509"],"lat":"19.7667","lng":"-71.5833"},{"country_code":"DO","state_code":"","province_code":"","name":"Res. del Este","cp":["11510"],"lat":"18.5","lng":"-69.8167"},{"country_code":"DO","state_code":"","province_code":"","name":"El Brisal","cp":["11510"],"lat":"18.5","lng":"-69.8167"},{"country_code":"DO","state_code":"","province_code":"","name":"Carolina","cp":["11510"],"lat":"18.5","lng":"-69.8167"},{"country_code":"DO","state_code":"","province_code":"","name":"Mi Hogar","cp":["11510"],"lat":"18.5","lng":"-69.8167"},{"country_code":"DO","state_code":"","province_code":"","name":"Mendoza","cp":["11510"],"lat":"18.5","lng":"-69.8167"},{"country_code":"DO","state_code":"","province_code":"","name":"Rep. Alma Rosa","cp":["11511"],"lat":"18.5","lng":"-70.3333"},{"country_code":"DO","state_code":"","province_code":"","name":"Las Palmas","cp":["11511"],"lat":"18.5","lng":"-70.3333"},{"country_code":"DO","state_code":"","province_code":"","name":"Cancino I","cp":["11512"],"lat":"18.5","lng":"-69.8333"},{"country_code":"DO","state_code":"","province_code":"","name":"Los Trinitarios","cp":["11512"],"lat":"18.5","lng":"-69.8333"},{"country_code":"DO","state_code":"","province_code":"","name":"Duarte","cp":["11512"],"lat":"18.5","lng":"-69.8333"},{"country_code":"DO","state_code":"","province_code":"","name":"Narcisa","cp":["11512"],"lat":"18.5","lng":"-69.8333"},{"country_code":"DO","state_code":"","province_code":"","name":"Mandinga","cp":["11512"],"lat":"18.5","lng":"-69.8333"},{"country_code":"DO","state_code":"","province_code":"","name":"Cancino II","cp":["11512"],"lat":"18.5","lng":"-69.8333"},{"country_code":"DO","state_code":"","province_code":"","name":"Cabirma del Este I","cp":["11513"],"lat":"18.5083","lng":"-69.9361"},{"country_code":"DO","state_code":"","province_code":"","name":"Res. Lomisa","cp":["11513"],"lat":"18.5083","lng":"-69.9361"},{"country_code":"DO","state_code":"","province_code":"","name":"Res. Idalia A I","cp":["11514"],"lat":"18.5083","lng":"-69.9361"},{"country_code":"DO","state_code":"","province_code":"","name":"El Cachon","cp":["11515"],"lat":"18.5","lng":"-69.9333"},{"country_code":"DO","state_code":"","province_code":"","name":"Prados del Cachon","cp":["11515"],"lat":"18.5","lng":"-69.9333"},{"country_code":"DO","state_code":"","province_code":"","name":"Lucerna","cp":["11516"],"lat":"18.5167","lng":"-69.85"},{"country_code":"DO","state_code":"","province_code":"","name":"Cancino","cp":["11516"],"lat":"18.5167","lng":"-69.85"},{"country_code":"DO","state_code":"","province_code":"","name":"Colinas del Este","cp":["11517"],"lat":"18.5333","lng":"-69.85"},{"country_code":"DO","state_code":"","province_code":"","name":"Cancino Adentro","cp":["11517"],"lat":"18.5333","lng":"-69.85"},{"country_code":"DO","state_code":"","province_code":"","name":"Vista Hermosa","cp":["11517"],"lat":"18.5333","lng":"-69.85"},{"country_code":"DO","state_code":"","province_code":"","name":"Res. Don Oscar","cp":["11517"],"lat":"18.5333","lng":"-69.85"},{"country_code":"DO","state_code":"","province_code":"","name":"El Cachon de La Rubia","cp":["11517"],"lat":"18.5333","lng":"-69.85"},{"country_code":"DO","state_code":"","province_code":"","name":"Res. Amapola","cp":["11518"],"lat":"18.5083","lng":"-69.9361"},{"country_code":"DO","state_code":"","province_code":"","name":"San Pablo II","cp":["11518"],"lat":"18.5083","lng":"-69.9361"},{"country_code":"DO","state_code":"","province_code":"","name":"Altos de Cancino","cp":["11519"],"lat":"18.5083","lng":"-69.9361"},{"country_code":"DO","state_code":"","province_code":"","name":"Pueblo Nuevo","cp":["11601"],"lat":"18.4333","lng":"-70.1667"},{"country_code":"DO","state_code":"","province_code":"","name":"Calero","cp":["11601"],"lat":"18.4833","lng":"-69.8833"},{"country_code":"DO","state_code":"","province_code":"","name":"La Francia","cp":["11602"],"lat":"18.4667","lng":"-69.8667"},{"country_code":"DO","state_code":"","province_code":"","name":"Villa Duarte","cp":["11602"],"lat":"18.4833","lng":"-69.8667"},{"country_code":"DO","state_code":"","province_code":"","name":"Simonico","cp":["11602"],"lat":"18.4833","lng":"-69.8667"},{"country_code":"DO","state_code":"","province_code":"","name":"Los Molinos","cp":["11603"],"lat":"18.4722","lng":"-69.9167"},{"country_code":"DO","state_code":"","province_code":"","name":"Parque del Este I","cp":["11603"],"lat":"18.4722","lng":"-69.9167"},{"country_code":"DO","state_code":"","province_code":"","name":"San Souci","cp":["11603"],"lat":"18.4722","lng":"-69.9167"},{"country_code":"DO","state_code":"","province_code":"","name":"Maquiteria","cp":["11604"],"lat":"18.4722","lng":"-69.9167"},{"country_code":"DO","state_code":"","province_code":"","name":"Faro A Colon","cp":["11604"],"lat":"18.4722","lng":"-69.9167"},{"country_code":"DO","state_code":"","province_code":"","name":"Res. Parque del Este","cp":["11604"],"lat":"18.4722","lng":"-69.9167"},{"country_code":"DO","state_code":"","province_code":"","name":"Parque Mirador Este","cp":["11604"],"lat":"18.4722","lng":"-69.9167"},{"country_code":"DO","state_code":"","province_code":"","name":"Los Tres Ojos","cp":["11605"],"lat":"18.4833","lng":"-69.85"},{"country_code":"DO","state_code":"","province_code":"","name":"Villa Olimpica","cp":["11606"],"lat":"18.4722","lng":"-69.9167"},{"country_code":"DO","state_code":"","province_code":"","name":"Las Americas","cp":["11606"],"lat":"18.4722","lng":"-69.9167"},{"country_code":"DO","state_code":"","province_code":"","name":"Corales del Sur","cp":["11704"],"lat":"18.4667","lng":"-69.825"},{"country_code":"DO","state_code":"","province_code":"","name":"Tropical del Este","cp":["11704"],"lat":"18.4667","lng":"-69.825"},{"country_code":"DO","state_code":"","province_code":"","name":"Res. Teresa","cp":["11704"],"lat":"18.4667","lng":"-69.825"},{"country_code":"DO","state_code":"","province_code":"","name":"Marbella III","cp":["11705"],"lat":"18.4667","lng":"-69.8167"},{"country_code":"DO","state_code":"","province_code":"","name":"Arismar","cp":["11705"],"lat":"18.4667","lng":"-69.8167"},{"country_code":"DO","state_code":"","province_code":"","name":"Los Frailes","cp":["11705"],"lat":"18.4667","lng":"-69.8167"},{"country_code":"DO","state_code":"","province_code":"","name":"Los Frailes II","cp":["11706"],"lat":"18.4667","lng":"-69.8333"},{"country_code":"DO","state_code":"","province_code":"","name":"Reparto Caribe","cp":["11706"],"lat":"18.4667","lng":"-69.8333"},{"country_code":"DO","state_code":"","province_code":"","name":"San Bartolo","cp":["11706"],"lat":"18.4667","lng":"-69.8333"},{"country_code":"DO","state_code":"","province_code":"","name":"Villa Adela","cp":["11707"],"lat":"18.4667","lng":"-69.825"},{"country_code":"DO","state_code":"","province_code":"","name":"Lotificacion del Este","cp":["11707"],"lat":"18.4667","lng":"-69.825"},{"country_code":"DO","state_code":"","province_code":"","name":"Villa Eloisa","cp":["11707"],"lat":"18.4667","lng":"-69.825"},{"country_code":"DO","state_code":"","province_code":"","name":"Mirador Este","cp":["11708"],"lat":"18.4667","lng":"-69.825"},{"country_code":"DO","state_code":"","province_code":"","name":"Ana Virginia","cp":["11801"],"lat":"18.5028","lng":"-69.9139"},{"country_code":"DO","state_code":"","province_code":"","name":"Issfapol","cp":["11801"],"lat":"18.5028","lng":"-69.9139"},{"country_code":"DO","state_code":"","province_code":"","name":"Los Molinos","cp":["11801"],"lat":"18.5028","lng":"-69.9139"},{"country_code":"DO","state_code":"","province_code":"","name":"Los Trinitarios II","cp":["11801"],"lat":"18.5028","lng":"-69.9139"},{"country_code":"DO","state_code":"","province_code":"","name":"Ciudad de Los Trabajadores","cp":["11802"],"lat":"18.5028","lng":"-69.9139"},{"country_code":"DO","state_code":"","province_code":"","name":"Eugenio M. de Hostos","cp":["11802"],"lat":"18.5028","lng":"-69.9139"},{"country_code":"DO","state_code":"","province_code":"","name":"Trabajadores","cp":["11802"],"lat":"18.5028","lng":"-69.9139"},{"country_code":"DO","state_code":"","province_code":"","name":"Invivienda","cp":["11802"],"lat":"18.5028","lng":"-69.9139"},{"country_code":"DO","state_code":"","province_code":"","name":"Rep. Villa Carmen","cp":["11802"],"lat":"18.5028","lng":"-69.9139"},{"country_code":"DO","state_code":"","province_code":"","name":"Villa Carmen","cp":["11802"],"lat":"18.5028","lng":"-69.9139"},{"country_code":"DO","state_code":"","province_code":"","name":"Brisa del Eden","cp":["11803"],"lat":"18.5","lng":"-69.8167"},{"country_code":"DO","state_code":"","province_code":"","name":"Barrio Brisa de Charles","cp":["11803"],"lat":"18.5","lng":"-69.8167"},{"country_code":"DO","state_code":"","province_code":"","name":"San Jose de Mendoza","cp":["11803"],"lat":"18.5","lng":"-69.8167"},{"country_code":"DO","state_code":"","province_code":"","name":"Res. Clarimar","cp":["11803"],"lat":"18.5","lng":"-69.8167"},{"country_code":"DO","state_code":"","province_code":"","name":"Res. Mirador del Este","cp":["11804"],"lat":"18.5028","lng":"-69.9139"},{"country_code":"DO","state_code":"","province_code":"","name":"Res. Fernandez Oriental","cp":["11804"],"lat":"18.5028","lng":"-69.9139"},{"country_code":"DO","state_code":"","province_code":"","name":"Amarilis III","cp":["11804"],"lat":"18.5028","lng":"-69.9139"},{"country_code":"DO","state_code":"","province_code":"","name":"Nuevo Amanecer","cp":["11804"],"lat":"18.5028","lng":"-69.9139"},{"country_code":"DO","state_code":"","province_code":"","name":"Los Restauradores","cp":["11805"],"lat":"18.5028","lng":"-69.9139"},{"country_code":"DO","state_code":"","province_code":"","name":"Buena Ventura II","cp":["11805"],"lat":"18.5028","lng":"-69.9139"},{"country_code":"DO","state_code":"","province_code":"","name":"Barrio John F. Kennedy","cp":["11805"],"lat":"18.5028","lng":"-69.9139"},{"country_code":"DO","state_code":"","province_code":"","name":"Villa Esfuerzo","cp":["11805"],"lat":"18.5028","lng":"-69.9139"},{"country_code":"DO","state_code":"","province_code":"","name":"Ciudad del Almirante II","cp":["11806"],"lat":"18.5028","lng":"-69.9139"},{"country_code":"DO","state_code":"","province_code":"","name":"Ciudad del Almirante I","cp":["11806"],"lat":"18.5028","lng":"-69.9139"},{"country_code":"DO","state_code":"","province_code":"","name":"Zona Franca Industrial de Herrera","cp":["11806"],"lat":"18.5028","lng":"-69.9139"},{"country_code":"DO","state_code":"","province_code":"","name":"Hainamosa","cp":["11807"],"lat":"18.5167","lng":"-69.8333"},{"country_code":"DO","state_code":"","province_code":"","name":"Los Pinos","cp":["11807"],"lat":"18.4","lng":"-70.3333"},{"country_code":"DO","state_code":"","province_code":"","name":"Invi Cea","cp":["11807"],"lat":"18.4583","lng":"-70.0833"},{"country_code":"DO","state_code":"","province_code":"","name":"Urb. Ana T. Balaguer","cp":["11807"],"lat":"18.4583","lng":"-70.0833"},{"country_code":"DO","state_code":"","province_code":"","name":"Parque Ind. Nueva Isabela","cp":["11807"],"lat":"18.4583","lng":"-70.0833"},{"country_code":"DO","state_code":"","province_code":"","name":"Nuevo Renacer","cp":["11807"],"lat":"18.4583","lng":"-70.0833"},{"country_code":"DO","state_code":"","province_code":"","name":"Invimosa","cp":["11807"],"lat":"18.4583","lng":"-70.0833"},{"country_code":"DO","state_code":"","province_code":"","name":"Batey Piragua","cp":["11808"],"lat":"18.5333","lng":"-69.5083"},{"country_code":"DO","state_code":"","province_code":"","name":"Batey La Balsa","cp":["11808"],"lat":"18.5167","lng":"-69.2167"},{"country_code":"DO","state_code":"","province_code":"","name":"Sabaneta","cp":["11808"],"lat":"18.55","lng":"-69.8"},{"country_code":"DO","state_code":"","province_code":"","name":"Residencial Don Oscar","cp":["11809"],"lat":"18.5333","lng":"-70.4833"},{"country_code":"DO","state_code":"","province_code":"","name":"Cabirma del Este II","cp":["11809"],"lat":"18.5333","lng":"-70.4833"},{"country_code":"DO","state_code":"","province_code":"","name":"Barrio Paraiso","cp":["11809"],"lat":"18.5333","lng":"-70.4833"},{"country_code":"DO","state_code":"","province_code":"","name":"El Tamarindo","cp":["11809"],"lat":"18.5333","lng":"-70.4833"},{"country_code":"DO","state_code":"","province_code":"","name":"Los Rosales","cp":["11809"],"lat":"18.5333","lng":"-70.4833"},{"country_code":"DO","state_code":"","province_code":"","name":"Pidoca","cp":["11901"],"lat":"18.5667","lng":"-68.9167"},{"country_code":"DO","state_code":"","province_code":"","name":"La Milagrosa","cp":["11901"],"lat":"18.5667","lng":"-68.9167"},{"country_code":"DO","state_code":"","province_code":"","name":"Los Mina Sur","cp":["11901"],"lat":"18.5667","lng":"-68.9167"},{"country_code":"DO","state_code":"","province_code":"","name":"San Antonio","cp":["11902"],"lat":"18.7667","lng":"-70.0333"},{"country_code":"DO","state_code":"","province_code":"","name":"Felicidad","cp":["11902"],"lat":"18.7667","lng":"-70.0333"},{"country_code":"DO","state_code":"","province_code":"","name":"Vietnan","cp":["11902"],"lat":"18.7667","lng":"-70.0333"},{"country_code":"DO","state_code":"","province_code":"","name":"Los Mina Norte","cp":["11903"],"lat":"18.7278","lng":"-69.3944"},{"country_code":"DO","state_code":"","province_code":"","name":"Katanga","cp":["11903"],"lat":"18.7278","lng":"-69.3944"},{"country_code":"DO","state_code":"","province_code":"","name":"Rosario Sanchez","cp":["11904"],"lat":"18.85","lng":"-69.2333"},{"country_code":"DO","state_code":"","province_code":"","name":"Francisco del","cp":["11904"],"lat":"18.85","lng":"-69.2333"},{"country_code":"DO","state_code":"","province_code":"","name":"Las Frutas","cp":["11904"],"lat":"18.85","lng":"-69.2333"},{"country_code":"DO","state_code":"","province_code":"","name":"Cerros del Ozama","cp":["11904"],"lat":"18.85","lng":"-69.2333"},{"country_code":"DO","state_code":"","province_code":"","name":"Puerto Rico","cp":["11904"],"lat":"18.85","lng":"-69.2333"},{"country_code":"DO","state_code":"","province_code":"","name":"Los 3 Brazos","cp":["11905"],"lat":"18.7278","lng":"-69.3944"},{"country_code":"DO","state_code":"","province_code":"","name":"Mil Flores","cp":["11905"],"lat":"18.7278","lng":"-69.3944"},{"country_code":"DO","state_code":"","province_code":"","name":"Los Mina Viejo","cp":["11906"],"lat":"18.7278","lng":"-69.3944"},{"country_code":"DO","state_code":"","province_code":"","name":"Las Enfermeras","cp":["11906"],"lat":"18.7278","lng":"-69.3944"}]