[{"country_code":"GT","state_code":"01","province_code":"","name":"DEPTO DE ALTA VERAPAZ","cp":["16000"],"lat":"15.387","lng":"-90.1667"},{"country_code":"GT","state_code":"01","province_code":"","name":"COBAN","cp":["16001"],"lat":"15.4833","lng":"-90.3667"},{"country_code":"GT","state_code":"01","province_code":"","name":"SANTA CRUZ VERAPAZ","cp":["16002"],"lat":"15.3667","lng":"-90.4333"},{"country_code":"GT","state_code":"01","province_code":"","name":"SAN CRISTOBAL VERAPAZ","cp":["16003"],"lat":"15.3833","lng":"-90.4"},{"country_code":"GT","state_code":"01","province_code":"","name":"TACTIC","cp":["16004"],"lat":"15.3333","lng":"-90.3"},{"country_code":"GT","state_code":"01","province_code":"","name":"TAMAHU","cp":["16005"],"lat":"15.3333","lng":"-90.1667"},{"country_code":"GT","state_code":"01","province_code":"","name":"TUCURU","cp":["16006"],"lat":"15.3","lng":"-90.0667"},{"country_code":"GT","state_code":"01","province_code":"","name":"PANZOS","cp":["16007"],"lat":"15.4","lng":"-89.6667"},{"country_code":"GT","state_code":"01","province_code":"","name":"SENAHU","cp":["16008"],"lat":"15.4","lng":"-89.8333"},{"country_code":"GT","state_code":"01","province_code":"","name":"SAN PEDRO CARCHA","cp":["16009"],"lat":"15.4833","lng":"-90.2667"},{"country_code":"GT","state_code":"01","province_code":"","name":"SAN JUAN CHAMELCO","cp":["16010"],"lat":"15.4333","lng":"-90.3333"},{"country_code":"GT","state_code":"01","province_code":"","name":"LANQUIN","cp":["16011"],"lat":"15.5667","lng":"-89.9667"},{"country_code":"GT","state_code":"01","province_code":"","name":"CAHABON","cp":["16012"],"lat":"15.5667","lng":"-89.8167"},{"country_code":"GT","state_code":"01","province_code":"","name":"CHISET","cp":["16013"],"lat":"15.5792","lng":"-89.9208"},{"country_code":"GT","state_code":"01","province_code":"","name":"CHAHAL","cp":["16014"],"lat":"15.75","lng":"-89.5667"},{"country_code":"GT","state_code":"01","province_code":"","name":"FRAY BARTOLOME DE LAS CASAS","cp":["16015"],"lat":"15.5792","lng":"-89.9208"},{"country_code":"GT","state_code":"01","province_code":"","name":"LA TINTA (PANZOS)","cp":["16016"],"lat":"15.5792","lng":"-89.9208"},{"country_code":"GT","state_code":"01","province_code":"","name":"TELEMAN (PANZOS)","cp":["16017"],"lat":"15.5792","lng":"-89.9208"},{"country_code":"GT","state_code":"01","province_code":"","name":"PANCAJCHE (TUCURU)","cp":["16018"],"lat":"15.5792","lng":"-89.9208"},{"country_code":"GT","state_code":"01","province_code":"","name":"SEBOL (FRAY BARTOLOME)","cp":["16019"],"lat":"15.5792","lng":"-89.9208"},{"country_code":"GT","state_code":"01","province_code":"","name":"BOLONCO (FRAY BARTOLOME)","cp":["16020"],"lat":"15.4462","lng":"-90.091"},{"country_code":"GT","state_code":"01","province_code":"","name":"CAMPUR (SAN PEDRO CARCHA)","cp":["16021"],"lat":"15.4462","lng":"-90.091"},{"country_code":"GT","state_code":"01","province_code":"","name":"LAS CASAS","cp":["16022"],"lat":"15.4462","lng":"-90.091"},{"country_code":"GT","state_code":"01","province_code":"","name":"SALACUIN","cp":["16023"],"lat":"15.4462","lng":"-90.091"},{"country_code":"GT","state_code":"01","province_code":"","name":"EL ROSARIO","cp":["16024"],"lat":"15.4462","lng":"-90.091"},{"country_code":"GT","state_code":"01","province_code":"","name":"LAS CONCHAS","cp":["16025"],"lat":"15.4462","lng":"-90.091"},{"country_code":"GT","state_code":"01","province_code":"","name":"RAXRUHA (CHISEC)","cp":["16026"],"lat":"15.4462","lng":"-90.091"},{"country_code":"GT","state_code":"02","province_code":"","name":"DEPTO DE BAJA VERAPAZ","cp":["15000"],"lat":"15.0516","lng":"-90.4148"},{"country_code":"GT","state_code":"02","province_code":"","name":"SALAMA","cp":["15001"],"lat":"15.1","lng":"-90.2667"},{"country_code":"GT","state_code":"02","province_code":"","name":"SAN MIGUEL CHICAJ","cp":["15002"],"lat":"15.1","lng":"-90.4"},{"country_code":"GT","state_code":"02","province_code":"","name":"RABINAL","cp":["15003"],"lat":"15.1","lng":"-90.45"},{"country_code":"GT","state_code":"02","province_code":"","name":"CUBULCO","cp":["15004"],"lat":"15.1333","lng":"-90.5833"},{"country_code":"GT","state_code":"02","province_code":"","name":"GRANADOS","cp":["15005"],"lat":"14.9136","lng":"-90.5228"},{"country_code":"GT","state_code":"02","province_code":"","name":"EL CHOL","cp":["15006"],"lat":"14.9642","lng":"-90.4806"},{"country_code":"GT","state_code":"02","province_code":"","name":"SAN JERONIMO","cp":["15007"],"lat":"15.05","lng":"-90.2"},{"country_code":"GT","state_code":"02","province_code":"","name":"PERULHA","cp":["15008"],"lat":"15.0516","lng":"-90.4148"},{"country_code":"GT","state_code":"02","province_code":"","name":"LOS AMATES (EL CHOL)","cp":["15009"],"lat":"15.0516","lng":"-90.4148"},{"country_code":"GT","state_code":"02","province_code":"","name":"LA CANOA (SALAMA)","cp":["15010"],"lat":"15.0516","lng":"-90.4148"},{"country_code":"GT","state_code":"02","province_code":"","name":"SALTAN (GRANADOS)","cp":["15011"],"lat":"15.0516","lng":"-90.4148"},{"country_code":"GT","state_code":"02","province_code":"","name":"SAN GABRIEL PANTZUY (SAN MIGUEL CHICAJ)","cp":["15012"],"lat":"15.0516","lng":"-90.4148"},{"country_code":"GT","state_code":"03","province_code":"","name":"DEPTO DE CHIMALTENANGO","cp":["04000"],"lat":"14.7156","lng":"-90.9328"},{"country_code":"GT","state_code":"03","province_code":"","name":"CHIMALTENANGO","cp":["04001"],"lat":"14.6686","lng":"-90.8167"},{"country_code":"GT","state_code":"03","province_code":"","name":"SAN JOSE POAQUIL","cp":["04002"],"lat":"14.8197","lng":"-90.9064"},{"country_code":"GT","state_code":"03","province_code":"","name":"SAN MARTIN JILOTEPEQUE","cp":["04003"],"lat":"14.7878","lng":"-90.7925"},{"country_code":"GT","state_code":"03","province_code":"","name":"COMALAPA","cp":["04004"],"lat":"14.7411","lng":"-90.8875"},{"country_code":"GT","state_code":"03","province_code":"","name":"SANTA APOLONIA","cp":["04005"],"lat":"14.7914","lng":"-90.9708"},{"country_code":"GT","state_code":"03","province_code":"","name":"TECPAN GUATEMALA","cp":["04006"],"lat":"14.7669","lng":"-90.9942"},{"country_code":"GT","state_code":"03","province_code":"","name":"PATZUN","cp":["04007"],"lat":"14.6833","lng":"-91.0167"},{"country_code":"GT","state_code":"03","province_code":"","name":"POCHUTA","cp":["04008"],"lat":"14.55","lng":"-91.0833"},{"country_code":"GT","state_code":"03","province_code":"","name":"PATZICIA","cp":["04009"],"lat":"14.6317","lng":"-90.9269"},{"country_code":"GT","state_code":"03","province_code":"","name":"SANTA CRUZ BALANYA","cp":["04010"],"lat":"14.6872","lng":"-90.915"},{"country_code":"GT","state_code":"03","province_code":"","name":"ACATENANGO","cp":["04011"],"lat":"14.5519","lng":"-90.9422"},{"country_code":"GT","state_code":"03","province_code":"","name":"YEPOCAPA","cp":["04012"],"lat":"14.5042","lng":"-90.9569"},{"country_code":"GT","state_code":"03","province_code":"","name":"SAN ANDRES ITZAPA","cp":["04013"],"lat":"14.62","lng":"-90.8442"},{"country_code":"GT","state_code":"03","province_code":"","name":"PARRAMOS","cp":["04014"],"lat":"14.6078","lng":"-90.8031"},{"country_code":"GT","state_code":"03","province_code":"","name":"ZARAGOZA","cp":["04015"],"lat":"14.6544","lng":"-90.8894"},{"country_code":"GT","state_code":"03","province_code":"","name":"EL TEJAR","cp":["04016"],"lat":"14.6478","lng":"-90.7928"},{"country_code":"GT","state_code":"04","province_code":"","name":"DEPTO DE CHIQUIMULA","cp":["20000"],"lat":"14.7019","lng":"-89.4352"},{"country_code":"GT","state_code":"04","province_code":"","name":"CHIQUIMULA","cp":["20001"],"lat":"14.8","lng":"-89.55"},{"country_code":"GT","state_code":"04","province_code":"","name":"SAN JOSE LA ARADA","cp":["20002"],"lat":"14.7167","lng":"-89.5833"},{"country_code":"GT","state_code":"04","province_code":"","name":"SAN JUAN ERMITA","cp":["20003"],"lat":"14.7667","lng":"-89.4333"},{"country_code":"GT","state_code":"04","province_code":"","name":"JOCOTAN","cp":["20004"],"lat":"14.8167","lng":"-89.3833"},{"country_code":"GT","state_code":"04","province_code":"","name":"CAMOTAN","cp":["20005"],"lat":"14.8167","lng":"-89.3667"},{"country_code":"GT","state_code":"04","province_code":"","name":"OLOPA","cp":["20006"],"lat":"14.6833","lng":"-89.35"},{"country_code":"GT","state_code":"04","province_code":"","name":"ESQUIPULAS","cp":["20007"],"lat":"14.5667","lng":"-89.35"},{"country_code":"GT","state_code":"04","province_code":"","name":"CONCEPCION LAS MINAS","cp":["20008"],"lat":"14.5167","lng":"-89.45"},{"country_code":"GT","state_code":"04","province_code":"","name":"QUETZALTEPEQUE","cp":["20009"],"lat":"14.6333","lng":"-89.45"},{"country_code":"GT","state_code":"04","province_code":"","name":"SAN JACINTO","cp":["20010"],"lat":"14.6667","lng":"-89.5"},{"country_code":"GT","state_code":"04","province_code":"","name":"IPALA","cp":["20011"],"lat":"14.6167","lng":"-89.6167"},{"country_code":"GT","state_code":"04","province_code":"","name":"ANGUIATU (CONCEP. LAS MINAS )","cp":["20012"],"lat":"14.6875","lng":"-89.5333"},{"country_code":"GT","state_code":"04","province_code":"","name":"EL AMATILLO (JOCOTAN)","cp":["20013"],"lat":"14.6875","lng":"-89.5333"},{"country_code":"GT","state_code":"04","province_code":"","name":"EL FLORIDO (CAMOTAN)","cp":["20014"],"lat":"14.6875","lng":"-89.5333"},{"country_code":"GT","state_code":"04","province_code":"","name":"SANTA ELENA (CHIQUIMULA)","cp":["20015"],"lat":"14.7167","lng":"-89.5"},{"country_code":"GT","state_code":"04","province_code":"","name":"VALDO HONDO (CHIQUIMULA)","cp":["20016"],"lat":"14.6875","lng":"-89.5333"},{"country_code":"GT","state_code":"04","province_code":"","name":"SAN ESTEBAN (CHIQUIMULA)","cp":["20017"],"lat":"14.75","lng":"-89.5167"},{"country_code":"GT","state_code":"04","province_code":"","name":"TIERRA COLORADA ( SAN JOSE LA ARADA)","cp":["20018"],"lat":"14.6875","lng":"-89.5333"},{"country_code":"GT","state_code":"04","province_code":"","name":"AGUA CALIENTE ( ESQUIPULAS)","cp":["20019"],"lat":"14.6875","lng":"-89.5333"},{"country_code":"GT","state_code":"04","province_code":"","name":"NUEVA ANGUIATU (CONCEP. LAS MINAS)","cp":["20020"],"lat":"14.6974","lng":"-89.4654"},{"country_code":"GT","state_code":"06","province_code":"","name":"DEPTO DE ESCUINTLA","cp":["05000"],"lat":"14.2088","lng":"-90.9754"},{"country_code":"GT","state_code":"06","province_code":"","name":"ESCUINTLA","cp":["05001"],"lat":"14.305","lng":"-90.785"},{"country_code":"GT","state_code":"06","province_code":"","name":"SANTA LUCIA COTZUMALGUAPA","cp":["05002"],"lat":"14.3333","lng":"-91.0167"},{"country_code":"GT","state_code":"06","province_code":"","name":"LA DEMOCRACIA","cp":["05003"],"lat":"14.2308","lng":"-90.9472"},{"country_code":"GT","state_code":"06","province_code":"","name":"SIQUINALA","cp":["05004"],"lat":"14.3061","lng":"-90.965"},{"country_code":"GT","state_code":"06","province_code":"","name":"MASAGUA","cp":["05005"],"lat":"14.2031","lng":"-90.8481"},{"country_code":"GT","state_code":"06","province_code":"","name":"TIQUISATE","cp":["05006"],"lat":"14.2833","lng":"-91.3667"},{"country_code":"GT","state_code":"06","province_code":"","name":"LA GOMERA","cp":["05007"],"lat":"14.0833","lng":"-91.05"},{"country_code":"GT","state_code":"06","province_code":"","name":"SAN JOSE","cp":["05009"],"lat":"13.9256","lng":"-90.8244"},{"country_code":"GT","state_code":"06","province_code":"","name":"ITZAPA","cp":["05010"],"lat":"14.62","lng":"-90.8442"},{"country_code":"GT","state_code":"06","province_code":"","name":"PALIN","cp":["05011"],"lat":"14.4056","lng":"-90.6983"},{"country_code":"GT","state_code":"06","province_code":"","name":"SAN VICENTE PACAYA","cp":["05012"],"lat":"14.4161","lng":"-90.6392"},{"country_code":"GT","state_code":"06","province_code":"","name":"NUEVA CONCEPCION","cp":["05013"],"lat":"14.2","lng":"-91.3"},{"country_code":"GT","state_code":"06","province_code":"","name":"OBERO (MASAGUA)","cp":["05014"],"lat":"14.4104","lng":"-90.8704"},{"country_code":"GT","state_code":"06","province_code":"","name":"BRITO (GUANAGAZAPA)","cp":["05015"],"lat":"14.4104","lng":"-90.8704"},{"country_code":"GT","state_code":"06","province_code":"","name":"SANTA ANA MIXTAN (NUEVA CONCEPCION)","cp":["05016"],"lat":"14.4104","lng":"-90.8704"},{"country_code":"GT","state_code":"06","province_code":"","name":"EL NARANJO (MASAGUA)","cp":["05017"],"lat":"14.4104","lng":"-90.8704"},{"country_code":"GT","state_code":"06","province_code":"","name":"SAN ANDRES OSUMA (ESCUINTLA)","cp":["05018"],"lat":"14.4104","lng":"-90.8704"},{"country_code":"GT","state_code":"06","province_code":"","name":"CUYUTA (MASAGUA)","cp":["05019"],"lat":"14.4104","lng":"-90.8704"},{"country_code":"GT","state_code":"06","province_code":"","name":"EL PORVENIR TICANLU (TIQUISATE)","cp":["05020"],"lat":"14.276","lng":"-90.9404"},{"country_code":"GT","state_code":"06","province_code":"","name":"SIPACATE (LA GOMERA)","cp":["05021"],"lat":"14.276","lng":"-90.9404"},{"country_code":"GT","state_code":"07","province_code":"","name":"ZONA 1","cp":["01001"],"lat":"14.6328","lng":"-90.5199"},{"country_code":"GT","state_code":"07","province_code":"","name":"ZONA 2","cp":["01002"],"lat":"14.6328","lng":"-90.5199"},{"country_code":"GT","state_code":"07","province_code":"","name":"ZONA 3","cp":["01003"],"lat":"14.6328","lng":"-90.5199"},{"country_code":"GT","state_code":"07","province_code":"","name":"ZONA 4","cp":["01004"],"lat":"14.6328","lng":"-90.5199"},{"country_code":"GT","state_code":"07","province_code":"","name":"ZONA 5","cp":["01005"],"lat":"14.6328","lng":"-90.5199"},{"country_code":"GT","state_code":"07","province_code":"","name":"ZONA 6","cp":["01006"],"lat":"14.6328","lng":"-90.5199"},{"country_code":"GT","state_code":"07","province_code":"","name":"ZONA 7","cp":["01007"],"lat":"14.6328","lng":"-90.5199"},{"country_code":"GT","state_code":"07","province_code":"","name":"ZONA 8","cp":["01008"],"lat":"14.6328","lng":"-90.5199"},{"country_code":"GT","state_code":"07","province_code":"","name":"ZONA 9","cp":["01009"],"lat":"14.6328","lng":"-90.5199"},{"country_code":"GT","state_code":"07","province_code":"","name":"ZONA 10","cp":["01010"],"lat":"14.6328","lng":"-90.5199"},{"country_code":"GT","state_code":"07","province_code":"","name":"ZONA 11","cp":["01011"],"lat":"14.6328","lng":"-90.5199"},{"country_code":"GT","state_code":"07","province_code":"","name":"ZONA 12","cp":["01012"],"lat":"14.6328","lng":"-90.5199"},{"country_code":"GT","state_code":"07","province_code":"","name":"ZONA 13","cp":["01013"],"lat":"14.6328","lng":"-90.5199"},{"country_code":"GT","state_code":"07","province_code":"","name":"ZONA 14","cp":["01014"],"lat":"14.6328","lng":"-90.5199"},{"country_code":"GT","state_code":"07","province_code":"","name":"ZONA 15","cp":["01015"],"lat":"14.6328","lng":"-90.5199"},{"country_code":"GT","state_code":"07","province_code":"","name":"ZONA 16","cp":["01016"],"lat":"14.6328","lng":"-90.5199"},{"country_code":"GT","state_code":"07","province_code":"","name":"ZONA 17","cp":["01017"],"lat":"14.6328","lng":"-90.5199"},{"country_code":"GT","state_code":"07","province_code":"","name":"ZONA 18","cp":["01018"],"lat":"14.6328","lng":"-90.5199"},{"country_code":"GT","state_code":"07","province_code":"","name":"ZONA 19","cp":["01019"],"lat":"14.6328","lng":"-90.5199"},{"country_code":"GT","state_code":"07","province_code":"","name":"ZONA 21","cp":["01021"],"lat":"14.6328","lng":"-90.5199"},{"country_code":"GT","state_code":"07","province_code":"","name":"SANTA CATARINA PINULA","cp":["01051"],"lat":"14.5689","lng":"-90.4953"},{"country_code":"GT","state_code":"07","province_code":"","name":"SAN JOSE PINULA","cp":["01052"],"lat":"14.5461","lng":"-90.4114"},{"country_code":"GT","state_code":"07","province_code":"","name":"SAN JOSE DEL GOLFO","cp":["01053"],"lat":"14.7628","lng":"-90.3764"},{"country_code":"GT","state_code":"07","province_code":"","name":"PALENCIA","cp":["01054"],"lat":"14.6647","lng":"-90.3586"},{"country_code":"GT","state_code":"07","province_code":"","name":"CHINAUTLA","cp":["01055"],"lat":"14.7083","lng":"-90.4994"},{"country_code":"GT","state_code":"07","province_code":"","name":"SAN PEDRO AYAMPUC","cp":["01056"],"lat":"14.7867","lng":"-90.4511"},{"country_code":"GT","state_code":"07","province_code":"","name":"MIXCO","cp":["01057"],"lat":"14.6333","lng":"-90.6064"},{"country_code":"GT","state_code":"07","province_code":"","name":"SAN PEDRO SACATEPEQUEZ","cp":["01058"],"lat":"14.6842","lng":"-90.6442"},{"country_code":"GT","state_code":"07","province_code":"","name":"SAN JUAN SACATEPEQUEZ","cp":["01059"],"lat":"14.7189","lng":"-90.6442"},{"country_code":"GT","state_code":"07","province_code":"","name":"SAN RAYMUNDO","cp":["01060"],"lat":"14.7647","lng":"-90.5956"},{"country_code":"GT","state_code":"07","province_code":"","name":"CHUARRANCHO","cp":["01061"],"lat":"14.8217","lng":"-90.5086"},{"country_code":"GT","state_code":"07","province_code":"","name":"FRAIJANES","cp":["01062"],"lat":"14.4653","lng":"-90.4408"},{"country_code":"GT","state_code":"07","province_code":"","name":"AMATITLAN","cp":["01063"],"lat":"14.4875","lng":"-90.6153"},{"country_code":"GT","state_code":"07","province_code":"","name":"VILLA NUEVA","cp":["01064"],"lat":"14.5269","lng":"-90.5875"},{"country_code":"GT","state_code":"07","province_code":"","name":"VILLA CANALES","cp":["01065"],"lat":"14.4814","lng":"-90.5317"},{"country_code":"GT","state_code":"07","province_code":"","name":"PETAPA","cp":["01066"],"lat":"14.5028","lng":"-90.5517"},{"country_code":"GT","state_code":"07","province_code":"","name":"CANALITOS (ZONA 21)","cp":["01067"],"lat":"14.5786","lng":"-90.5473"},{"country_code":"GT","state_code":"07","province_code":"","name":"EL FISCAL (PALENCIA)","cp":["01068"],"lat":"14.5786","lng":"-90.5473"},{"country_code":"GT","state_code":"07","province_code":"","name":"BOCA DEL MONTE (VILLA CANALES)","cp":["01069"],"lat":"14.5786","lng":"-90.5473"},{"country_code":"GT","state_code":"07","province_code":"","name":"VUELTA GRANDE (SAN RAYMUNDO)","cp":["01070"],"lat":"14.6328","lng":"-90.5199"},{"country_code":"GT","state_code":"07","province_code":"","name":"TRAPICHE GRANDE (CHUARRANCHO)","cp":["01071"],"lat":"14.6328","lng":"-90.5199"},{"country_code":"GT","state_code":"07","province_code":"","name":"SANTA ELENA BARILLAS (VILLA CANALES)","cp":["01072"],"lat":"14.6328","lng":"-90.5199"},{"country_code":"GT","state_code":"07","province_code":"","name":"PUERTA PARADA (SANTA CATARINA PINULA)","cp":["01073"],"lat":"14.6328","lng":"-90.5199"},{"country_code":"GT","state_code":"07","province_code":"","name":"DEPTO DE EL PROGRESO","cp":["02000"],"lat":"14.8515","lng":"-90.1145"},{"country_code":"GT","state_code":"07","province_code":"","name":"GUASTATOYA","cp":["02001"],"lat":"14.8539","lng":"-90.0647"},{"country_code":"GT","state_code":"07","province_code":"","name":"MORAZAN","cp":["02002"],"lat":"14.9328","lng":"-90.1431"},{"country_code":"GT","state_code":"07","province_code":"","name":"SAN AGUSTIN ACASAGUASTLAN","cp":["02003"],"lat":"14.95","lng":"-89.9667"},{"country_code":"GT","state_code":"07","province_code":"","name":"SAN CRISTOBAL ACASAGUASTLAN","cp":["02004"],"lat":"14.9167","lng":"-89.8833"},{"country_code":"GT","state_code":"07","province_code":"","name":"EL JICARO","cp":["02005"],"lat":"14.8667","lng":"-90.2667"},{"country_code":"GT","state_code":"07","province_code":"","name":"SANSARE","cp":["02006"],"lat":"14.7472","lng":"-90.1125"},{"country_code":"GT","state_code":"07","province_code":"","name":"SANARATE","cp":["02007"],"lat":"14.795","lng":"-90.1922"},{"country_code":"GT","state_code":"07","province_code":"","name":"SAN ANTONIO LA PAZ","cp":["02008"],"lat":"14.7497","lng":"-90.2867"},{"country_code":"GT","state_code":"07","province_code":"","name":"TULUMAJILLO (SAN AGUSTIN ACASAGUASTLAN)","cp":["02009"],"lat":"14.8515","lng":"-90.1145"},{"country_code":"GT","state_code":"07","province_code":"","name":"ESTACION JALAPA (SANSARE)","cp":["02010"],"lat":"14.8515","lng":"-90.1145"},{"country_code":"GT","state_code":"07","province_code":"","name":"TULUMAJE (SAN AGUSTIN ACASAGUASTLAN)","cp":["02011"],"lat":"14.8515","lng":"-90.1145"},{"country_code":"GT","state_code":"07","province_code":"","name":"ESTANCIA DE LA VIRGEN (SAN CRISTOBAL ACASAGUASTLAN)","cp":["02012"],"lat":"14.8515","lng":"-90.1145"},{"country_code":"GT","state_code":"07","province_code":"","name":"PASO DE LOS JALAPAS (EL JICARO)","cp":["02013"],"lat":"14.8515","lng":"-90.1145"},{"country_code":"GT","state_code":"07","province_code":"","name":"SANTA RITA (GUASTATOYA)","cp":["02014"],"lat":"14.8515","lng":"-90.1145"},{"country_code":"GT","state_code":"07","province_code":"","name":"EL RANCHO ( SAN AGUSTIN ACASAGUASTLAN)","cp":["02015"],"lat":"14.8515","lng":"-90.1145"},{"country_code":"GT","state_code":"08","province_code":"","name":"DEPTO DE HUEHUETENANGO","cp":["13000"],"lat":"15.5368","lng":"-91.6565"},{"country_code":"GT","state_code":"08","province_code":"","name":"HUEHUETENANGO","cp":["13001"],"lat":"15.3197","lng":"-91.4708"},{"country_code":"GT","state_code":"08","province_code":"","name":"CHIANTLA","cp":["13002"],"lat":"15.3547","lng":"-91.4583"},{"country_code":"GT","state_code":"08","province_code":"","name":"MALACANCITO","cp":["13003"],"lat":"15.5368","lng":"-91.6565"},{"country_code":"GT","state_code":"08","province_code":"","name":"CUILCO","cp":["13004"],"lat":"15.4","lng":"-91.9667"},{"country_code":"GT","state_code":"08","province_code":"","name":"NENTON","cp":["13005"],"lat":"15.8","lng":"-91.75"},{"country_code":"GT","state_code":"08","province_code":"","name":"SAN PEDRO NECTA","cp":["13006"],"lat":"15.5","lng":"-91.7667"},{"country_code":"GT","state_code":"08","province_code":"","name":"JACALTENANGO","cp":["13007"],"lat":"15.6667","lng":"-91.7333"},{"country_code":"GT","state_code":"08","province_code":"","name":"SOLOMA","cp":["13008"],"lat":"15.7167","lng":"-91.45"},{"country_code":"GT","state_code":"08","province_code":"","name":"IXTAHUATAN","cp":["13009"],"lat":"15.5368","lng":"-91.6565"},{"country_code":"GT","state_code":"08","province_code":"","name":"SANTA BARBARA","cp":["13010"],"lat":"15.3167","lng":"-91.6167"},{"country_code":"GT","state_code":"08","province_code":"","name":"LA LIBERTAD","cp":["13011"],"lat":"15.5","lng":"-91.8333"},{"country_code":"GT","state_code":"08","province_code":"","name":"LA DEMOCRACIA","cp":["13012"],"lat":"15.5739","lng":"-91.6113"},{"country_code":"GT","state_code":"08","province_code":"","name":"SAN MIGUEL ACATAN","cp":["13013"],"lat":"15.7","lng":"-91.6167"},{"country_code":"GT","state_code":"08","province_code":"","name":"SAN RAFAEL LA INDEPENDENCIA","cp":["13014"],"lat":"15.7167","lng":"-91.5333"},{"country_code":"GT","state_code":"08","province_code":"","name":"TODOS SANTOS CUCHUMATAN","cp":["13015"],"lat":"15.5167","lng":"-91.6167"},{"country_code":"GT","state_code":"08","province_code":"","name":"SAN JUAN ATITAN","cp":["13016"],"lat":"15.4333","lng":"-91.6333"},{"country_code":"GT","state_code":"08","province_code":"","name":"SANTA EULALIA","cp":["13017"],"lat":"15.7331","lng":"-91.4569"},{"country_code":"GT","state_code":"08","province_code":"","name":"SAN MATEO IXTATAN","cp":["13018"],"lat":"15.8319","lng":"-91.4781"},{"country_code":"GT","state_code":"08","province_code":"","name":"COLOTENANGO","cp":["13019"],"lat":"15.4167","lng":"-91.7167"},{"country_code":"GT","state_code":"08","province_code":"","name":"SAN SEBASTIAN HUEHUETENANGO","cp":["13020"],"lat":"15.3833","lng":"-91.5833"},{"country_code":"GT","state_code":"08","province_code":"","name":"TECTITAN","cp":["13021"],"lat":"15.3333","lng":"-92.0333"},{"country_code":"GT","state_code":"08","province_code":"","name":"CONCEPCION","cp":["13022"],"lat":"15.6167","lng":"-91.6833"},{"country_code":"GT","state_code":"08","province_code":"","name":"SAN JUAN IXCOY","cp":["13023"],"lat":"15.5997","lng":"-91.4453"},{"country_code":"GT","state_code":"08","province_code":"","name":"SAN ANTONIO HUISTA","cp":["13024"],"lat":"15.65","lng":"-91.7667"},{"country_code":"GT","state_code":"08","province_code":"","name":"SAN SEBASTIAN COSTAN","cp":["13025"],"lat":"15.5033","lng":"-91.6136"},{"country_code":"GT","state_code":"08","province_code":"","name":"BARILLAS","cp":["13026"],"lat":"15.8036","lng":"-91.3158"},{"country_code":"GT","state_code":"08","province_code":"","name":"AGUACATAN","cp":["13027"],"lat":"15.3431","lng":"-91.3117"},{"country_code":"GT","state_code":"08","province_code":"","name":"SAN RAFAEL PETZAL","cp":["13028"],"lat":"15.4167","lng":"-91.6667"},{"country_code":"GT","state_code":"08","province_code":"","name":"SAN GASPAR IXCHIL","cp":["13029"],"lat":"15.3833","lng":"-91.7167"},{"country_code":"GT","state_code":"08","province_code":"","name":"SANTIAGO CHIMALTENANGO","cp":["13030"],"lat":"15.4667","lng":"-91.7167"},{"country_code":"GT","state_code":"08","province_code":"","name":"SANTA ANA HUISTA","cp":["13031"],"lat":"15.6833","lng":"-91.8167"},{"country_code":"GT","state_code":"08","province_code":"","name":"GRACIAS A DIOS (NENTON)","cp":["13032"],"lat":"15.4798","lng":"-91.6645"},{"country_code":"GT","state_code":"08","province_code":"","name":"SAN LORENZO (HUEHUETENANGO)","cp":["13033"],"lat":"15.2894","lng":"-91.4603"},{"country_code":"GT","state_code":"08","province_code":"","name":"SAN MARTIN CUCHUMATAN (TODOS SANTOS CUCHUMATAN)","cp":["13034"],"lat":"15.4798","lng":"-91.6645"},{"country_code":"GT","state_code":"08","province_code":"","name":"SAN MARCOS HUISTA (JACALTENANGO)","cp":["13035"],"lat":"15.4798","lng":"-91.6645"},{"country_code":"GT","state_code":"08","province_code":"","name":"PETATAN (CONCEPCION)","cp":["13036"],"lat":"15.4798","lng":"-91.6645"},{"country_code":"GT","state_code":"08","province_code":"","name":"PAQUIX (CHIANTLA)","cp":["13037"],"lat":"15.4798","lng":"-91.6645"},{"country_code":"GT","state_code":"08","province_code":"","name":"MICHICOY (SAN PEDRO NECTA)","cp":["13038"],"lat":"15.4798","lng":"-91.6645"},{"country_code":"GT","state_code":"08","province_code":"","name":"SAN ANDRES HIUISTA (JACALTENANGO)","cp":["13039"],"lat":"15.4798","lng":"-91.6645"},{"country_code":"GT","state_code":"08","province_code":"","name":"CHALUM (LA LIBERTAD)","cp":["13040"],"lat":"15.6167","lng":"-91.9833"},{"country_code":"GT","state_code":"08","province_code":"","name":"LA MESILLA","cp":["13041"],"lat":"15.6167","lng":"-91.9833"},{"country_code":"GT","state_code":"09","province_code":"","name":"DEPTO DE IZABAL","cp":["18000"],"lat":"15.5667","lng":"-88.9233"},{"country_code":"GT","state_code":"09","province_code":"","name":"PUERTO BARRIOS","cp":["18001"],"lat":"15.7167","lng":"-88.6"},{"country_code":"GT","state_code":"09","province_code":"","name":"LIVINGSTON","cp":["18002"],"lat":"15.8333","lng":"-88.75"},{"country_code":"GT","state_code":"09","province_code":"","name":"EL ESTOR","cp":["18003"],"lat":"15.5333","lng":"-89.35"},{"country_code":"GT","state_code":"09","province_code":"","name":"MORALES","cp":["18004"],"lat":"15.4833","lng":"-88.8167"},{"country_code":"GT","state_code":"09","province_code":"","name":"LOS AMATES","cp":["18005"],"lat":"15.2667","lng":"-89.1"},{"country_code":"GT","state_code":"09","province_code":"","name":"PLAYITAS (MORALES)","cp":["18006"],"lat":"15.5667","lng":"-88.9233"},{"country_code":"GT","state_code":"09","province_code":"","name":"EL RICO (LOS AMATES)","cp":["18007"],"lat":"15.5667","lng":"-88.9233"},{"country_code":"GT","state_code":"09","province_code":"","name":"CAYUGA (MORALES)","cp":["18008"],"lat":"15.5667","lng":"-88.9233"},{"country_code":"GT","state_code":"09","province_code":"","name":"QUIRIGUA (LOS AMATES)","cp":["18009"],"lat":"15.5667","lng":"-88.9233"},{"country_code":"GT","state_code":"09","province_code":"","name":"EL CINCHADO (PUERTO BARRIOS)","cp":["18010"],"lat":"15.5667","lng":"-88.9233"},{"country_code":"GT","state_code":"09","province_code":"","name":"LAS QUEBRADAS (MORALES)","cp":["18011"],"lat":"15.5667","lng":"-88.9233"},{"country_code":"GT","state_code":"09","province_code":"","name":"ENTRE RIOS (PUERTO BARRIOS)","cp":["18012"],"lat":"15.5667","lng":"-88.9233"},{"country_code":"GT","state_code":"09","province_code":"","name":"SANTO TOMAS DE CASTILLA (PUERTO BARRIOS)","cp":["18013"],"lat":"15.5667","lng":"-88.9233"},{"country_code":"GT","state_code":"09","province_code":"","name":"EL MITCHAL (MORALES)","cp":["18014"],"lat":"15.5667","lng":"-88.9233"},{"country_code":"GT","state_code":"09","province_code":"","name":"LAS VINAS (MORALES)","cp":["18015"],"lat":"15.5667","lng":"-88.9233"},{"country_code":"GT","state_code":"09","province_code":"","name":"EL REFUGIO (LOS AMATES)","cp":["18016"],"lat":"15.5667","lng":"-88.9233"},{"country_code":"GT","state_code":"09","province_code":"","name":"SANTA INES (LOS AMATES)","cp":["18017"],"lat":"15.5667","lng":"-88.9233"},{"country_code":"GT","state_code":"09","province_code":"","name":"TENEDORES (MORALES)","cp":["18018"],"lat":"15.5667","lng":"-88.9233"},{"country_code":"GT","state_code":"09","province_code":"","name":"SAN FELIPE (LIVINGSTON)","cp":["18019"],"lat":"15.5667","lng":"-88.9233"},{"country_code":"GT","state_code":"09","province_code":"","name":"BANANERA (MORALES)","cp":["18020"],"lat":"15.5667","lng":"-88.9233"},{"country_code":"GT","state_code":"09","province_code":"","name":"FRONTERAS (LIVINGSTON)","cp":["18021"],"lat":"15.5667","lng":"-88.9233"},{"country_code":"GT","state_code":"09","province_code":"","name":"MARISCOS (LOS AMATES)","cp":["18022"],"lat":"15.5667","lng":"-88.9233"},{"country_code":"GT","state_code":"09","province_code":"","name":"BUENOS AIRES (MORALES)","cp":["18023"],"lat":"15.5667","lng":"-88.9233"},{"country_code":"GT","state_code":"10","province_code":"","name":"DEPTO DE JALAPA","cp":["21000"],"lat":"14.583","lng":"-89.8896"},{"country_code":"GT","state_code":"10","province_code":"","name":"JALAPA","cp":["21001"],"lat":"14.6333","lng":"-89.9833"},{"country_code":"GT","state_code":"10","province_code":"","name":"SAN PEDRO PINULA","cp":["21002"],"lat":"14.6667","lng":"-89.85"},{"country_code":"GT","state_code":"10","province_code":"","name":"SAN LUIS JILOTEPEQUE","cp":["21003"],"lat":"14.65","lng":"-89.7333"},{"country_code":"GT","state_code":"10","province_code":"","name":"SAN MANUEL CHAPARRON","cp":["21004"],"lat":"14.5167","lng":"-89.7667"},{"country_code":"GT","state_code":"10","province_code":"","name":"SAN CARLOS ALZATATE","cp":["21005"],"lat":"14.4978","lng":"-90.0603"},{"country_code":"GT","state_code":"10","province_code":"","name":"MONJAS","cp":["21006"],"lat":"14.5","lng":"-89.8667"},{"country_code":"GT","state_code":"10","province_code":"","name":"MATATESCUINTLA","cp":["21007"],"lat":"14.583","lng":"-89.8896"},{"country_code":"GT","state_code":"10","province_code":"","name":"LLANO GRANDE","cp":["21008"],"lat":"14.6167","lng":"-89.9667"},{"country_code":"GT","state_code":"11","province_code":"","name":"DEPTO DE JUTIAPA","cp":["22000"],"lat":"14.3069","lng":"-89.7775"},{"country_code":"GT","state_code":"11","province_code":"","name":"JUTIAPA","cp":["22001"],"lat":"14.2833","lng":"-89.9"},{"country_code":"GT","state_code":"11","province_code":"","name":"EL PROGRESO","cp":["22002"],"lat":"14.35","lng":"-89.85"},{"country_code":"GT","state_code":"11","province_code":"","name":"SANTA CATARINA MITA","cp":["22003"],"lat":"14.45","lng":"-89.75"},{"country_code":"GT","state_code":"11","province_code":"","name":"AGUA BLANCA","cp":["22004"],"lat":"14.5","lng":"-89.65"},{"country_code":"GT","state_code":"11","province_code":"","name":"ASUNCION MITA","cp":["22005"],"lat":"14.3308","lng":"-89.7108"},{"country_code":"GT","state_code":"11","province_code":"","name":"YUPILTEPEQUE","cp":["22006"],"lat":"14.2","lng":"-89.7833"},{"country_code":"GT","state_code":"11","province_code":"","name":"ATESCATEMPA","cp":["22007"],"lat":"14.1744","lng":"-89.7425"},{"country_code":"GT","state_code":"11","province_code":"","name":"JERES","cp":["22008"],"lat":"14.3069","lng":"-89.7775"},{"country_code":"GT","state_code":"11","province_code":"","name":"EL ADELANTO","cp":["22009"],"lat":"14.1667","lng":"-89.8333"},{"country_code":"GT","state_code":"11","province_code":"","name":"ZAPOTITLAN","cp":["22010"],"lat":"14.1333","lng":"-89.8333"},{"country_code":"GT","state_code":"11","province_code":"","name":"COMAPA","cp":["22011"],"lat":"14.1167","lng":"-89.9167"},{"country_code":"GT","state_code":"11","province_code":"","name":"JALPATAGUA","cp":["22012"],"lat":"14.1417","lng":"-90.0086"},{"country_code":"GT","state_code":"11","province_code":"","name":"CONGUANCO","cp":["22013"],"lat":"14.1347","lng":"-90.0304"},{"country_code":"GT","state_code":"11","province_code":"","name":"MOYUTA","cp":["22014"],"lat":"14.0386","lng":"-90.0808"},{"country_code":"GT","state_code":"11","province_code":"","name":"PASACO","cp":["22015"],"lat":"13.9772","lng":"-90.2064"},{"country_code":"GT","state_code":"11","province_code":"","name":"SAN JOSE ACATEMPA","cp":["22016"],"lat":"14.2653","lng":"-90.1269"},{"country_code":"GT","state_code":"11","province_code":"","name":"QUESADA","cp":["22017"],"lat":"14.2703","lng":"-90.0403"},{"country_code":"GT","state_code":"11","province_code":"","name":"CIUDAD PEDRO DE ALVARADO (MOYUTA)","cp":["22018"],"lat":"14.1347","lng":"-90.0304"},{"country_code":"GT","state_code":"11","province_code":"","name":"SAN CRSITOBAL FRONTERA (ATESCATEMPA)","cp":["22019"],"lat":"14.1347","lng":"-90.0304"},{"country_code":"GT","state_code":"11","province_code":"","name":"VALLE NUEVO JALPATAGUA","cp":["22020"],"lat":"14.2333","lng":"-89.9667"},{"country_code":"GT","state_code":"11","province_code":"","name":"RIO DE PAZ","cp":["22021"],"lat":"14.2333","lng":"-89.9667"},{"country_code":"GT","state_code":"11","province_code":"","name":"HORCONES (STA. CAT. MITA)","cp":["22022"],"lat":"14.2333","lng":"-89.9667"},{"country_code":"GT","state_code":"11","province_code":"","name":"EL OVEJERO (EL PROGRESO)","cp":["22023"],"lat":"14.2333","lng":"-89.9667"},{"country_code":"GT","state_code":"11","province_code":"","name":"CONTEPEQUE (ATESCATEMPA)","cp":["22024"],"lat":"14.2333","lng":"-89.9667"},{"country_code":"GT","state_code":"11","province_code":"","name":"LA ESMERALDA (JEREZ)","cp":["22025"],"lat":"14.2333","lng":"-89.9667"},{"country_code":"GT","state_code":"11","province_code":"","name":"HORCONES (ATESCATEMPA)","cp":["22026"],"lat":"14.2333","lng":"-89.9667"},{"country_code":"GT","state_code":"11","province_code":"","name":"TIUCAL (ASUNCION MITA)","cp":["22027"],"lat":"14.2333","lng":"-89.9667"},{"country_code":"GT","state_code":"12","province_code":"","name":"DEPTO DE PETEN","cp":["17000"],"lat":"16.7663","lng":"-89.8155"},{"country_code":"GT","state_code":"12","province_code":"","name":"FLORES","cp":["17001"],"lat":"16.9333","lng":"-89.8833"},{"country_code":"GT","state_code":"12","province_code":"","name":"SAN JOSE","cp":["17002"],"lat":"16.9833","lng":"-89.9"},{"country_code":"GT","state_code":"12","province_code":"","name":"SAN BENITO","cp":["17003"],"lat":"16.9167","lng":"-89.9"},{"country_code":"GT","state_code":"12","province_code":"","name":"SAN ANDRES","cp":["17004"],"lat":"16.9667","lng":"-89.9167"},{"country_code":"GT","state_code":"12","province_code":"","name":"LA LIBERTAD","cp":["17005"],"lat":"16.7833","lng":"-90.1167"},{"country_code":"GT","state_code":"12","province_code":"","name":"SAN FRANCISCO","cp":["17006"],"lat":"16.8","lng":"-89.9333"},{"country_code":"GT","state_code":"12","province_code":"","name":"SANTA ANA","cp":["17007"],"lat":"16.8","lng":"-89.8333"},{"country_code":"GT","state_code":"12","province_code":"","name":"DOLORES","cp":["17008"],"lat":"16.5142","lng":"-89.4158"},{"country_code":"GT","state_code":"12","province_code":"","name":"SAN LUIS","cp":["17009"],"lat":"16.1989","lng":"-89.4403"},{"country_code":"GT","state_code":"12","province_code":"","name":"SAYAXCHE","cp":["17010"],"lat":"16.7663","lng":"-89.8155"},{"country_code":"GT","state_code":"12","province_code":"","name":"MELCHOR DE MENCOS","cp":["17011"],"lat":"16.7663","lng":"-89.8155"},{"country_code":"GT","state_code":"12","province_code":"","name":"POPTUN","cp":["17012"],"lat":"16.7663","lng":"-89.8155"},{"country_code":"GT","state_code":"12","province_code":"","name":"TIKAL (FLORES)","cp":["17013"],"lat":"16.7663","lng":"-89.8155"},{"country_code":"GT","state_code":"12","province_code":"","name":"DOS LAGUNAS (FLORES)","cp":["17014"],"lat":"16.7663","lng":"-89.8155"},{"country_code":"GT","state_code":"12","province_code":"","name":"SANTO TORIBIO (DOLORES)","cp":["17015"],"lat":"16.7663","lng":"-89.8155"},{"country_code":"GT","state_code":"12","province_code":"","name":"PASO CABALLOS (SAN ANDRES)","cp":["17016"],"lat":"16.7663","lng":"-89.8155"},{"country_code":"GT","state_code":"12","province_code":"","name":"UAXACTUN (FLORES)","cp":["17017"],"lat":"16.7663","lng":"-89.8155"},{"country_code":"GT","state_code":"12","province_code":"","name":"CARMELITA (SAN ANDRES)","cp":["17018"],"lat":"16.7663","lng":"-89.8155"},{"country_code":"GT","state_code":"12","province_code":"","name":"MACHAQUILA (DOLORES)","cp":["17019"],"lat":"16.7663","lng":"-89.8155"},{"country_code":"GT","state_code":"12","province_code":"","name":"EL CHAL ( DOLORES )","cp":["17020"],"lat":"16.7663","lng":"-89.8155"},{"country_code":"GT","state_code":"12","province_code":"","name":"MACANCHE (DOLORES)","cp":["17021"],"lat":"16.7663","lng":"-89.8155"},{"country_code":"GT","state_code":"12","province_code":"","name":"EL REMATE (FLORES)","cp":["17022"],"lat":"16.7663","lng":"-89.8155"},{"country_code":"GT","state_code":"12","province_code":"","name":"LA FELICIDAD (SAYAXCHE)","cp":["17023"],"lat":"16.7663","lng":"-89.8155"},{"country_code":"GT","state_code":"12","province_code":"","name":"EL NARANJO (LA LIBERTAD)","cp":["17024"],"lat":"16.7663","lng":"-89.8155"},{"country_code":"GT","state_code":"12","province_code":"","name":"SACPUY (SAN ANDRES)","cp":["17025"],"lat":"16.7663","lng":"-89.8155"},{"country_code":"GT","state_code":"12","province_code":"","name":"PAXCAMAN (FLORES)","cp":["17026"],"lat":"16.7663","lng":"-89.8155"},{"country_code":"GT","state_code":"12","province_code":"","name":"LAS CRUCES (LA LIBERTAD)","cp":["17027"],"lat":"16.7663","lng":"-89.8155"},{"country_code":"GT","state_code":"12","province_code":"","name":"SABANETA (DOLORES)","cp":["17028"],"lat":"16.7663","lng":"-89.8155"},{"country_code":"GT","state_code":"12","province_code":"","name":"SANTA ELENA","cp":["17029"],"lat":"16.7663","lng":"-89.8155"},{"country_code":"GT","state_code":"13","province_code":"","name":"DEPTO DE QUETZALTENANGO","cp":["09000"],"lat":"14.9375","lng":"-91.5625"},{"country_code":"GT","state_code":"13","province_code":"","name":"QUETZALTENANGO","cp":["09001"],"lat":"14.8333","lng":"-91.5167"},{"country_code":"GT","state_code":"13","province_code":"","name":"SALCAJA","cp":["09002"],"lat":"14.8833","lng":"-91.45"},{"country_code":"GT","state_code":"13","province_code":"","name":"OLINTEPEQUE","cp":["09003"],"lat":"14.8833","lng":"-91.5167"},{"country_code":"GT","state_code":"13","province_code":"","name":"SAN CARLOS SIJA","cp":["09004"],"lat":"14.9833","lng":"-91.55"},{"country_code":"GT","state_code":"13","province_code":"","name":"SIBILIA","cp":["09005"],"lat":"15","lng":"-91.6167"},{"country_code":"GT","state_code":"13","province_code":"","name":"CABRICAN","cp":["09006"],"lat":"15.1333","lng":"-91.6167"},{"country_code":"GT","state_code":"13","province_code":"","name":"CAJOLA","cp":["09007"],"lat":"14.9167","lng":"-91.6167"},{"country_code":"GT","state_code":"13","province_code":"","name":"SAN MIGUEL SIQUINALA","cp":["09008"],"lat":"14.9375","lng":"-91.5625"},{"country_code":"GT","state_code":"13","province_code":"","name":"OSTUNCALCO","cp":["09009"],"lat":"14.8667","lng":"-91.6167"},{"country_code":"GT","state_code":"13","province_code":"","name":"SAN MATEO","cp":["09010"],"lat":"14.8667","lng":"-91.5833"},{"country_code":"GT","state_code":"13","province_code":"","name":"CONCEPCION CHIQUIRICHAPA","cp":["09011"],"lat":"14.85","lng":"-91.6167"},{"country_code":"GT","state_code":"13","province_code":"","name":"SAN MARTIN SACATEPEQUEZ","cp":["09012"],"lat":"14.8167","lng":"-91.65"},{"country_code":"GT","state_code":"13","province_code":"","name":"ALMOLONGA","cp":["09013"],"lat":"14.8167","lng":"-91.5"},{"country_code":"GT","state_code":"13","province_code":"","name":"CANTEL","cp":["09014"],"lat":"14.8167","lng":"-91.45"},{"country_code":"GT","state_code":"13","province_code":"","name":"HUITAN","cp":["09015"],"lat":"15.1","lng":"-91.6167"},{"country_code":"GT","state_code":"13","province_code":"","name":"ZUNIL","cp":["09016"],"lat":"14.7833","lng":"-91.4833"},{"country_code":"GT","state_code":"13","province_code":"","name":"COLOMBA","cp":["09017"],"lat":"14.7167","lng":"-91.7333"},{"country_code":"GT","state_code":"13","province_code":"","name":"SAN FRANCISCO LA UNION","cp":["09018"],"lat":"14.9167","lng":"-91.5333"},{"country_code":"GT","state_code":"13","province_code":"","name":"EL PALMAR","cp":["09019"],"lat":"14.65","lng":"-91.5833"},{"country_code":"GT","state_code":"13","province_code":"","name":"COATEPEQUE","cp":["09020"],"lat":"14.7","lng":"-91.8667"},{"country_code":"GT","state_code":"13","province_code":"","name":"GENOVA","cp":["09021"],"lat":"14.6167","lng":"-91.8333"},{"country_code":"GT","state_code":"13","province_code":"","name":"FLORES COSTA CUCA","cp":["09022"],"lat":"14.65","lng":"-91.8167"},{"country_code":"GT","state_code":"13","province_code":"","name":"LA ESPERANZA","cp":["09023"],"lat":"14.8833","lng":"-91.6833"},{"country_code":"GT","state_code":"13","province_code":"","name":"PALESTINA DE LOS ALTOS","cp":["09024"],"lat":"14.9333","lng":"-91.7"},{"country_code":"GT","state_code":"13","province_code":"","name":"SANTA MARIA DE JESUS (ZUNIL)","cp":["09025"],"lat":"14.7778","lng":"-91.7306"},{"country_code":"GT","state_code":"13","province_code":"","name":"CHIQUIBAL (SAN CARLOS SIJA)","cp":["09026"],"lat":"14.7778","lng":"-91.7306"},{"country_code":"GT","state_code":"13","province_code":"","name":"LAS PALMAS (COATEPEQUE)","cp":["09027"],"lat":"14.7778","lng":"-91.7306"},{"country_code":"GT","state_code":"13","province_code":"","name":"CUICALBA (SIBILIA)","cp":["09028"],"lat":"14.7778","lng":"-91.7306"},{"country_code":"GT","state_code":"13","province_code":"","name":"SAN JOSE CHIQUILAJA (QUETZALTENANGO)","cp":["09029"],"lat":"14.8833","lng":"-91.4833"},{"country_code":"GT","state_code":"13","province_code":"","name":"EL EDEN (PALESTINA DE LOS ALTOS)","cp":["09030"],"lat":"14.8542","lng":"-91.6097"},{"country_code":"GT","state_code":"13","province_code":"","name":"CHUATUJ (SAN CARLOS SIJA)","cp":["09031"],"lat":"14.8542","lng":"-91.6097"},{"country_code":"GT","state_code":"13","province_code":"","name":"EL TAMBOR (EL PALMAR)","cp":["09032"],"lat":"14.8542","lng":"-91.6097"},{"country_code":"GT","state_code":"13","province_code":"","name":"LAS MERCEDES (COLOMBA)","cp":["09033"],"lat":"14.8542","lng":"-91.6097"},{"country_code":"GT","state_code":"13","province_code":"","name":"PALMIRA (COLOMBA)","cp":["09034"],"lat":"14.8542","lng":"-91.6097"},{"country_code":"GT","state_code":"14","province_code":"","name":"DEPTO DEL QUICHE","cp":["14000"],"lat":"15.0926","lng":"-91.1044"},{"country_code":"GT","state_code":"14","province_code":"","name":"SANTA CRUZ DEL QUICHE","cp":["14001"],"lat":"15.0306","lng":"-91.1489"},{"country_code":"GT","state_code":"14","province_code":"","name":"QUICHE","cp":["14002"],"lat":"15.0926","lng":"-91.1044"},{"country_code":"GT","state_code":"14","province_code":"","name":"CHINISQUE","cp":["14003"],"lat":"15.0926","lng":"-91.1044"},{"country_code":"GT","state_code":"14","province_code":"","name":"ZACUALPA","cp":["14004"],"lat":"15.0833","lng":"-90.8333"},{"country_code":"GT","state_code":"14","province_code":"","name":"CHAJUL","cp":["14005"],"lat":"15.4853","lng":"-91.0342"},{"country_code":"GT","state_code":"14","province_code":"","name":"CHICHICASTENANGO","cp":["14006"],"lat":"14.9333","lng":"-91.1167"},{"country_code":"GT","state_code":"14","province_code":"","name":"PATZITE","cp":["14007"],"lat":"14.9667","lng":"-91.2167"},{"country_code":"GT","state_code":"14","province_code":"","name":"SAN ANTONIO ILOTENANGO","cp":["14008"],"lat":"15.0547","lng":"-91.2297"},{"country_code":"GT","state_code":"14","province_code":"","name":"SAN PEDRO JOCOPILAS","cp":["14009"],"lat":"15.0944","lng":"-91.1514"},{"country_code":"GT","state_code":"14","province_code":"","name":"CUNEN","cp":["14010"],"lat":"15.3375","lng":"-91.0269"},{"country_code":"GT","state_code":"14","province_code":"","name":"SAN JUAN COTZAL","cp":["14011"],"lat":"15.4342","lng":"-91.0342"},{"country_code":"GT","state_code":"14","province_code":"","name":"JOYABAJ","cp":["14012"],"lat":"14.995","lng":"-90.8061"},{"country_code":"GT","state_code":"14","province_code":"","name":"NEBAJ","cp":["14013"],"lat":"15.4058","lng":"-91.1461"},{"country_code":"GT","state_code":"14","province_code":"","name":"SAN ANDRES SAJCABAJA","cp":["14014"],"lat":"15.2167","lng":"-90.9167"},{"country_code":"GT","state_code":"14","province_code":"","name":"USPANTAN","cp":["14015"],"lat":"15.3833","lng":"-90.8333"},{"country_code":"GT","state_code":"14","province_code":"","name":"SACAPULAS","cp":["14016"],"lat":"15.2867","lng":"-91.0872"},{"country_code":"GT","state_code":"14","province_code":"","name":"SAN BARTOLOME JOCOTENANGO","cp":["14017"],"lat":"15.1928","lng":"-91.0772"},{"country_code":"GT","state_code":"14","province_code":"","name":"CANILLA","cp":["14018"],"lat":"15.1667","lng":"-90.85"},{"country_code":"GT","state_code":"14","province_code":"","name":"PLAYA GRANDE (IXCAN)","cp":["14019"],"lat":"15.2687","lng":"-90.9753"},{"country_code":"GT","state_code":"14","province_code":"","name":"CHICAMAN","cp":["14020"],"lat":"15.4","lng":"-90.7667"},{"country_code":"GT","state_code":"14","province_code":"","name":"SANTA ROSA CHUJUYUB (SANTA CRUZ DEL QUICHE)","cp":["14021"],"lat":"15.2583","lng":"-90.5833"},{"country_code":"GT","state_code":"14","province_code":"","name":"PACHALUM","cp":["14022"],"lat":"15.1167","lng":"-90.4"},{"country_code":"GT","state_code":"14","province_code":"","name":"CANTABAL","cp":["14023"],"lat":"15.2583","lng":"-90.5833"},{"country_code":"GT","state_code":"14","province_code":"","name":"SAN JOSE LA 20 (USPANTAN-IXCAN)","cp":["14024"],"lat":"15.2583","lng":"-90.5833"},{"country_code":"GT","state_code":"14","province_code":"","name":"XACBAL","cp":["14025"],"lat":"15.2583","lng":"-90.5833"},{"country_code":"GT","state_code":"15","province_code":"","name":"DEPTO DE RETALHULEU","cp":["11000"],"lat":"14.5519","lng":"-91.6759"},{"country_code":"GT","state_code":"15","province_code":"","name":"RETALHULEU","cp":["11001"],"lat":"14.5333","lng":"-91.6833"},{"country_code":"GT","state_code":"15","province_code":"","name":"SAN SEBASTIAN","cp":["11002"],"lat":"14.5667","lng":"-91.65"},{"country_code":"GT","state_code":"15","province_code":"","name":"SANTA CRUZ MULUA","cp":["11003"],"lat":"14.5833","lng":"-91.6167"},{"country_code":"GT","state_code":"15","province_code":"","name":"SAN MARTIN ZAPOTITLAN","cp":["11004"],"lat":"14.6","lng":"-91.6"},{"country_code":"GT","state_code":"15","province_code":"","name":"SAN FELIPE","cp":["11005"],"lat":"14.6167","lng":"-91.6"},{"country_code":"GT","state_code":"15","province_code":"","name":"SAN ANDRES VILLA SECA","cp":["11006"],"lat":"14.5667","lng":"-91.5833"},{"country_code":"GT","state_code":"15","province_code":"","name":"CHAMPERICO","cp":["11007"],"lat":"14.3","lng":"-91.9167"},{"country_code":"GT","state_code":"15","province_code":"","name":"NUEVO SAN CARLOS","cp":["11008"],"lat":"14.6","lng":"-91.7"},{"country_code":"GT","state_code":"15","province_code":"","name":"EL ASINTAL","cp":["11009"],"lat":"14.6","lng":"-91.7333"},{"country_code":"GT","state_code":"15","province_code":"","name":"CABALLO BLANCO (RETALHULEU)","cp":["11010"],"lat":"14.4833","lng":"-91.8333"},{"country_code":"GT","state_code":"15","province_code":"","name":"CANDELARIA XOLHUITZ (NUEVO SAN CARLOS)","cp":["11011"],"lat":"14.4833","lng":"-91.8333"},{"country_code":"GT","state_code":"15","province_code":"","name":"SINAVBA (EL ASINTAL)","cp":["11012"],"lat":"14.4833","lng":"-91.8333"},{"country_code":"GT","state_code":"15","province_code":"","name":"EL XAB (EL ASINTAL)","cp":["11013"],"lat":"14.4833","lng":"-91.8333"},{"country_code":"GT","state_code":"15","province_code":"","name":"LA MAQUINA (SAN ANDRES VILLA SECA)","cp":["11014"],"lat":"14.4833","lng":"-91.8333"},{"country_code":"GT","state_code":"16","province_code":"","name":"DEPTO DE SACATEPEQUEZ","cp":["03000"],"lat":"14.6101","lng":"-90.7063"},{"country_code":"GT","state_code":"16","province_code":"","name":"ANTIGUA GUATEMALA","cp":["03001"],"lat":"14.5611","lng":"-90.7344"},{"country_code":"GT","state_code":"16","province_code":"","name":"JOCOTENANGO","cp":["03002"],"lat":"14.5819","lng":"-90.7436"},{"country_code":"GT","state_code":"16","province_code":"","name":"PASTORES","cp":["03003"],"lat":"14.5967","lng":"-90.7547"},{"country_code":"GT","state_code":"16","province_code":"","name":"SUMPANGO","cp":["03004"],"lat":"14.6464","lng":"-90.7339"},{"country_code":"GT","state_code":"16","province_code":"","name":"SANTO DOMINGO XENACOJ","cp":["03005"],"lat":"14.6778","lng":"-90.6978"},{"country_code":"GT","state_code":"16","province_code":"","name":"SANTIAGO SACATEPEQUEZ","cp":["03006"],"lat":"14.6353","lng":"-90.6764"},{"country_code":"GT","state_code":"16","province_code":"","name":"SAN BARTOLOME MILPAS ALTAS","cp":["03007"],"lat":"14.6061","lng":"-90.68"},{"country_code":"GT","state_code":"16","province_code":"","name":"SAN LUCAS SACATEPEQUEZ","cp":["03008"],"lat":"14.6097","lng":"-90.6569"},{"country_code":"GT","state_code":"16","province_code":"","name":"SANTA LUCIA MILPAS ALTAS","cp":["03009"],"lat":"14.5758","lng":"-90.6786"},{"country_code":"GT","state_code":"16","province_code":"","name":"MAGDALENA MILPAS ALTAS","cp":["03010"],"lat":"14.5453","lng":"-90.6753"},{"country_code":"GT","state_code":"16","province_code":"","name":"SANTA MARIA DE JESUS","cp":["03011"],"lat":"14.5183","lng":"-90.7267"},{"country_code":"GT","state_code":"16","province_code":"","name":"CIUDAD VIEJA","cp":["03012"],"lat":"14.5264","lng":"-90.7597"},{"country_code":"GT","state_code":"16","province_code":"","name":"SAN MIGUEL DUENAS","cp":["03013"],"lat":"14.5239","lng":"-90.7983"},{"country_code":"GT","state_code":"16","province_code":"","name":"ALOTENANGO","cp":["03014"],"lat":"14.4803","lng":"-90.8075"},{"country_code":"GT","state_code":"16","province_code":"","name":"SAN ANTONIO AGUAS CALIENTES","cp":["03015"],"lat":"14.5397","lng":"-90.7694"},{"country_code":"GT","state_code":"16","province_code":"","name":"SANTA CATARINA BARAHONA","cp":["03016"],"lat":"14.5489","lng":"-90.7883"},{"country_code":"GT","state_code":"16","province_code":"","name":"SANTA MARIA CAUQUE (SANTIAGO SACATEPEQUEZ)","cp":["03017"],"lat":"14.5261","lng":"-90.7608"},{"country_code":"GT","state_code":"17","province_code":"","name":"DEPTO DE SAN MARCOS","cp":["12000"],"lat":"15.0896","lng":"-91.8521"},{"country_code":"GT","state_code":"17","province_code":"","name":"SAN MARCOS","cp":["12001"],"lat":"14.9667","lng":"-91.8"},{"country_code":"GT","state_code":"17","province_code":"","name":"SAN PEDRO SACATEPEQUEZ","cp":["12002"],"lat":"14.9667","lng":"-91.7667"},{"country_code":"GT","state_code":"17","province_code":"","name":"SAN ANTONIO SACATEPEQUEZ","cp":["12003"],"lat":"14.9667","lng":"-91.7333"},{"country_code":"GT","state_code":"17","province_code":"","name":"COMITANCILLO","cp":["12004"],"lat":"15.0833","lng":"-91.7167"},{"country_code":"GT","state_code":"17","province_code":"","name":"SAN MIGUEL IXTAGUACAN","cp":["12005"],"lat":"15.0896","lng":"-91.8521"},{"country_code":"GT","state_code":"17","province_code":"","name":"CONCEPCION TUTUAPA","cp":["12006"],"lat":"15.2833","lng":"-91.7833"},{"country_code":"GT","state_code":"17","province_code":"","name":"TACANA","cp":["12007"],"lat":"15.2333","lng":"-92.0833"},{"country_code":"GT","state_code":"17","province_code":"","name":"SIBINAL","cp":["12008"],"lat":"15.1333","lng":"-92.05"},{"country_code":"GT","state_code":"17","province_code":"","name":"TAJUMULCO","cp":["12009"],"lat":"15.0833","lng":"-91.8833"},{"country_code":"GT","state_code":"17","province_code":"","name":"TEJUTLA","cp":["12010"],"lat":"15.1167","lng":"-91.8"},{"country_code":"GT","state_code":"17","province_code":"","name":"SAN RAFAEL PIE DE LA CUESTA","cp":["12011"],"lat":"14.9333","lng":"-91.9167"},{"country_code":"GT","state_code":"17","province_code":"","name":"NUEVO PROGRESO","cp":["12012"],"lat":"14.8","lng":"-91.9167"},{"country_code":"GT","state_code":"17","province_code":"","name":"EL TUMBADOR","cp":["12013"],"lat":"14.8667","lng":"-91.9333"},{"country_code":"GT","state_code":"17","province_code":"","name":"EL RODEO","cp":["12014"],"lat":"14.9167","lng":"-91.9667"},{"country_code":"GT","state_code":"17","province_code":"","name":"MALACATAN","cp":["12015"],"lat":"14.9","lng":"-92.05"},{"country_code":"GT","state_code":"17","province_code":"","name":"CATARINA","cp":["12016"],"lat":"14.85","lng":"-92.0833"},{"country_code":"GT","state_code":"17","province_code":"","name":"TECUN UMAN","cp":["12017"],"lat":"14.6667","lng":"-92.15"},{"country_code":"GT","state_code":"17","province_code":"","name":"OCOS","cp":["12018"],"lat":"14.5094","lng":"-92.1933"},{"country_code":"GT","state_code":"17","province_code":"","name":"SAN PABLO","cp":["12019"],"lat":"14.9333","lng":"-92"},{"country_code":"GT","state_code":"17","province_code":"","name":"EL QUETZAL","cp":["12020"],"lat":"14.7667","lng":"-91.8167"},{"country_code":"GT","state_code":"17","province_code":"","name":"LA REFORMA","cp":["12021"],"lat":"14.8","lng":"-91.8167"},{"country_code":"GT","state_code":"17","province_code":"","name":"PAJAPITA","cp":["12022"],"lat":"14.7167","lng":"-92.0333"},{"country_code":"GT","state_code":"17","province_code":"","name":"IXCHIGUAN","cp":["12023"],"lat":"15.2","lng":"-91.8833"},{"country_code":"GT","state_code":"17","province_code":"","name":"SAN JOSE OJETEPAN","cp":["12024"],"lat":"14.9229","lng":"-91.8208"},{"country_code":"GT","state_code":"17","province_code":"","name":"SAN CRISTOBAL CUCHO","cp":["12025"],"lat":"14.9","lng":"-91.7833"},{"country_code":"GT","state_code":"17","province_code":"","name":"SIPACANA","cp":["12026"],"lat":"14.9229","lng":"-91.8208"},{"country_code":"GT","state_code":"17","province_code":"","name":"ESQUIPULAS PALO GORDO","cp":["12027"],"lat":"14.9333","lng":"-91.8167"},{"country_code":"GT","state_code":"17","province_code":"","name":"RIO BLANCO","cp":["12028"],"lat":"15.0333","lng":"-91.6833"},{"country_code":"GT","state_code":"17","province_code":"","name":"SAN LORENZO","cp":["12029"],"lat":"15.0333","lng":"-91.7333"},{"country_code":"GT","state_code":"17","province_code":"","name":"EL CARMEN (MALACATAN)","cp":["12030"],"lat":"15.05","lng":"-91.8167"},{"country_code":"GT","state_code":"17","province_code":"","name":"ZANJON SAN LORENZO (TECUN UMAN)","cp":["12031"],"lat":"15.05","lng":"-91.8167"},{"country_code":"GT","state_code":"17","province_code":"","name":"SAN JERONIMO (EL TUMBADOR)","cp":["12032"],"lat":"15.05","lng":"-91.8167"},{"country_code":"GT","state_code":"17","province_code":"","name":"SERCHIL ( SAN MARCOS)","cp":["12033"],"lat":"15.0333","lng":"-91.8"},{"country_code":"GT","state_code":"17","province_code":"","name":"LA DEMOCRACIA (EL TUMBADOR)","cp":["12034"],"lat":"15.05","lng":"-91.8167"},{"country_code":"GT","state_code":"17","province_code":"","name":"SAN FRANCISCO ( EL RODEO)","cp":["12035"],"lat":"15.05","lng":"-91.8167"},{"country_code":"GT","state_code":"17","province_code":"","name":"EL AMPARO (EL TUMBADOR)","cp":["12036"],"lat":"15.05","lng":"-91.8167"},{"country_code":"GT","state_code":"17","province_code":"","name":"SAN SEBASTIAN (SAN MARCOS)","cp":["12037"],"lat":"15.0667","lng":"-91.8333"},{"country_code":"GT","state_code":"17","province_code":"","name":"LOS LIMINES (OCOS)","cp":["12038"],"lat":"15.05","lng":"-91.8167"},{"country_code":"GT","state_code":"17","province_code":"","name":"LA BLANCA (OCOS)","cp":["12039"],"lat":"15.05","lng":"-91.8167"},{"country_code":"GT","state_code":"17","province_code":"","name":"EL CIELO (EL TUMBADOR)","cp":["12040"],"lat":"14.9533","lng":"-91.8938"},{"country_code":"GT","state_code":"17","province_code":"","name":"SAN JOSE IXTAL (NUEVO PROGRESO)","cp":["12041"],"lat":"14.9533","lng":"-91.8938"},{"country_code":"GT","state_code":"17","province_code":"","name":"PLATANARES (OCOS)","cp":["12042"],"lat":"14.9533","lng":"-91.8938"},{"country_code":"GT","state_code":"17","province_code":"","name":"LAS DELICIAS (EL TUMBADOR)","cp":["12043"],"lat":"14.9533","lng":"-91.8938"},{"country_code":"GT","state_code":"17","province_code":"","name":"CALAPTE (IXCHIGUAN)","cp":["12044"],"lat":"14.9533","lng":"-91.8938"},{"country_code":"GT","state_code":"17","province_code":"","name":"TOCAHE(SAN PABLO)","cp":["12045"],"lat":"14.9533","lng":"-91.8938"},{"country_code":"GT","state_code":"17","province_code":"","name":"LA CONQUISTA (NUEVO PROGRESO)","cp":["12046"],"lat":"14.9533","lng":"-91.8938"},{"country_code":"GT","state_code":"17","province_code":"","name":"CHAMPOLLAP (SAN PEDRO SACATEPEQUEZ)","cp":["12047"],"lat":"14.9533","lng":"-91.8938"},{"country_code":"GT","state_code":"17","province_code":"","name":"PIEDRA GRANDE (SAN PEDRO SACATEPEQUEZ","cp":["12048"],"lat":"14.9533","lng":"-91.8938"},{"country_code":"GT","state_code":"17","province_code":"","name":"SANTA LUCIA IXCAMAL (SAN MARCOS)","cp":["12049"],"lat":"14.9533","lng":"-91.8938"},{"country_code":"GT","state_code":"17","province_code":"","name":"EL SITIO (CATARINA )","cp":["12050"],"lat":"14.9533","lng":"-91.8938"},{"country_code":"GT","state_code":"18","province_code":"","name":"DEPTO DE SANTA ROSA","cp":["06000"],"lat":"14.2605","lng":"-90.2946"},{"country_code":"GT","state_code":"18","province_code":"","name":"CUILAPA","cp":["06001"],"lat":"14.2764","lng":"-90.3003"},{"country_code":"GT","state_code":"18","province_code":"","name":"BARBERENA","cp":["06002"],"lat":"14.3094","lng":"-90.3611"},{"country_code":"GT","state_code":"18","province_code":"","name":"SANTA ROSA DE LIMA","cp":["06003"],"lat":"14.3881","lng":"-90.2956"},{"country_code":"GT","state_code":"18","province_code":"","name":"CASILLAS","cp":["06004"],"lat":"14.4222","lng":"-90.2442"},{"country_code":"GT","state_code":"18","province_code":"","name":"SAN RAFAEL LAS FLORES","cp":["06005"],"lat":"14.4814","lng":"-90.1733"},{"country_code":"GT","state_code":"18","province_code":"","name":"ORATORIO","cp":["06006"],"lat":"14.2281","lng":"-90.1758"},{"country_code":"GT","state_code":"18","province_code":"","name":"SAN JUAN TECUACO","cp":["06007"],"lat":"14.0822","lng":"-90.2611"},{"country_code":"GT","state_code":"18","province_code":"","name":"CHIQUIMULILLA","cp":["06008"],"lat":"14.0858","lng":"-90.3767"},{"country_code":"GT","state_code":"18","province_code":"","name":"TAXISCO","cp":["06009"],"lat":"14.0708","lng":"-90.4631"},{"country_code":"GT","state_code":"18","province_code":"","name":"SANTA MARIA IXHUATAN","cp":["06010"],"lat":"14.19","lng":"-90.2747"},{"country_code":"GT","state_code":"18","province_code":"","name":"GUAZACAPAN","cp":["06011"],"lat":"14.0742","lng":"-90.4167"},{"country_code":"GT","state_code":"18","province_code":"","name":"SANTA CRUZ NARANJO","cp":["06012"],"lat":"14.3881","lng":"-90.3697"},{"country_code":"GT","state_code":"18","province_code":"","name":"PUEBLO NUEVO VINAS","cp":["06013"],"lat":"14.2258","lng":"-90.4742"},{"country_code":"GT","state_code":"18","province_code":"","name":"NUEVA SANTA ROSA","cp":["06014"],"lat":"14.3811","lng":"-90.2761"},{"country_code":"GT","state_code":"18","province_code":"","name":"EL AHUMADO (CHIQUIMULILLA)","cp":["06015"],"lat":"14.2518","lng":"-90.3623"},{"country_code":"GT","state_code":"18","province_code":"","name":"LOS CERRITOS (CHIQUIMULILLA)","cp":["06016"],"lat":"14.2518","lng":"-90.3623"},{"country_code":"GT","state_code":"18","province_code":"","name":"CASAS VIEJAS (CHIQUIMULILLA)","cp":["06017"],"lat":"14.2518","lng":"-90.3623"},{"country_code":"GT","state_code":"18","province_code":"","name":"AYARZA (CASILLAS)","cp":["06018"],"lat":"14.2518","lng":"-90.3623"},{"country_code":"GT","state_code":"18","province_code":"","name":"EL MOLINO (CUILAPA)","cp":["06019"],"lat":"14.2518","lng":"-90.3623"},{"country_code":"GT","state_code":"18","province_code":"","name":"NANCINTA (CHIQUIMULILLA)","cp":["06020"],"lat":"14.2574","lng":"-90.3188"},{"country_code":"GT","state_code":"18","province_code":"","name":"SAN MIGUEL AROCHE (CHIQUIMULILLA)","cp":["06021"],"lat":"14.2574","lng":"-90.3188"},{"country_code":"GT","state_code":"18","province_code":"","name":"LOS ESCLAVOS (CUILAPA)","cp":["06022"],"lat":"14.2574","lng":"-90.3188"},{"country_code":"GT","state_code":"18","province_code":"","name":"EL SERINAL (BARBERENA)","cp":["06023"],"lat":"14.2574","lng":"-90.3188"},{"country_code":"GT","state_code":"18","province_code":"","name":"MONTERICO (TAXISCO)","cp":["06024"],"lat":"14.2574","lng":"-90.3188"},{"country_code":"GT","state_code":"18","province_code":"","name":"SAN JUAN DE ARANA (CUILAPA)","cp":["06025"],"lat":"14.2574","lng":"-90.3188"},{"country_code":"GT","state_code":"18","province_code":"","name":"EL RINCONCITO (SANTA ROSA DE LIMA)","cp":["06026"],"lat":"14.2574","lng":"-90.3188"},{"country_code":"GT","state_code":"18","province_code":"","name":"CERRO GORDO (SANTA ROSA DE LIMA)","cp":["06027"],"lat":"14.2574","lng":"-90.3188"},{"country_code":"GT","state_code":"19","province_code":"","name":"DEPTO DE SOLOLA","cp":["07000"],"lat":"14.7708","lng":"-91.2646"},{"country_code":"GT","state_code":"19","province_code":"","name":"SOLOLA","cp":["07001"],"lat":"14.7667","lng":"-91.1833"},{"country_code":"GT","state_code":"19","province_code":"","name":"SAN JOSE CHACAYA","cp":["07002"],"lat":"14.7667","lng":"-91.2167"},{"country_code":"GT","state_code":"19","province_code":"","name":"SANTA MARIA VISITACION","cp":["07003"],"lat":"14.7167","lng":"-91.3167"},{"country_code":"GT","state_code":"19","province_code":"","name":"SANTA LUCIA UTATLAN","cp":["07004"],"lat":"14.7667","lng":"-91.2667"},{"country_code":"GT","state_code":"19","province_code":"","name":"NAHUALA","cp":["07005"],"lat":"14.85","lng":"-91.3167"},{"country_code":"GT","state_code":"19","province_code":"","name":"SANTA CATARINA IXTAHUACAN","cp":["07006"],"lat":"14.8","lng":"-91.3667"},{"country_code":"GT","state_code":"19","province_code":"","name":"SANTA CLARA LA LAGUNA","cp":["07007"],"lat":"14.7167","lng":"-91.3"},{"country_code":"GT","state_code":"19","province_code":"","name":"CONCEPCION","cp":["07008"],"lat":"14.7833","lng":"-91.15"},{"country_code":"GT","state_code":"19","province_code":"","name":"SAN ANDRES SEMETATABAJ","cp":["07009"],"lat":"14.7708","lng":"-91.2646"},{"country_code":"GT","state_code":"19","province_code":"","name":"PANAJACHEL","cp":["07010"],"lat":"14.7333","lng":"-91.15"},{"country_code":"GT","state_code":"19","province_code":"","name":"SANTA CATARINA PALOPO","cp":["07011"],"lat":"14.7167","lng":"-91.1333"},{"country_code":"GT","state_code":"19","province_code":"","name":"SAN ANTONIO PALOPO","cp":["07012"],"lat":"14.7","lng":"-91.1167"},{"country_code":"GT","state_code":"19","province_code":"","name":"SAN LUCAS TOLIMAN","cp":["07013"],"lat":"14.6333","lng":"-91.1333"},{"country_code":"GT","state_code":"19","province_code":"","name":"SANTA CRUZ LA LAGUNA","cp":["07014"],"lat":"14.75","lng":"-91.2167"},{"country_code":"GT","state_code":"19","province_code":"","name":"SAN PABLO LA LAGUNA","cp":["07015"],"lat":"14.7167","lng":"-91.2667"},{"country_code":"GT","state_code":"19","province_code":"","name":"SAN MARCOS LA LAGUNA","cp":["07016"],"lat":"14.7167","lng":"-91.2667"},{"country_code":"GT","state_code":"19","province_code":"","name":"SAN JUAN LA LAGUNA","cp":["07017"],"lat":"14.7","lng":"-91.2833"},{"country_code":"GT","state_code":"19","province_code":"","name":"SAN PEDRO LA LAGUNA","cp":["07018"],"lat":"14.6833","lng":"-91.2667"},{"country_code":"GT","state_code":"19","province_code":"","name":"SANTIAGO ATITLAN","cp":["07019"],"lat":"14.6382","lng":"-91.229"},{"country_code":"GT","state_code":"19","province_code":"","name":"LOS ENCUENTROS SOLOLA","cp":["07020"],"lat":"14.85","lng":"-91.15"},{"country_code":"GT","state_code":"19","province_code":"","name":"GODINEZ (SAN ANDRES SEMETABAJ)","cp":["07021"],"lat":"14.8444","lng":"-91.1889"},{"country_code":"GT","state_code":"19","province_code":"","name":"AGUA ESCONDIDA ( SAN ANTONIO PALOPO)","cp":["07022"],"lat":"14.8444","lng":"-91.1889"},{"country_code":"GT","state_code":"19","province_code":"","name":"ARGUETA (SOLOLA)","cp":["07023"],"lat":"14.8167","lng":"-91.2333"},{"country_code":"GT","state_code":"19","province_code":"","name":"PIXABAJ (SOLOLA)","cp":["07024"],"lat":"14.8667","lng":"-91.1833"},{"country_code":"GT","state_code":"20","province_code":"","name":"DEPTO DE SUCHITEPEQUEZ","cp":["10000"],"lat":"14.5208","lng":"-91.4875"},{"country_code":"GT","state_code":"20","province_code":"","name":"MAZATENANGO","cp":["10001"],"lat":"14.5333","lng":"-91.5"},{"country_code":"GT","state_code":"20","province_code":"","name":"CUYOTENANGO","cp":["10002"],"lat":"14.5333","lng":"-91.5667"},{"country_code":"GT","state_code":"20","province_code":"","name":"SAN FRANCISCO ZAPOTITLAN","cp":["10003"],"lat":"14.5833","lng":"-91.5167"},{"country_code":"GT","state_code":"20","province_code":"","name":"SAN BERNARDINO","cp":["10004"],"lat":"14.5333","lng":"-91.45"},{"country_code":"GT","state_code":"20","province_code":"","name":"SAN JOSE EL IDOLO","cp":["10005"],"lat":"14.45","lng":"-91.4167"},{"country_code":"GT","state_code":"20","province_code":"","name":"SANTO DOMINGO SUCHITEPEQUEZ","cp":["10006"],"lat":"14.4667","lng":"-91.4833"},{"country_code":"GT","state_code":"20","province_code":"","name":"SAN LORENZO","cp":["10007"],"lat":"14.4833","lng":"-91.5167"},{"country_code":"GT","state_code":"20","province_code":"","name":"SAMAYAO","cp":["10008"],"lat":"14.5208","lng":"-91.4875"},{"country_code":"GT","state_code":"20","province_code":"","name":"SAN PABLO JOCOPILAS","cp":["10009"],"lat":"14.5833","lng":"-91.45"},{"country_code":"GT","state_code":"20","province_code":"","name":"SAN ANTONIO SUCHITEPEQUEZ","cp":["10010"],"lat":"14.5333","lng":"-91.4167"},{"country_code":"GT","state_code":"20","province_code":"","name":"SAN MIGUEL PANAN","cp":["10011"],"lat":"14.5333","lng":"-91.3667"},{"country_code":"GT","state_code":"20","province_code":"","name":"SAN GABRIEL","cp":["10012"],"lat":"14.5167","lng":"-91.5167"},{"country_code":"GT","state_code":"20","province_code":"","name":"CHICACAO","cp":["10013"],"lat":"14.5333","lng":"-91.3167"},{"country_code":"GT","state_code":"20","province_code":"","name":"PATULUL","cp":["10014"],"lat":"14.4167","lng":"-91.1667"},{"country_code":"GT","state_code":"20","province_code":"","name":"SANTA BARBARA","cp":["10015"],"lat":"14.4333","lng":"-91.2333"},{"country_code":"GT","state_code":"20","province_code":"","name":"SAN JUAN BAUTISTA","cp":["10016"],"lat":"14.4167","lng":"-91.1833"},{"country_code":"GT","state_code":"20","province_code":"","name":"SANTO TOMAS LA UNION","cp":["10017"],"lat":"14.6333","lng":"-91.3833"},{"country_code":"GT","state_code":"20","province_code":"","name":"ZUNULITO","cp":["10018"],"lat":"14.4778","lng":"-91.3278"},{"country_code":"GT","state_code":"20","province_code":"","name":"PUEBLO NUEVO","cp":["10019"],"lat":"14.2833","lng":"-91.3667"},{"country_code":"GT","state_code":"20","province_code":"","name":"RIO BRAVO","cp":["10020"],"lat":"14.4","lng":"-91.3167"},{"country_code":"GT","state_code":"20","province_code":"","name":"COCALES (PATULUL)","cp":["10021"],"lat":"14.4","lng":"-91.3167"},{"country_code":"GT","state_code":"20","province_code":"","name":"CHOCOLA (SAN PABLO JOCOPILAS)","cp":["10022"],"lat":"14.4","lng":"-91.3167"},{"country_code":"GT","state_code":"20","province_code":"","name":"TAHUEXCO (MAZATENANGO)","cp":["10023"],"lat":"14.4","lng":"-91.3167"},{"country_code":"GT","state_code":"20","province_code":"","name":"GUATALON (RIO BRAVO)","cp":["10024"],"lat":"14.4","lng":"-91.3167"},{"country_code":"GT","state_code":"20","province_code":"","name":"PALO GORDO (SAN ANTONIO SUCHITEPEQUEZ)","cp":["10025"],"lat":"14.4","lng":"-91.3167"},{"country_code":"GT","state_code":"20","province_code":"","name":"SAN RAFAEL PANAN (SANTA BARBARA)","cp":["10026"],"lat":"14.4","lng":"-91.3167"},{"country_code":"GT","state_code":"20","province_code":"","name":"BRACITOS (MAZATENANGO)","cp":["10027"],"lat":"14.4","lng":"-91.3167"},{"country_code":"GT","state_code":"20","province_code":"","name":"BOLIVIA (SANTO DOMINGO SUCHITEPEQUEZ)","cp":["10028"],"lat":"14.4","lng":"-91.3167"},{"country_code":"GT","state_code":"20","province_code":"","name":"MONTERREY (SANTO DOMINGO SUCHITEPEQUEZ)","cp":["10029"],"lat":"14.4","lng":"-91.3167"},{"country_code":"GT","state_code":"20","province_code":"","name":"LA MAQUINA (CUYOTENANGO)","cp":["10030"],"lat":"14.4926","lng":"-91.3981"},{"country_code":"GT","state_code":"21","province_code":"","name":"DEPTO DE TOTONICAPAN","cp":["08000"],"lat":"14.9962","lng":"-91.3953"},{"country_code":"GT","state_code":"21","province_code":"","name":"TOTONICAPAN","cp":["08001"],"lat":"14.9167","lng":"-91.3667"},{"country_code":"GT","state_code":"21","province_code":"","name":"SAN CRISTOBAL TOTONICAPAN","cp":["08002"],"lat":"14.9167","lng":"-91.4333"},{"country_code":"GT","state_code":"21","province_code":"","name":"SAN FRANCISCO EL ALTO","cp":["08003"],"lat":"14.95","lng":"-91.45"},{"country_code":"GT","state_code":"21","province_code":"","name":"SAN ANDRES XECUL","cp":["08004"],"lat":"14.9","lng":"-91.4833"},{"country_code":"GT","state_code":"21","province_code":"","name":"MOMOSTENANGO","cp":["08005"],"lat":"15.0436","lng":"-91.4086"},{"country_code":"GT","state_code":"21","province_code":"","name":"SANTA MARIA CHIQUIMULA","cp":["08006"],"lat":"15.0303","lng":"-91.3292"},{"country_code":"GT","state_code":"21","province_code":"","name":"SANTA LUCIA LA REFORMA","cp":["08007"],"lat":"15.1283","lng":"-91.2356"},{"country_code":"GT","state_code":"21","province_code":"","name":"SAN BARTOLO","cp":["08008"],"lat":"15.0844","lng":"-91.4558"},{"country_code":"GT","state_code":"22","province_code":"","name":"DEPTO DE ZACAPA","cp":["19000"],"lat":"14.9759","lng":"-89.6019"},{"country_code":"GT","state_code":"22","province_code":"","name":"ZACAPA","cp":["19001"],"lat":"14.9667","lng":"-89.5333"},{"country_code":"GT","state_code":"22","province_code":"","name":"ESTANZUELA","cp":["19002"],"lat":"15","lng":"-89.5667"},{"country_code":"GT","state_code":"22","province_code":"","name":"RIO HONDO","cp":["19003"],"lat":"15.0667","lng":"-89.5833"},{"country_code":"GT","state_code":"22","province_code":"","name":"GUALAN","cp":["19004"],"lat":"15.1333","lng":"-89.3667"},{"country_code":"GT","state_code":"22","province_code":"","name":"TECULUTAN","cp":["19005"],"lat":"14.9833","lng":"-89.7167"},{"country_code":"GT","state_code":"22","province_code":"","name":"USUMATLAN","cp":["19006"],"lat":"14.95","lng":"-89.7833"},{"country_code":"GT","state_code":"22","province_code":"","name":"CABANAS","cp":["19007"],"lat":"14.9333","lng":"-89.8"},{"country_code":"GT","state_code":"22","province_code":"","name":"SAN DIEGO","cp":["19008"],"lat":"14.7833","lng":"-89.7833"},{"country_code":"GT","state_code":"22","province_code":"","name":"LA UNION","cp":["19009"],"lat":"14.9667","lng":"-89.2833"},{"country_code":"GT","state_code":"22","province_code":"","name":"HUITE","cp":["19010"],"lat":"14.9333","lng":"-89.7167"},{"country_code":"GT","state_code":"22","province_code":"","name":"LA REFORMA (HUITE)","cp":["19011"],"lat":"14.95","lng":"-89.6028"},{"country_code":"GT","state_code":"22","province_code":"","name":"SAN JOSE (TECULUTAN)","cp":["19012"],"lat":"14.95","lng":"-89.6028"},{"country_code":"GT","state_code":"22","province_code":"","name":"SAN JORGE (ZACAPA)","cp":["19013"],"lat":"14.9333","lng":"-89.5833"},{"country_code":"GT","state_code":"22","province_code":"","name":"SANTA ROSALIA (ZACAPA)","cp":["19014"],"lat":"14.95","lng":"-89.6028"},{"country_code":"GT","state_code":"22","province_code":"","name":"SANTA LUCIA (ZACAPA)","cp":["19015"],"lat":"14.9167","lng":"-89.5167"},{"country_code":"GT","state_code":"22","province_code":"","name":"LA FRAGUA (ZACAPA)","cp":["19016"],"lat":"14.9667","lng":"-89.55"},{"country_code":"GT","state_code":"22","province_code":"","name":"SAN PABLO (ZACAPA)","cp":["19017"],"lat":"15.05","lng":"-89.5"},{"country_code":"GT","state_code":"22","province_code":"","name":"SAN VICENTE","cp":["19018"],"lat":"14.9","lng":"-89.75"}]