[{"country_code":"IE","state_code":"C","province_code":"","name":"Knock","cp":["F12"],"lat":"53.7939","lng":"-8.9196"},{"country_code":"IE","state_code":"C","province_code":"","name":"Castlebar","cp":["F23"],"lat":"53.85","lng":"-9.3"},{"country_code":"IE","state_code":"C","province_code":"","name":"Ballina","cp":["F26"],"lat":"54.1167","lng":"-9.1667"},{"country_code":"IE","state_code":"C","province_code":"","name":"Westport","cp":["F28"],"lat":"53.8","lng":"-9.5167"},{"country_code":"IE","state_code":"C","province_code":"","name":"Ballinrobe","cp":["F31"],"lat":"53.6333","lng":"-9.2333"},{"country_code":"IE","state_code":"C","province_code":"","name":"Ballyhaunis","cp":["F35"],"lat":"53.7667","lng":"-8.7667"},{"country_code":"IE","state_code":"C","province_code":"","name":"Roscommon","cp":["F42"],"lat":"53.6333","lng":"-8.1833"},{"country_code":"IE","state_code":"C","province_code":"","name":"Castlerea","cp":["F45"],"lat":"53.7667","lng":"-8.5"},{"country_code":"IE","state_code":"C","province_code":"","name":"Boyle","cp":["F52"],"lat":"53.9667","lng":"-8.3"},{"country_code":"IE","state_code":"C","province_code":"","name":"Ballymote","cp":["F56"],"lat":"54.0833","lng":"-8.5167"},{"country_code":"IE","state_code":"C","province_code":"","name":"Sligo","cp":["F91"],"lat":"54.2697","lng":"-8.4694"},{"country_code":"IE","state_code":"C","province_code":"","name":"Ballinasloe","cp":["H53"],"lat":"53.3275","lng":"-8.2194"},{"country_code":"IE","state_code":"C","province_code":"","name":"Tuam","cp":["H54"],"lat":"53.5167","lng":"-8.85"},{"country_code":"IE","state_code":"C","province_code":"","name":"Loughrea","cp":["H62"],"lat":"53.1969","lng":"-8.5669"},{"country_code":"IE","state_code":"C","province_code":"","name":"Athenry","cp":["H65"],"lat":"53.2964","lng":"-8.7431"},{"country_code":"IE","state_code":"C","province_code":"","name":"Clifden","cp":["H71"],"lat":"53.4891","lng":"-10.0191"},{"country_code":"IE","state_code":"C","province_code":"","name":"Galway","cp":["H91"],"lat":"53.2719","lng":"-9.0489"},{"country_code":"IE","state_code":"C","province_code":"","name":"Carrick On Shannon","cp":["N41"],"lat":"53.9469","lng":"-8.09"},{"country_code":"IE","state_code":"L","province_code":"","name":"Ballyboughal","cp":["A41"],"lat":"53.5195","lng":"-6.2667"},{"country_code":"IE","state_code":"L","province_code":"","name":"Garristown","cp":["A42"],"lat":"53.5661","lng":"-6.3856"},{"country_code":"IE","state_code":"L","province_code":"","name":"Oldtown","cp":["A45"],"lat":"53.5253","lng":"-6.3156"},{"country_code":"IE","state_code":"L","province_code":"","name":"Greystones","cp":["A63"],"lat":"53.1408","lng":"-6.0631"},{"country_code":"IE","state_code":"L","province_code":"","name":"Wicklow","cp":["A67"],"lat":"52.975","lng":"-6.0494"},{"country_code":"IE","state_code":"L","province_code":"","name":"Kells","cp":["A82"],"lat":"53.7264","lng":"-6.8792"},{"country_code":"IE","state_code":"L","province_code":"","name":"Enfield","cp":["A83"],"lat":"53.4142","lng":"-6.8323"},{"country_code":"IE","state_code":"L","province_code":"","name":"Ashbourne","cp":["A84"],"lat":"53.5116","lng":"-6.3982"},{"country_code":"IE","state_code":"L","province_code":"","name":"Dunshaughlin","cp":["A85"],"lat":"53.5125","lng":"-6.54"},{"country_code":"IE","state_code":"L","province_code":"","name":"Dunboyne","cp":["A86"],"lat":"53.4","lng":"-6.4667"},{"country_code":"IE","state_code":"L","province_code":"","name":"Dundalk","cp":["A91"],"lat":"54","lng":"-6.4167"},{"country_code":"IE","state_code":"L","province_code":"","name":"Drogheda","cp":["A92"],"lat":"53.7189","lng":"-6.3478"},{"country_code":"IE","state_code":"L","province_code":"","name":"Blackrock","cp":["A94"],"lat":"53.3015","lng":"-6.1778"},{"country_code":"IE","state_code":"L","province_code":"","name":"Dun Laoghaire","cp":["A96"],"lat":"53.294","lng":"-6.1359"},{"country_code":"IE","state_code":"L","province_code":"","name":"Bray","cp":["A98"],"lat":"53.2028","lng":"-6.0983"},{"country_code":"IE","state_code":"L","province_code":"","name":"Trim","cp":["C15"],"lat":"53.555","lng":"-6.7917"},{"country_code":"IE","state_code":"L","province_code":"","name":"Dublin 1","cp":["D01"],"lat":"53.354","lng":"-6.2545"},{"country_code":"IE","state_code":"L","province_code":"","name":"Dublin 2","cp":["D02"],"lat":"53.34","lng":"-6.2543"},{"country_code":"IE","state_code":"L","province_code":"","name":"Dublin 3","cp":["D03"],"lat":"53.3645","lng":"-6.2378"},{"country_code":"IE","state_code":"L","province_code":"","name":"Dublin 4","cp":["D04"],"lat":"53.3334","lng":"-6.2335"},{"country_code":"IE","state_code":"L","province_code":"","name":"Dublin 5","cp":["D05"],"lat":"53.3842","lng":"-6.1921"},{"country_code":"IE","state_code":"L","province_code":"","name":"Dublin 6","cp":["D06"],"lat":"53.3088","lng":"-6.2631"},{"country_code":"IE","state_code":"L","province_code":"","name":"Dublin 7","cp":["D07"],"lat":"53.3615","lng":"-6.2918"},{"country_code":"IE","state_code":"L","province_code":"","name":"Dublin 8","cp":["D08"],"lat":"53.3346","lng":"-6.2733"},{"country_code":"IE","state_code":"L","province_code":"","name":"Dublin 9","cp":["D09"],"lat":"53.3818","lng":"-6.2465"},{"country_code":"IE","state_code":"L","province_code":"","name":"Dublin 10","cp":["D10"],"lat":"53.3409","lng":"-6.3545"},{"country_code":"IE","state_code":"L","province_code":"","name":"Dublin 11","cp":["D11"],"lat":"53.3899","lng":"-6.293"},{"country_code":"IE","state_code":"L","province_code":"","name":"Dublin 12","cp":["D12"],"lat":"53.322","lng":"-6.3165"},{"country_code":"IE","state_code":"L","province_code":"","name":"Dublin 13","cp":["D13"],"lat":"53.3946","lng":"-6.1495"},{"country_code":"IE","state_code":"L","province_code":"","name":"Dublin 14","cp":["D14"],"lat":"53.296","lng":"-6.2593"},{"country_code":"IE","state_code":"L","province_code":"","name":"Dublin 15","cp":["D15"],"lat":"53.3832","lng":"-6.4165"},{"country_code":"IE","state_code":"L","province_code":"","name":"Dublin 16","cp":["D16"],"lat":"53.3419","lng":"-6.279"},{"country_code":"IE","state_code":"L","province_code":"","name":"Dublin 17","cp":["D17"],"lat":"53.4006","lng":"-6.2058"},{"country_code":"IE","state_code":"L","province_code":"","name":"Dublin 18","cp":["D18"],"lat":"53.2469","lng":"-6.1774"},{"country_code":"IE","state_code":"L","province_code":"","name":"Dublin 20","cp":["D20"],"lat":"53.3518","lng":"-6.3693"},{"country_code":"IE","state_code":"L","province_code":"","name":"Dublin 22","cp":["D22"],"lat":"53.3275","lng":"-6.4006"},{"country_code":"IE","state_code":"L","province_code":"","name":"Dublin 24","cp":["D24"],"lat":"53.2851","lng":"-6.3713"},{"country_code":"IE","state_code":"L","province_code":"","name":"Dublin 6W","cp":["D6W"],"lat":"53.3087","lng":"-6.3012"},{"country_code":"IE","state_code":"L","province_code":"","name":"Balbriggan","cp":["K32"],"lat":"53.6128","lng":"-6.1819"},{"country_code":"IE","state_code":"L","province_code":"","name":"Skerries","cp":["K34"],"lat":"53.5828","lng":"-6.1083"},{"country_code":"IE","state_code":"L","province_code":"","name":"Malahide","cp":["K36"],"lat":"53.4508","lng":"-6.1544"},{"country_code":"IE","state_code":"L","province_code":"","name":"Lusk","cp":["K45"],"lat":"53.5274","lng":"-6.1642"},{"country_code":"IE","state_code":"L","province_code":"","name":"Rush","cp":["K56"],"lat":"53.5242","lng":"-6.105"},{"country_code":"IE","state_code":"L","province_code":"","name":"Swords","cp":["K67"],"lat":"53.4597","lng":"-6.2181"},{"country_code":"IE","state_code":"L","province_code":"","name":"Lucan","cp":["K78"],"lat":"53.3574","lng":"-6.4486"},{"country_code":"IE","state_code":"L","province_code":"","name":"Athlone","cp":["N37"],"lat":"53.4228","lng":"-7.9372"},{"country_code":"IE","state_code":"L","province_code":"","name":"Longford","cp":["N39"],"lat":"53.7254","lng":"-7.7982"},{"country_code":"IE","state_code":"L","province_code":"","name":"Mullingar","cp":["N91"],"lat":"53.5333","lng":"-7.35"},{"country_code":"IE","state_code":"L","province_code":"","name":"Crookstown","cp":["P14"],"lat":"53.0153","lng":"-6.8106"},{"country_code":"IE","state_code":"L","province_code":"","name":"Athy","cp":["R14"],"lat":"52.9914","lng":"-6.9803"},{"country_code":"IE","state_code":"L","province_code":"","name":"Bagenalstown","cp":["R21"],"lat":"52.7003","lng":"-6.9618"},{"country_code":"IE","state_code":"L","province_code":"","name":"Portlaoise","cp":["R32"],"lat":"53.0344","lng":"-7.2998"},{"country_code":"IE","state_code":"L","province_code":"","name":"Tullamore","cp":["R35"],"lat":"53.2739","lng":"-7.4889"},{"country_code":"IE","state_code":"L","province_code":"","name":"Birr","cp":["R42"],"lat":"53.0914","lng":"-7.9133"},{"country_code":"IE","state_code":"L","province_code":"","name":"Edenderry","cp":["R45"],"lat":"53.3453","lng":"-7.0497"},{"country_code":"IE","state_code":"L","province_code":"","name":"Kildare","cp":["R51"],"lat":"53.1561","lng":"-6.9144"},{"country_code":"IE","state_code":"L","province_code":"","name":"Curragh","cp":["R56"],"lat":"53.1469","lng":"-6.8304"},{"country_code":"IE","state_code":"L","province_code":"","name":"Carlow","cp":["R93"],"lat":"52.8408","lng":"-6.9261"},{"country_code":"IE","state_code":"L","province_code":"","name":"Kilkenny","cp":["R95"],"lat":"52.6542","lng":"-7.2522"},{"country_code":"IE","state_code":"L","province_code":"","name":"Newbridge","cp":["W12"],"lat":"53.1819","lng":"-6.7967"},{"country_code":"IE","state_code":"L","province_code":"","name":"Maynooth","cp":["W23"],"lat":"53.385","lng":"-6.5936"},{"country_code":"IE","state_code":"L","province_code":"","name":"Monasterevin","cp":["W34"],"lat":"53.1406","lng":"-7.0664"},{"country_code":"IE","state_code":"L","province_code":"","name":"Naas","cp":["W91"],"lat":"53.2158","lng":"-6.6669"},{"country_code":"IE","state_code":"L","province_code":"","name":"Arklow","cp":["Y14"],"lat":"52.7931","lng":"-6.1414"},{"country_code":"IE","state_code":"L","province_code":"","name":"Enniscorthy","cp":["Y21"],"lat":"52.5008","lng":"-6.5578"},{"country_code":"IE","state_code":"L","province_code":"","name":"Gorey","cp":["Y25"],"lat":"52.6747","lng":"-6.2925"},{"country_code":"IE","state_code":"L","province_code":"","name":"New Ross","cp":["Y34"],"lat":"52.3967","lng":"-6.9367"},{"country_code":"IE","state_code":"L","province_code":"","name":"Wexford","cp":["Y35"],"lat":"52.3342","lng":"-6.4575"},{"country_code":"IE","state_code":"M","province_code":"","name":"Cahir","cp":["E21"],"lat":"52.3769","lng":"-7.9217"},{"country_code":"IE","state_code":"M","province_code":"","name":"Cashel","cp":["E25"],"lat":"52.5158","lng":"-7.8856"},{"country_code":"IE","state_code":"M","province_code":"","name":"Carrick on Suir","cp":["E32"],"lat":"52.3492","lng":"-7.4131"},{"country_code":"IE","state_code":"M","province_code":"","name":"Tipperary","cp":["E34"],"lat":"52.4733","lng":"-8.1558"},{"country_code":"IE","state_code":"M","province_code":"","name":"Thurles","cp":["E41"],"lat":"52.6819","lng":"-7.8022"},{"country_code":"IE","state_code":"M","province_code":"","name":"Nenagh","cp":["E45"],"lat":"52.8619","lng":"-8.1967"},{"country_code":"IE","state_code":"M","province_code":"","name":"Roscrea","cp":["E53"],"lat":"52.9511","lng":"-7.8017"},{"country_code":"IE","state_code":"M","province_code":"","name":"Clonmel","cp":["E91"],"lat":"52.355","lng":"-7.7039"},{"country_code":"IE","state_code":"M","province_code":"","name":"Macroom","cp":["P12"],"lat":"51.9","lng":"-8.95"},{"country_code":"IE","state_code":"M","province_code":"","name":"Kinsale","cp":["P17"],"lat":"51.7075","lng":"-8.5306"},{"country_code":"IE","state_code":"M","province_code":"","name":"Cobh","cp":["P24"],"lat":"51.8572","lng":"-8.2992"},{"country_code":"IE","state_code":"M","province_code":"","name":"Midleton","cp":["P25"],"lat":"51.9153","lng":"-8.1805"},{"country_code":"IE","state_code":"M","province_code":"","name":"Ballincollig","cp":["P31"],"lat":"51.8833","lng":"-8.5833"},{"country_code":"IE","state_code":"M","province_code":"","name":"Rylane","cp":["P32"],"lat":"51.9833","lng":"-8.8333"},{"country_code":"IE","state_code":"M","province_code":"","name":"Youghal","cp":["P36"],"lat":"51.95","lng":"-7.8506"},{"country_code":"IE","state_code":"M","province_code":"","name":"Carrigaline","cp":["P43"],"lat":"51.8117","lng":"-8.3986"},{"country_code":"IE","state_code":"M","province_code":"","name":"Dunmanway","cp":["P47"],"lat":"51.7167","lng":"-9.1167"},{"country_code":"IE","state_code":"M","province_code":"","name":"Mallow","cp":["P51"],"lat":"52.1333","lng":"-8.6333"},{"country_code":"IE","state_code":"M","province_code":"","name":"Charleville","cp":["P56"],"lat":"52.35","lng":"-8.6833"},{"country_code":"IE","state_code":"M","province_code":"","name":"Fermoy","cp":["P61"],"lat":"52.1358","lng":"-8.2758"},{"country_code":"IE","state_code":"M","province_code":"","name":"Mitchelstown","cp":["P67"],"lat":"52.2658","lng":"-8.2681"},{"country_code":"IE","state_code":"M","province_code":"","name":"Bandon","cp":["P72"],"lat":"51.7469","lng":"-8.7425"},{"country_code":"IE","state_code":"M","province_code":"","name":"Bantry","cp":["P75"],"lat":"51.6833","lng":"-9.45"},{"country_code":"IE","state_code":"M","province_code":"","name":"Skibbereen","cp":["P81"],"lat":"51.55","lng":"-9.2667"},{"country_code":"IE","state_code":"M","province_code":"","name":"Clonakilty","cp":["P85"],"lat":"51.6231","lng":"-8.8706"},{"country_code":"IE","state_code":"M","province_code":"","name":"Cork city southside","cp":["T12"],"lat":"51.8728","lng":"-8.4902"},{"country_code":"IE","state_code":"M","province_code":"","name":"Cork city northside","cp":["T23"],"lat":"51.8972","lng":"-8.4702"},{"country_code":"IE","state_code":"M","province_code":"","name":"Carrignavar","cp":["T34"],"lat":"51.9886","lng":"-8.4797"},{"country_code":"IE","state_code":"M","province_code":"","name":"Glanmire","cp":["T45"],"lat":"51.9158","lng":"-8.3997"},{"country_code":"IE","state_code":"M","province_code":"","name":"Watergrasshill","cp":["T56"],"lat":"52.0114","lng":"-8.3442"},{"country_code":"IE","state_code":"M","province_code":"","name":"Shannon","cp":["V14"],"lat":"52.7039","lng":"-8.8642"},{"country_code":"IE","state_code":"M","province_code":"","name":"Kilrush","cp":["V15"],"lat":"52.6397","lng":"-9.4833"},{"country_code":"IE","state_code":"M","province_code":"","name":"Caherciveen","cp":["V23"],"lat":"51.9486","lng":"-10.2222"},{"country_code":"IE","state_code":"M","province_code":"","name":"Listowel","cp":["V31"],"lat":"52.4464","lng":"-9.485"},{"country_code":"IE","state_code":"M","province_code":"","name":"Kilmallock","cp":["V35"],"lat":"52.4","lng":"-8.5772"},{"country_code":"IE","state_code":"M","province_code":"","name":"Newcastle West","cp":["V42"],"lat":"52.4492","lng":"-9.0611"},{"country_code":"IE","state_code":"M","province_code":"","name":"Tralee","cp":["V92"],"lat":"52.2704","lng":"-9.7026"},{"country_code":"IE","state_code":"M","province_code":"","name":"Kenmare","cp":["V93"],"lat":"51.8833","lng":"-9.5833"},{"country_code":"IE","state_code":"M","province_code":"","name":"Limerick","cp":["V94"],"lat":"52.6647","lng":"-8.6231"},{"country_code":"IE","state_code":"M","province_code":"","name":"Miltown Malbay","cp":["V95"],"lat":"52.8553","lng":"-9.3983"},{"country_code":"IE","state_code":"M","province_code":"","name":"Dungarvan","cp":["X35"],"lat":"52.0881","lng":"-7.6253"},{"country_code":"IE","state_code":"M","province_code":"","name":"Kilmacthomas","cp":["X42"],"lat":"52.2097","lng":"-7.4258"},{"country_code":"IE","state_code":"M","province_code":"","name":"Waterford","cp":["X91"],"lat":"52.2583","lng":"-7.1119"},{"country_code":"IE","state_code":"U","province_code":"","name":"Castleblayney","cp":["A75"],"lat":"54.1167","lng":"-6.7333"},{"country_code":"IE","state_code":"U","province_code":"","name":"Carrickmacross","cp":["A81"],"lat":"53.9728","lng":"-6.7189"},{"country_code":"IE","state_code":"U","province_code":"","name":"Letterkenny","cp":["F92"],"lat":"54.95","lng":"-7.7333"},{"country_code":"IE","state_code":"U","province_code":"","name":"Lifford","cp":["F93"],"lat":"54.8319","lng":"-7.4836"},{"country_code":"IE","state_code":"U","province_code":"","name":"Bundoran","cp":["F94"],"lat":"54.4778","lng":"-8.2809"},{"country_code":"IE","state_code":"U","province_code":"","name":"Cavan","cp":["H12"],"lat":"53.9908","lng":"-7.3606"},{"country_code":"IE","state_code":"U","province_code":"","name":"Belturbet","cp":["H14"],"lat":"54.1","lng":"-7.45"},{"country_code":"IE","state_code":"U","province_code":"","name":"Cootehill","cp":["H16"],"lat":"54.0725","lng":"-7.0819"},{"country_code":"IE","state_code":"U","province_code":"","name":"Monaghan","cp":["H18"],"lat":"54.25","lng":"-6.9667"},{"country_code":"IE","state_code":"U","province_code":"","name":"Clones","cp":["H23"],"lat":"54.1833","lng":"-7.2333"}]