[{"country_code":"IM","state_code":"","province_code":"IOM","name":"Douglas","cp":["IM1"],"lat":"54.1515","lng":"-4.4819"},{"country_code":"IM","state_code":"","province_code":"IOM","name":"Onchan","cp":["IM3"],"lat":"54.173","lng":"-4.447"},{"country_code":"IM","state_code":"","province_code":"IOM","name":"Hillberry","cp":["IM4"],"lat":"54.1929","lng":"-4.4832"},{"country_code":"IM","state_code":"","province_code":"IOM","name":"Stuggadhoo","cp":["IM4"],"lat":"54.1929","lng":"-4.4832"},{"country_code":"IM","state_code":"","province_code":"IOM","name":"Eairy","cp":["IM4"],"lat":"54.1929","lng":"-4.4832"},{"country_code":"IM","state_code":"","province_code":"IOM","name":"Foxdale","cp":["IM4"],"lat":"54.1929","lng":"-4.4832"},{"country_code":"IM","state_code":"","province_code":"IOM","name":"Baldwin","cp":["IM4"],"lat":"54.1929","lng":"-4.4832"},{"country_code":"IM","state_code":"","province_code":"IOM","name":"Garth","cp":["IM4"],"lat":"54.1929","lng":"-4.4832"},{"country_code":"IM","state_code":"","province_code":"IOM","name":"Baldrine","cp":["IM4"],"lat":"54.1929","lng":"-4.4832"},{"country_code":"IM","state_code":"","province_code":"IOM","name":"Quine's Hill","cp":["IM4"],"lat":"54.1929","lng":"-4.4832"},{"country_code":"IM","state_code":"","province_code":"IOM","name":"Ballaveare","cp":["IM4"],"lat":"54.1929","lng":"-4.4832"},{"country_code":"IM","state_code":"","province_code":"IOM","name":"Strang","cp":["IM4"],"lat":"54.1929","lng":"-4.4832"},{"country_code":"IM","state_code":"","province_code":"IOM","name":"Injebreck","cp":["IM4"],"lat":"54.1929","lng":"-4.4832"},{"country_code":"IM","state_code":"","province_code":"IOM","name":"Ballig","cp":["IM4"],"lat":"54.1929","lng":"-4.4832"},{"country_code":"IM","state_code":"","province_code":"IOM","name":"St John's","cp":["IM4"],"lat":"54.1929","lng":"-4.4832"},{"country_code":"IM","state_code":"","province_code":"IOM","name":"Ballacannell","cp":["IM4"],"lat":"54.1929","lng":"-4.4832"},{"country_code":"IM","state_code":"","province_code":"IOM","name":"Crosby","cp":["IM4"],"lat":"54.1929","lng":"-4.4832"},{"country_code":"IM","state_code":"","province_code":"IOM","name":"Glen Vine","cp":["IM4"],"lat":"54.1929","lng":"-4.4832"},{"country_code":"IM","state_code":"","province_code":"IOM","name":"Laxey","cp":["IM4"],"lat":"54.1929","lng":"-4.4832"},{"country_code":"IM","state_code":"","province_code":"IOM","name":"Braaid","cp":["IM4"],"lat":"54.1929","lng":"-4.4832"},{"country_code":"IM","state_code":"","province_code":"IOM","name":"Newtown","cp":["IM4"],"lat":"54.1929","lng":"-4.4832"},{"country_code":"IM","state_code":"","province_code":"IOM","name":"Union Mills","cp":["IM4"],"lat":"54.1929","lng":"-4.4832"},{"country_code":"IM","state_code":"","province_code":"IOM","name":"Lambfell Moar","cp":["IM4"],"lat":"54.1929","lng":"-4.4832"},{"country_code":"IM","state_code":"","province_code":"IOM","name":"Glenmaye","cp":["IM5"],"lat":"54.1694","lng":"-4.7276"},{"country_code":"IM","state_code":"","province_code":"IOM","name":"Dalby","cp":["IM5"],"lat":"54.1694","lng":"-4.7276"},{"country_code":"IM","state_code":"","province_code":"IOM","name":"Ballagyr","cp":["IM5"],"lat":"54.1694","lng":"-4.7276"},{"country_code":"IM","state_code":"","province_code":"IOM","name":"Peel","cp":["IM5"],"lat":"54.1694","lng":"-4.7276"},{"country_code":"IM","state_code":"","province_code":"IOM","name":"Patrick","cp":["IM5"],"lat":"54.1694","lng":"-4.7276"},{"country_code":"IM","state_code":"","province_code":"IOM","name":"Knockaloe Moar","cp":["IM5"],"lat":"54.1694","lng":"-4.7276"},{"country_code":"IM","state_code":"","province_code":"IOM","name":"Knocksharry","cp":["IM5"],"lat":"54.1694","lng":"-4.7276"},{"country_code":"IM","state_code":"","province_code":"IOM","name":"Kirk Michael","cp":["IM6"],"lat":"54.2801","lng":"-4.5858"},{"country_code":"IM","state_code":"","province_code":"IOM","name":"Ballacarnane Beg","cp":["IM6"],"lat":"54.2801","lng":"-4.5858"},{"country_code":"IM","state_code":"","province_code":"IOM","name":"Orrisdale","cp":["IM6"],"lat":"54.2801","lng":"-4.5858"},{"country_code":"IM","state_code":"","province_code":"IOM","name":"Barregarrow","cp":["IM6"],"lat":"54.2801","lng":"-4.5858"},{"country_code":"IM","state_code":"","province_code":"IOM","name":"Cronk-y-Voddy","cp":["IM6"],"lat":"54.2801","lng":"-4.5858"},{"country_code":"IM","state_code":"","province_code":"IOM","name":"Little London","cp":["IM6"],"lat":"54.2801","lng":"-4.5858"},{"country_code":"IM","state_code":"","province_code":"IOM","name":"Shoughlaige-e-Caine","cp":["IM6"],"lat":"54.2801","lng":"-4.5858"},{"country_code":"IM","state_code":"","province_code":"IOM","name":"The Cronk","cp":["IM7"],"lat":"54.3815","lng":"-4.4273"},{"country_code":"IM","state_code":"","province_code":"IOM","name":"Sandygate","cp":["IM7"],"lat":"54.3815","lng":"-4.4273"},{"country_code":"IM","state_code":"","province_code":"IOM","name":"Ballajora","cp":["IM7"],"lat":"54.3815","lng":"-4.4273"},{"country_code":"IM","state_code":"","province_code":"IOM","name":"Glen Auldyn","cp":["IM7"],"lat":"54.3815","lng":"-4.4273"},{"country_code":"IM","state_code":"","province_code":"IOM","name":"Port e Vullen","cp":["IM7"],"lat":"54.3815","lng":"-4.4273"},{"country_code":"IM","state_code":"","province_code":"IOM","name":"Dhoor","cp":["IM7"],"lat":"54.3815","lng":"-4.4273"},{"country_code":"IM","state_code":"","province_code":"IOM","name":"Dhowin","cp":["IM7"],"lat":"54.3815","lng":"-4.4273"},{"country_code":"IM","state_code":"","province_code":"IOM","name":"Dreemskerry","cp":["IM7"],"lat":"54.3815","lng":"-4.4273"},{"country_code":"IM","state_code":"","province_code":"IOM","name":"Maughold","cp":["IM7"],"lat":"54.3815","lng":"-4.4273"},{"country_code":"IM","state_code":"","province_code":"IOM","name":"Regaby","cp":["IM7"],"lat":"54.3815","lng":"-4.4273"},{"country_code":"IM","state_code":"","province_code":"IOM","name":"Jurby East","cp":["IM7"],"lat":"54.3815","lng":"-4.4273"},{"country_code":"IM","state_code":"","province_code":"IOM","name":"Smeale","cp":["IM7"],"lat":"54.3815","lng":"-4.4273"},{"country_code":"IM","state_code":"","province_code":"IOM","name":"Jurby West","cp":["IM7"],"lat":"54.3815","lng":"-4.4273"},{"country_code":"IM","state_code":"","province_code":"IOM","name":"Glentruan","cp":["IM7"],"lat":"54.3815","lng":"-4.4273"},{"country_code":"IM","state_code":"","province_code":"IOM","name":"Sartfield","cp":["IM7"],"lat":"54.3815","lng":"-4.4273"},{"country_code":"IM","state_code":"","province_code":"IOM","name":"Ravensdale","cp":["IM7"],"lat":"54.3815","lng":"-4.4273"},{"country_code":"IM","state_code":"","province_code":"IOM","name":"Corrany","cp":["IM7"],"lat":"54.3815","lng":"-4.4273"},{"country_code":"IM","state_code":"","province_code":"IOM","name":"Bride","cp":["IM7"],"lat":"54.3815","lng":"-4.4273"},{"country_code":"IM","state_code":"","province_code":"IOM","name":"The Lhen","cp":["IM7"],"lat":"54.3815","lng":"-4.4273"},{"country_code":"IM","state_code":"","province_code":"IOM","name":"Ballasalla","cp":["IM7"],"lat":"54.3815","lng":"-4.4273"},{"country_code":"IM","state_code":"","province_code":"IOM","name":"Sulby","cp":["IM7"],"lat":"54.3815","lng":"-4.4273"},{"country_code":"IM","state_code":"","province_code":"IOM","name":"Andreas","cp":["IM7"],"lat":"54.3815","lng":"-4.4273"},{"country_code":"IM","state_code":"","province_code":"IOM","name":"Crawyn","cp":["IM7"],"lat":"54.3815","lng":"-4.4273"},{"country_code":"IM","state_code":"","province_code":"IOM","name":"Cranstal","cp":["IM7"],"lat":"54.3815","lng":"-4.4273"},{"country_code":"IM","state_code":"","province_code":"IOM","name":"Ballaugh","cp":["IM7"],"lat":"54.3815","lng":"-4.4273"},{"country_code":"IM","state_code":"","province_code":"IOM","name":"Churchtown","cp":["IM7"],"lat":"54.3815","lng":"-4.4273"},{"country_code":"IM","state_code":"","province_code":"IOM","name":"St Judes","cp":["IM7"],"lat":"54.3815","lng":"-4.4273"},{"country_code":"IM","state_code":"","province_code":"IOM","name":"Dhoon","cp":["IM7"],"lat":"54.3815","lng":"-4.4273"},{"country_code":"IM","state_code":"","province_code":"IOM","name":"Ramsey","cp":["IM8"],"lat":"54.2948","lng":"-4.3895"},{"country_code":"IM","state_code":"","province_code":"IOM","name":"Castletown","cp":["IM9"],"lat":"54.0951","lng":"-4.6929"},{"country_code":"IM","state_code":"","province_code":"IOM","name":"Port Erin","cp":["IM9"],"lat":"54.0951","lng":"-4.6929"},{"country_code":"IM","state_code":"","province_code":"IOM","name":"Balladoole","cp":["IM9"],"lat":"54.0951","lng":"-4.6929"},{"country_code":"IM","state_code":"","province_code":"IOM","name":"Lingague","cp":["IM9"],"lat":"54.0951","lng":"-4.6929"},{"country_code":"IM","state_code":"","province_code":"IOM","name":"Croit e Caley","cp":["IM9"],"lat":"54.0951","lng":"-4.6929"},{"country_code":"IM","state_code":"","province_code":"IOM","name":"Cregneish","cp":["IM9"],"lat":"54.0951","lng":"-4.6929"},{"country_code":"IM","state_code":"","province_code":"IOM","name":"Colby","cp":["IM9"],"lat":"54.0951","lng":"-4.6929"},{"country_code":"IM","state_code":"","province_code":"IOM","name":"Ballamodha","cp":["IM9"],"lat":"54.0951","lng":"-4.6929"},{"country_code":"IM","state_code":"","province_code":"IOM","name":"Port St Mary","cp":["IM9"],"lat":"54.0951","lng":"-4.6929"},{"country_code":"IM","state_code":"","province_code":"IOM","name":"Ronague","cp":["IM9"],"lat":"54.0951","lng":"-4.6929"},{"country_code":"IM","state_code":"","province_code":"IOM","name":"The Howe","cp":["IM9"],"lat":"54.0951","lng":"-4.6929"},{"country_code":"IM","state_code":"","province_code":"IOM","name":"St Mark's","cp":["IM9"],"lat":"54.0951","lng":"-4.6929"},{"country_code":"IM","state_code":"","province_code":"IOM","name":"Grenaby","cp":["IM9"],"lat":"54.0951","lng":"-4.6929"},{"country_code":"IM","state_code":"","province_code":"IOM","name":"Ballasalla","cp":["IM9"],"lat":"54.0951","lng":"-4.6929"},{"country_code":"IM","state_code":"","province_code":"IOM","name":"Bradda","cp":["IM9"],"lat":"54.0951","lng":"-4.6929"},{"country_code":"IM","state_code":"","province_code":"IOM","name":"Ballakilpheric","cp":["IM9"],"lat":"54.0951","lng":"-4.6929"},{"country_code":"IM","state_code":"","province_code":"IOM","name":"Close Clark","cp":["IM9"],"lat":"54.0951","lng":"-4.6929"},{"country_code":"IM","state_code":"","province_code":"IOM","name":"Ballabeg","cp":["IM9"],"lat":"54.0951","lng":"-4.6929"},{"country_code":"IM","state_code":"","province_code":"IOM","name":"Derbyhaven","cp":["IM9"],"lat":"54.0951","lng":"-4.6929"},{"country_code":"IM","state_code":"","province_code":"IOM","name":"Ballafesson","cp":["IM9"],"lat":"54.0951","lng":"-4.6929"},{"country_code":"IM","state_code":"","province_code":"","name":"Douglas","cp":["IM2"],"lat":"54.15","lng":"-4.4833"}]