[{"country_code":"NZ","state_code":"E7","province_code":"","name":"Blockhouse Bay","cp":["0600"],"lat":"-36.9182","lng":"174.7002"},{"country_code":"NZ","state_code":"E7","province_code":"","name":"Kelston","cp":["0602"],"lat":"-36.8982","lng":"174.6602"},{"country_code":"NZ","state_code":"E7","province_code":"","name":"Huia","cp":["0604"],"lat":"-36.9983","lng":"174.5667"},{"country_code":"NZ","state_code":"E7","province_code":"","name":"Te Atatu South","cp":["0610"],"lat":"-36.8647","lng":"174.6477"},{"country_code":"NZ","state_code":"E7","province_code":"","name":"McLaren Park","cp":["0612"],"lat":"-36.8882","lng":"174.6102"},{"country_code":"NZ","state_code":"E7","province_code":"","name":"Swanson","cp":["0614"],"lat":"-36.8667","lng":"174.5833"},{"country_code":"NZ","state_code":"E7","province_code":"","name":"Hobsonville","cp":["0618"],"lat":"-36.8","lng":"174.6667"},{"country_code":"NZ","state_code":"E7","province_code":"","name":"Forrest Hill","cp":["0620"],"lat":"-36.7645","lng":"174.7477"},{"country_code":"NZ","state_code":"E7","province_code":"","name":"Belmont","cp":["0622"],"lat":"-36.8075","lng":"174.7864"},{"country_code":"NZ","state_code":"E7","province_code":"","name":"Devonport","cp":["0624"],"lat":"-36.8282","lng":"174.7902"},{"country_code":"NZ","state_code":"E7","province_code":"","name":"Chatswood","cp":["0626"],"lat":"-36.8184","lng":"174.7098"},{"country_code":"NZ","state_code":"E7","province_code":"","name":"North Shore","cp":["0627"],"lat":"-36.8","lng":"174.75"},{"country_code":"NZ","state_code":"E7","province_code":"","name":"Marlborough","cp":["0629"],"lat":"-36.7782","lng":"174.7202"},{"country_code":"NZ","state_code":"E7","province_code":"","name":"Browns Bay","cp":["0630"],"lat":"-36.7193","lng":"174.7367"},{"country_code":"NZ","state_code":"E7","province_code":"","name":"Greenhithe","cp":["0632"],"lat":"-36.7667","lng":"174.6833"},{"country_code":"NZ","state_code":"E7","province_code":"","name":"New Lynn","cp":["0640"],"lat":"-36.9069","lng":"174.687"},{"country_code":"NZ","state_code":"E7","province_code":"","name":"Glen Eden","cp":["0641"],"lat":"-36.9167","lng":"174.65"},{"country_code":"NZ","state_code":"E7","province_code":"","name":"Titirangi","cp":["0642"],"lat":"-36.9375","lng":"174.6558"},{"country_code":"NZ","state_code":"E7","province_code":"","name":"Green Bay","cp":["0643"],"lat":"-36.931","lng":"174.6749"},{"country_code":"NZ","state_code":"E7","province_code":"","name":"Blockhouse Bay","cp":["0644"],"lat":"-36.9182","lng":"174.7002"},{"country_code":"NZ","state_code":"E7","province_code":"","name":"Glendene","cp":["0645"],"lat":"-36.8882","lng":"174.6402"},{"country_code":"NZ","state_code":"E7","province_code":"","name":"Sunnyvale","cp":["0650"],"lat":"-36.8882","lng":"174.6302"},{"country_code":"NZ","state_code":"E7","province_code":"","name":"Te Atatu","cp":["0651"],"lat":"-36.8333","lng":"174.65"},{"country_code":"NZ","state_code":"E7","province_code":"","name":"Te Atatu South","cp":["0652"],"lat":"-36.8647","lng":"174.6477"},{"country_code":"NZ","state_code":"E7","province_code":"","name":"Swanson","cp":["0653"],"lat":"-36.8667","lng":"174.5833"},{"country_code":"NZ","state_code":"E7","province_code":"","name":"Te Atatu South","cp":["0654"],"lat":"-36.8647","lng":"174.6477"},{"country_code":"NZ","state_code":"E7","province_code":"","name":"Swanson","cp":["0655"],"lat":"-36.8667","lng":"174.5833"},{"country_code":"NZ","state_code":"E7","province_code":"","name":"Massey East","cp":["0656"],"lat":"-36.8282","lng":"174.6202"},{"country_code":"NZ","state_code":"E7","province_code":"","name":"West Harbour","cp":["0657"],"lat":"-36.8182","lng":"174.6102"},{"country_code":"NZ","state_code":"E7","province_code":"","name":"Waitakere","cp":["0660"],"lat":"-36.8513","lng":"174.5448"},{"country_code":"NZ","state_code":"E7","province_code":"","name":"Te Atatu Peninsula","cp":["0661"],"lat":"-36.841","lng":"174.6522"},{"country_code":"NZ","state_code":"E7","province_code":"","name":"Brighams Creek","cp":["0662"],"lat":"-36.7833","lng":"174.6"},{"country_code":"NZ","state_code":"E7","province_code":"","name":"Massey East","cp":["0663"],"lat":"-36.8282","lng":"174.6202"},{"country_code":"NZ","state_code":"E7","province_code":"","name":"Hauraki","cp":["0740"],"lat":"-36.7996","lng":"174.778"},{"country_code":"NZ","state_code":"E7","province_code":"","name":"Milford","cp":["0741"],"lat":"-36.7716","lng":"174.7659"},{"country_code":"NZ","state_code":"E7","province_code":"","name":"Torbay","cp":["0742"],"lat":"-36.696","lng":"174.7512"},{"country_code":"NZ","state_code":"E7","province_code":"","name":"Forrest Hill","cp":["0743"],"lat":"-36.7645","lng":"174.7477"},{"country_code":"NZ","state_code":"E7","province_code":"","name":"Devonport","cp":["0744"],"lat":"-36.7775","lng":"174.7399"},{"country_code":"NZ","state_code":"E7","province_code":"","name":"Glenfield","cp":["0745"],"lat":"-36.7826","lng":"174.7211"},{"country_code":"NZ","state_code":"E7","province_code":"","name":"Birkenhead","cp":["0746"],"lat":"-36.8082","lng":"174.7202"},{"country_code":"NZ","state_code":"E7","province_code":"","name":"Marlborough","cp":["0747"],"lat":"-36.7782","lng":"174.7202"},{"country_code":"NZ","state_code":"E7","province_code":"","name":"North Shore","cp":["0748"],"lat":"-36.8","lng":"174.75"},{"country_code":"NZ","state_code":"E7","province_code":"","name":"Birkdale","cp":["0749"],"lat":"-36.7972","lng":"174.7046"},{"country_code":"NZ","state_code":"E7","province_code":"","name":"Takapuna","cp":["0750"],"lat":"-36.7917","lng":"174.7758"},{"country_code":"NZ","state_code":"E7","province_code":"","name":"Glenfield","cp":["0751"],"lat":"-36.7826","lng":"174.7211"},{"country_code":"NZ","state_code":"E7","province_code":"","name":"Albany","cp":["0752"],"lat":"-36.7167","lng":"174.7"},{"country_code":"NZ","state_code":"E7","province_code":"","name":"Browns Bay","cp":["0753"],"lat":"-36.7193","lng":"174.7367"},{"country_code":"NZ","state_code":"E7","province_code":"","name":"Mairangi Bay","cp":["0754"],"lat":"-36.7381","lng":"174.752"},{"country_code":"NZ","state_code":"E7","province_code":"","name":"Albany","cp":["0755"],"lat":"-36.7167","lng":"174.7"},{"country_code":"NZ","state_code":"E7","province_code":"","name":"Paremoremo","cp":["0756"],"lat":"-36.7667","lng":"174.6667"},{"country_code":"NZ","state_code":"E7","province_code":"","name":"Forrest Hill","cp":["0757"],"lat":"-36.7645","lng":"174.7477"},{"country_code":"NZ","state_code":"E7","province_code":"","name":"Mairangi Bay","cp":["0758"],"lat":"-36.7381","lng":"174.752"},{"country_code":"NZ","state_code":"E7","province_code":"","name":"Karekare","cp":["0772"],"lat":"-36.9833","lng":"174.4833"},{"country_code":"NZ","state_code":"E7","province_code":"","name":"Piha","cp":["0781"],"lat":"-36.95","lng":"174.4667"},{"country_code":"NZ","state_code":"E7","province_code":"","name":"Waitakere","cp":["0782"],"lat":"-36.8513","lng":"174.5448"},{"country_code":"NZ","state_code":"E7","province_code":"","name":"Red Vale","cp":["0792"],"lat":"-36.6833","lng":"174.7"},{"country_code":"NZ","state_code":"E7","province_code":"","name":"Coatesville","cp":["0793"],"lat":"-36.7167","lng":"174.65"},{"country_code":"NZ","state_code":"E7","province_code":"","name":"Dairy Flat","cp":["0794"],"lat":"-36.6667","lng":"174.65"},{"country_code":"NZ","state_code":"E7","province_code":"","name":"Helensville","cp":["0800"],"lat":"-36.6782","lng":"174.4502"},{"country_code":"NZ","state_code":"E7","province_code":"","name":"Huapai","cp":["0810"],"lat":"-36.7667","lng":"174.55"},{"country_code":"NZ","state_code":"E7","province_code":"","name":"Waimauku","cp":["0812"],"lat":"-36.75","lng":"174.5"},{"country_code":"NZ","state_code":"E7","province_code":"","name":"West Harbour","cp":["0814"],"lat":"-36.8182","lng":"174.6102"},{"country_code":"NZ","state_code":"E7","province_code":"","name":"Riverhead","cp":["0820"],"lat":"-36.75","lng":"174.6"},{"country_code":"NZ","state_code":"E7","province_code":"","name":"Parakai","cp":["0830"],"lat":"-36.65","lng":"174.4333"},{"country_code":"NZ","state_code":"E7","province_code":"","name":"Helensville","cp":["0840"],"lat":"-36.6782","lng":"174.4502"},{"country_code":"NZ","state_code":"E7","province_code":"","name":"Huapai","cp":["0841"],"lat":"-36.7667","lng":"174.55"},{"country_code":"NZ","state_code":"E7","province_code":"","name":"Pahitoa","cp":["0842"],"lat":"-36.7833","lng":"174.4833"},{"country_code":"NZ","state_code":"E7","province_code":"","name":"Kaukapakapa","cp":["0843","0871"],"lat":"-36.6167","lng":"174.5"},{"country_code":"NZ","state_code":"E7","province_code":"","name":"Parakakau","cp":["0873"],"lat":"-36.5833","lng":"174.6"},{"country_code":"NZ","state_code":"E7","province_code":"","name":"Parkhurst","cp":["0874"],"lat":"-36.65","lng":"174.4"},{"country_code":"NZ","state_code":"E7","province_code":"","name":"Helensville","cp":["0875"],"lat":"-36.6782","lng":"174.4502"},{"country_code":"NZ","state_code":"E7","province_code":"","name":"Woodhill","cp":["0881"],"lat":"-36.75","lng":"174.4333"},{"country_code":"NZ","state_code":"E7","province_code":"","name":"Waimauku","cp":["0882"],"lat":"-36.75","lng":"174.5"},{"country_code":"NZ","state_code":"E7","province_code":"","name":"Pahitoa","cp":["0883"],"lat":"-36.7833","lng":"174.4833"},{"country_code":"NZ","state_code":"E7","province_code":"","name":"Huapai","cp":["0891"],"lat":"-36.7667","lng":"174.55"},{"country_code":"NZ","state_code":"E7","province_code":"","name":"Kumeu","cp":["0892"],"lat":"-36.7667","lng":"174.5667"},{"country_code":"NZ","state_code":"E7","province_code":"","name":"Wellsford","cp":["0900"],"lat":"-36.2833","lng":"174.5167"},{"country_code":"NZ","state_code":"E7","province_code":"","name":"Warkworth","cp":["0910"],"lat":"-36.4","lng":"174.6667"},{"country_code":"NZ","state_code":"E7","province_code":"","name":"Leigh","cp":["0920"],"lat":"-36.2833","lng":"174.8167"},{"country_code":"NZ","state_code":"E7","province_code":"","name":"Whangaparaoa","cp":["0930"],"lat":"-36.6333","lng":"174.7667"},{"country_code":"NZ","state_code":"E7","province_code":"","name":"Orewa","cp":["0931"],"lat":"-36.5667","lng":"174.7"},{"country_code":"NZ","state_code":"E7","province_code":"","name":"Red Beach","cp":["0932"],"lat":"-36.6124","lng":"174.6887"},{"country_code":"NZ","state_code":"E7","province_code":"","name":"Wellsford","cp":["0940"],"lat":"-36.2833","lng":"174.5167"},{"country_code":"NZ","state_code":"E7","province_code":"","name":"Warkworth","cp":["0941"],"lat":"-36.4","lng":"174.6667"},{"country_code":"NZ","state_code":"E7","province_code":"","name":"Snells Beach","cp":["0942"],"lat":"-36.4082","lng":"174.7202"},{"country_code":"NZ","state_code":"E7","province_code":"","name":"Whangaparaoa","cp":["0943"],"lat":"-36.6333","lng":"174.7667"},{"country_code":"NZ","state_code":"E7","province_code":"","name":"Silverdale","cp":["0944"],"lat":"-36.6187","lng":"174.6776"},{"country_code":"NZ","state_code":"E7","province_code":"","name":"Red Beach","cp":["0945"],"lat":"-36.6124","lng":"174.6887"},{"country_code":"NZ","state_code":"E7","province_code":"","name":"Orewa","cp":["0946"],"lat":"-36.5667","lng":"174.7"},{"country_code":"NZ","state_code":"E7","province_code":"","name":"Leigh","cp":["0947"],"lat":"-36.2833","lng":"174.8167"},{"country_code":"NZ","state_code":"E7","province_code":"","name":"Matakana","cp":["0948"],"lat":"-36.35","lng":"174.7167"},{"country_code":"NZ","state_code":"E7","province_code":"","name":"Waiwera","cp":["0950"],"lat":"-36.55","lng":"174.7167"},{"country_code":"NZ","state_code":"E7","province_code":"","name":"Puhoi","cp":["0951"],"lat":"-36.5035","lng":"174.6676"},{"country_code":"NZ","state_code":"E7","province_code":"","name":"Okiwi","cp":["0960"],"lat":"-36.15","lng":"175.4167"},{"country_code":"NZ","state_code":"E7","province_code":"","name":"Okupu","cp":["0961"],"lat":"-36.2667","lng":"175.4333"},{"country_code":"NZ","state_code":"E7","province_code":"","name":"Tryphena","cp":["0962"],"lat":"-36.3014","lng":"175.4893"},{"country_code":"NZ","state_code":"E7","province_code":"","name":"Port Fitzroy","cp":["0963"],"lat":"-36.1667","lng":"175.35"},{"country_code":"NZ","state_code":"E7","province_code":"","name":"Wayby","cp":["0972"],"lat":"-36.3333","lng":"174.5667"},{"country_code":"NZ","state_code":"E7","province_code":"","name":"Wharehine","cp":["0973"],"lat":"-36.3167","lng":"174.4167"},{"country_code":"NZ","state_code":"E7","province_code":"","name":"Te Hana","cp":["0974"],"lat":"-36.2667","lng":"174.5167"},{"country_code":"NZ","state_code":"E7","province_code":"","name":"Wharehine","cp":["0977"],"lat":"-36.3167","lng":"174.4167"},{"country_code":"NZ","state_code":"E7","province_code":"","name":"Woodcocks","cp":["0981"],"lat":"-36.45","lng":"174.5667"},{"country_code":"NZ","state_code":"E7","province_code":"","name":"Algies Bay","cp":["0982"],"lat":"-36.4353","lng":"174.7403"},{"country_code":"NZ","state_code":"E7","province_code":"","name":"Pohuehue","cp":["0983"],"lat":"-36.45","lng":"174.65"},{"country_code":"NZ","state_code":"E7","province_code":"","name":"Ahuroa","cp":["0984"],"lat":"-36.4753","lng":"174.5542"},{"country_code":"NZ","state_code":"E7","province_code":"","name":"Big Omaha","cp":["0985"],"lat":"-36.3333","lng":"174.7333"},{"country_code":"NZ","state_code":"E7","province_code":"","name":"Tawharanui","cp":["0986"],"lat":"-36.3833","lng":"174.8"},{"country_code":"NZ","state_code":"E7","province_code":"","name":"Whangapara","cp":["0991"],"lat":"-36.2333","lng":"175.4"},{"country_code":"NZ","state_code":"E7","province_code":"","name":"Silverdale","cp":["0992"],"lat":"-36.6187","lng":"174.6776"},{"country_code":"NZ","state_code":"E7","province_code":"","name":"Red Beach","cp":["0993"],"lat":"-36.6124","lng":"174.6887"},{"country_code":"NZ","state_code":"E7","province_code":"","name":"Auckland","cp":["1010"],"lat":"-36.8485","lng":"174.7635"},{"country_code":"NZ","state_code":"E7","province_code":"","name":"Herne Bay","cp":["1011"],"lat":"-36.8461","lng":"174.7292"},{"country_code":"NZ","state_code":"E7","province_code":"","name":"Arch Hill","cp":["1021"],"lat":"-36.8597","lng":"174.7531"},{"country_code":"NZ","state_code":"E7","province_code":"","name":"Point Chevalier","cp":["1022"],"lat":"-36.8633","lng":"174.7049"},{"country_code":"NZ","state_code":"E7","province_code":"","name":"Epsom","cp":["1023","1024"],"lat":"-36.8874","lng":"174.7706"},{"country_code":"NZ","state_code":"E7","province_code":"","name":"Sandringham","cp":["1025"],"lat":"-36.8882","lng":"174.7302"},{"country_code":"NZ","state_code":"E7","province_code":"","name":"Waterview","cp":["1026"],"lat":"-36.8782","lng":"174.6902"},{"country_code":"NZ","state_code":"E7","province_code":"","name":"Mount Roskill","cp":["1041"],"lat":"-36.9082","lng":"174.7302"},{"country_code":"NZ","state_code":"E7","province_code":"","name":"Hillsborough","cp":["1042"],"lat":"-36.9182","lng":"174.7502"},{"country_code":"NZ","state_code":"E7","province_code":"","name":"Remuera","cp":["1050"],"lat":"-36.8804","lng":"174.7982"},{"country_code":"NZ","state_code":"E7","province_code":"","name":"Ellerslie","cp":["1051"],"lat":"-36.8982","lng":"174.8102"},{"country_code":"NZ","state_code":"E7","province_code":"","name":"Point Resolution","cp":["1052"],"lat":"-36.8514","lng":"174.7894"},{"country_code":"NZ","state_code":"E7","province_code":"","name":"Penrose","cp":["1060"],"lat":"-36.9167","lng":"174.8167"},{"country_code":"NZ","state_code":"E7","province_code":"","name":"Te Papapa","cp":["1061"],"lat":"-36.9182","lng":"174.8002"},{"country_code":"NZ","state_code":"E7","province_code":"","name":"OTAHUHU","cp":["1062"],"lat":"-36.9382","lng":"174.8402"},{"country_code":"NZ","state_code":"E7","province_code":"","name":"Kohimarama","cp":["1071"],"lat":"-36.8582","lng":"174.8402"},{"country_code":"NZ","state_code":"E7","province_code":"","name":"Tamaki","cp":["1072"],"lat":"-36.8882","lng":"174.8602"},{"country_code":"NZ","state_code":"E7","province_code":"","name":"Ostend","cp":["1081"],"lat":"-36.7982","lng":"175.0402"},{"country_code":"NZ","state_code":"E7","province_code":"","name":"Surfdale","cp":["1081"],"lat":"-36.7911","lng":"175.0257"},{"country_code":"NZ","state_code":"E7","province_code":"","name":"Mechanics Bay","cp":["1140"],"lat":"-36.8382","lng":"174.7802"},{"country_code":"NZ","state_code":"E7","province_code":"","name":"Newmarket","cp":["1141"],"lat":"-36.8698","lng":"174.7757"},{"country_code":"NZ","state_code":"E7","province_code":"","name":"Newton","cp":["1142"],"lat":"-36.85","lng":"174.75"},{"country_code":"NZ","state_code":"E7","province_code":"","name":"Mechanics Bay","cp":["1143"],"lat":"-36.8382","lng":"174.7802"},{"country_code":"NZ","state_code":"E7","province_code":"","name":"Freemans Bay","cp":["1144"],"lat":"-36.8482","lng":"174.7402"},{"country_code":"NZ","state_code":"E7","province_code":"","name":"Grafton","cp":["1145"],"lat":"-36.8603","lng":"174.7657"},{"country_code":"NZ","state_code":"E7","province_code":"","name":"Herne Bay","cp":["1147"],"lat":"-36.8461","lng":"174.7292"},{"country_code":"NZ","state_code":"E7","province_code":"","name":"Auckland","cp":["1148"],"lat":"-36.8485","lng":"174.7635"},{"country_code":"NZ","state_code":"E7","province_code":"","name":"Parnell","cp":["1149"],"lat":"-36.8667","lng":"174.7833"},{"country_code":"NZ","state_code":"E7","province_code":"","name":"Auckland","cp":["1150"],"lat":"-36.8485","lng":"174.7635"},{"country_code":"NZ","state_code":"E7","province_code":"","name":"Point Resolution","cp":["1151"],"lat":"-36.8514","lng":"174.7894"},{"country_code":"NZ","state_code":"E7","province_code":"","name":"Western Springs","cp":["1245"],"lat":"-36.8667","lng":"174.7333"},{"country_code":"NZ","state_code":"E7","province_code":"","name":"Mount Albert","cp":["1246"],"lat":"-36.8782","lng":"174.7202"},{"country_code":"NZ","state_code":"E7","province_code":"","name":"Wesley","cp":["1340"],"lat":"-36.8982","lng":"174.7302"},{"country_code":"NZ","state_code":"E7","province_code":"","name":"Balmoral","cp":["1342"],"lat":"-36.8882","lng":"174.7402"},{"country_code":"NZ","state_code":"E7","province_code":"","name":"One Tree Hill","cp":["1344"],"lat":"-36.8982","lng":"174.7802"},{"country_code":"NZ","state_code":"E7","province_code":"","name":"Royal Oak","cp":["1345"],"lat":"-36.9082","lng":"174.7702"},{"country_code":"NZ","state_code":"E7","province_code":"","name":"Sandringham","cp":["1346"],"lat":"-36.8882","lng":"174.7302"},{"country_code":"NZ","state_code":"E7","province_code":"","name":"One Tree Hill","cp":["1347"],"lat":"-36.8982","lng":"174.7802"},{"country_code":"NZ","state_code":"E7","province_code":"","name":"Avondale","cp":["1348"],"lat":"-36.8833","lng":"174.7"},{"country_code":"NZ","state_code":"E7","province_code":"","name":"Epsom","cp":["1349"],"lat":"-36.8874","lng":"174.7706"},{"country_code":"NZ","state_code":"E7","province_code":"","name":"Owairaka","cp":["1350"],"lat":"-36.8882","lng":"174.7102"},{"country_code":"NZ","state_code":"E7","province_code":"","name":"Balmoral","cp":["1351"],"lat":"-36.8882","lng":"174.7402"},{"country_code":"NZ","state_code":"E7","province_code":"","name":"Mount Eden","cp":["1352"],"lat":"-36.8816","lng":"174.762"},{"country_code":"NZ","state_code":"E7","province_code":"","name":"Three Kings","cp":["1440"],"lat":"-36.8982","lng":"174.7502"},{"country_code":"NZ","state_code":"E7","province_code":"","name":"Lynfield","cp":["1443"],"lat":"-36.9282","lng":"174.7202"},{"country_code":"NZ","state_code":"E7","province_code":"","name":"Waikowhai","cp":["1445"],"lat":"-36.9282","lng":"174.7302"},{"country_code":"NZ","state_code":"E7","province_code":"","name":"Mount Eden","cp":["1446"],"lat":"-36.8816","lng":"174.762"},{"country_code":"NZ","state_code":"E7","province_code":"","name":"Greenlane","cp":["1541"],"lat":"-36.8906","lng":"174.7943"},{"country_code":"NZ","state_code":"E7","province_code":"","name":"Ellerslie","cp":["1542"],"lat":"-36.8982","lng":"174.8102"},{"country_code":"NZ","state_code":"E7","province_code":"","name":"Greenlane","cp":["1543"],"lat":"-36.8906","lng":"174.7943"},{"country_code":"NZ","state_code":"E7","province_code":"","name":"Ellerslie","cp":["1544"],"lat":"-36.8982","lng":"174.8102"},{"country_code":"NZ","state_code":"E7","province_code":"","name":"Panmure","cp":["1545"],"lat":"-36.8833","lng":"174.8667"},{"country_code":"NZ","state_code":"E7","province_code":"","name":"Ellerslie","cp":["1546"],"lat":"-36.8982","lng":"174.8102"},{"country_code":"NZ","state_code":"E7","province_code":"","name":"Otahuhu","cp":["1640"],"lat":"-36.9382","lng":"174.8402"},{"country_code":"NZ","state_code":"E7","province_code":"","name":"Panmure","cp":["1641"],"lat":"-36.8833","lng":"174.8667"},{"country_code":"NZ","state_code":"E7","province_code":"","name":"Mount Wellington","cp":["1642"],"lat":"-36.9082","lng":"174.8202"},{"country_code":"NZ","state_code":"E7","province_code":"","name":"Onehunga","cp":["1643"],"lat":"-36.9182","lng":"174.7802"},{"country_code":"NZ","state_code":"E7","province_code":"","name":"Saint Heliers","cp":["1740"],"lat":"-36.85","lng":"174.8667"},{"country_code":"NZ","state_code":"E7","province_code":"","name":"Panmure","cp":["1741"],"lat":"-36.8833","lng":"174.8667"},{"country_code":"NZ","state_code":"E7","province_code":"","name":"Meadowbank","cp":["1742"],"lat":"-36.8682","lng":"174.8202"},{"country_code":"NZ","state_code":"E7","province_code":"","name":"Point England","cp":["1743"],"lat":"-36.8782","lng":"174.8602"},{"country_code":"NZ","state_code":"E7","province_code":"","name":"Mission Bay","cp":["1744"],"lat":"-36.8547","lng":"174.8317"},{"country_code":"NZ","state_code":"E7","province_code":"","name":"Orakei","cp":["1745"],"lat":"-36.85","lng":"174.8167"},{"country_code":"NZ","state_code":"E7","province_code":"","name":"New Windsor","cp":["1746"],"lat":"-36.8982","lng":"174.7002"},{"country_code":"NZ","state_code":"E7","province_code":"","name":"Oneroa","cp":["1840"],"lat":"-36.7782","lng":"175.0102"},{"country_code":"NZ","state_code":"E7","province_code":"","name":"Onetangi","cp":["1841"],"lat":"-36.7833","lng":"175.0833"},{"country_code":"NZ","state_code":"E7","province_code":"","name":"Blackpool","cp":["1842"],"lat":"-36.7889","lng":"175.0144"},{"country_code":"NZ","state_code":"E7","province_code":"","name":"Ostend","cp":["1843"],"lat":"-36.7982","lng":"175.0402"},{"country_code":"NZ","state_code":"E7","province_code":"","name":"Onetangi","cp":["1971"],"lat":"-36.7833","lng":"175.0833"},{"country_code":"NZ","state_code":"E7","province_code":"","name":"Pakuranga Heights","cp":["2010"],"lat":"-36.9082","lng":"174.8802"},{"country_code":"NZ","state_code":"E7","province_code":"","name":"Eastern Beach","cp":["2012"],"lat":"-36.8682","lng":"174.9002"},{"country_code":"NZ","state_code":"E7","province_code":"","name":"East Tamaki","cp":["2013"],"lat":"-36.95","lng":"174.9"},{"country_code":"NZ","state_code":"E7","province_code":"","name":"Shelly Park","cp":["2014"],"lat":"-36.9075","lng":"174.9459"},{"country_code":"NZ","state_code":"E7","province_code":"","name":"East Tamaki","cp":["2016"],"lat":"-36.95","lng":"174.9"},{"country_code":"NZ","state_code":"E7","province_code":"","name":"Beachlands","cp":["2018"],"lat":"-36.8833","lng":"175"},{"country_code":"NZ","state_code":"E7","province_code":"","name":"Mangere","cp":["2022"],"lat":"-36.9681","lng":"174.7987"},{"country_code":"NZ","state_code":"E7","province_code":"","name":"Wiri","cp":["2023"],"lat":"-36.9982","lng":"174.8602"},{"country_code":"NZ","state_code":"E7","province_code":"","name":"Mangere East","cp":["2024"],"lat":"-36.9659","lng":"174.8239"},{"country_code":"NZ","state_code":"E7","province_code":"","name":"Wiri","cp":["2025"],"lat":"-36.9982","lng":"174.8602"},{"country_code":"NZ","state_code":"E7","province_code":"","name":"Manurewa","cp":["2102"],"lat":"-37.0182","lng":"174.8802"},{"country_code":"NZ","state_code":"E7","province_code":"","name":"Weymouth","cp":["2103"],"lat":"-37.0333","lng":"174.8667"},{"country_code":"NZ","state_code":"E7","province_code":"","name":"Wiri","cp":["2104"],"lat":"-36.9982","lng":"174.8602"},{"country_code":"NZ","state_code":"E7","province_code":"","name":"Manurewa East","cp":["2105"],"lat":"-37.0182","lng":"174.9102"},{"country_code":"NZ","state_code":"E7","province_code":"","name":"Red Hill","cp":["2110"],"lat":"-37.0582","lng":"174.9702"},{"country_code":"NZ","state_code":"E7","province_code":"","name":"Takanini","cp":["2112"],"lat":"-37.0482","lng":"174.9002"},{"country_code":"NZ","state_code":"E7","province_code":"","name":"Papakura","cp":["2113"],"lat":"-37.0657","lng":"174.9439"},{"country_code":"NZ","state_code":"E7","province_code":"","name":"Pukekohe","cp":["2120"],"lat":"-37.202","lng":"174.9036"},{"country_code":"NZ","state_code":"E7","province_code":"","name":"Waiau Pa","cp":["2122"],"lat":"-37.1333","lng":"174.75"},{"country_code":"NZ","state_code":"E7","province_code":"","name":"Waiuku","cp":["2123"],"lat":"-37.2481","lng":"174.7349"},{"country_code":"NZ","state_code":"E7","province_code":"","name":"Pakuranga","cp":["2140"],"lat":"-36.8833","lng":"174.9167"},{"country_code":"NZ","state_code":"E7","province_code":"","name":"East Tamaki","cp":["2141","2142"],"lat":"-36.95","lng":"174.9"},{"country_code":"NZ","state_code":"E7","province_code":"","name":"Botany Downs","cp":["2143"],"lat":"-36.906","lng":"174.9179"},{"country_code":"NZ","state_code":"E7","province_code":"","name":"Eastern Beach","cp":["2144"],"lat":"-36.8682","lng":"174.9002"},{"country_code":"NZ","state_code":"E7","province_code":"","name":"Shelly Park","cp":["2145","2146"],"lat":"-36.9075","lng":"174.9459"},{"country_code":"NZ","state_code":"E7","province_code":"","name":"Beachlands","cp":["2147"],"lat":"-36.8833","lng":"175"},{"country_code":"NZ","state_code":"E7","province_code":"","name":"Maraetai","cp":["2148"],"lat":"-36.8833","lng":"175.05"},{"country_code":"NZ","state_code":"E7","province_code":"","name":"Whitford","cp":["2149"],"lat":"-36.9333","lng":"174.9667"},{"country_code":"NZ","state_code":"E7","province_code":"","name":"Mangere","cp":["2150"],"lat":"-36.9681","lng":"174.7987"},{"country_code":"NZ","state_code":"E7","province_code":"","name":"Favona","cp":["2151"],"lat":"-36.9333","lng":"174.8"},{"country_code":"NZ","state_code":"E7","province_code":"","name":"Mangere","cp":["2153","2154"],"lat":"-36.9681","lng":"174.7987"},{"country_code":"NZ","state_code":"E7","province_code":"","name":"Papatoetoe","cp":["2155","2156"],"lat":"-36.9682","lng":"174.8402"},{"country_code":"NZ","state_code":"E7","province_code":"","name":"Wiri","cp":["2157"],"lat":"-36.9982","lng":"174.8602"},{"country_code":"NZ","state_code":"E7","province_code":"","name":"Mangere East","cp":["2158"],"lat":"-36.9659","lng":"174.8239"},{"country_code":"NZ","state_code":"E7","province_code":"","name":"Otara","cp":["2159"],"lat":"-36.9482","lng":"174.8702"},{"country_code":"NZ","state_code":"E7","province_code":"","name":"Wiri","cp":["2160"],"lat":"-36.9982","lng":"174.8602"},{"country_code":"NZ","state_code":"E7","province_code":"","name":"Homai","cp":["2240"],"lat":"-37.0167","lng":"174.8833"},{"country_code":"NZ","state_code":"E7","province_code":"","name":"Wiri","cp":["2241"],"lat":"-36.9982","lng":"174.8602"},{"country_code":"NZ","state_code":"E7","province_code":"","name":"Weymouth","cp":["2242"],"lat":"-37.0333","lng":"174.8667"},{"country_code":"NZ","state_code":"E7","province_code":"","name":"Manurewa East","cp":["2243"],"lat":"-37.0182","lng":"174.9102"},{"country_code":"NZ","state_code":"E7","province_code":"","name":"Pahurehure","cp":["2244"],"lat":"-37.0582","lng":"174.9202"},{"country_code":"NZ","state_code":"E7","province_code":"","name":"Takanini","cp":["2245"],"lat":"-37.0482","lng":"174.9002"},{"country_code":"NZ","state_code":"E7","province_code":"","name":"Pahurehure","cp":["2246"],"lat":"-37.0582","lng":"174.9202"},{"country_code":"NZ","state_code":"E7","province_code":"","name":"Drury","cp":["2247"],"lat":"-37.1","lng":"174.95"},{"country_code":"NZ","state_code":"E7","province_code":"","name":"Clevedon","cp":["2248"],"lat":"-37","lng":"175.05"},{"country_code":"NZ","state_code":"E7","province_code":"","name":"Pukekohe","cp":["2340"],"lat":"-37.202","lng":"174.9036"},{"country_code":"NZ","state_code":"E7","province_code":"","name":"Waiuku","cp":["2341"],"lat":"-37.2481","lng":"174.7349"},{"country_code":"NZ","state_code":"E7","province_code":"","name":"Bombay","cp":["2343"],"lat":"-37.1667","lng":"174.9833"},{"country_code":"NZ","state_code":"E7","province_code":"","name":"Patumahoe","cp":["2344"],"lat":"-37.1833","lng":"174.8333"},{"country_code":"NZ","state_code":"E7","province_code":"","name":"Waiau Pa","cp":["2345"],"lat":"-37.1333","lng":"174.75"},{"country_code":"NZ","state_code":"E7","province_code":"","name":"Waikopua","cp":["2571"],"lat":"-36.9167","lng":"174.9833"},{"country_code":"NZ","state_code":"E7","province_code":"","name":"Whitford","cp":["2576"],"lat":"-36.9333","lng":"174.9667"},{"country_code":"NZ","state_code":"E7","province_code":"","name":"Drury","cp":["2577"],"lat":"-37.1","lng":"174.95"},{"country_code":"NZ","state_code":"E7","province_code":"","name":"Ramarama","cp":["2578"],"lat":"-37.15","lng":"174.95"},{"country_code":"NZ","state_code":"E7","province_code":"","name":"Ararimu","cp":["2579"],"lat":"-37.15","lng":"175.0333"},{"country_code":"NZ","state_code":"E7","province_code":"","name":"Weymouth","cp":["2580"],"lat":"-37.0333","lng":"174.8667"},{"country_code":"NZ","state_code":"E7","province_code":"","name":"Clevedon","cp":["2582"],"lat":"-37","lng":"175.05"},{"country_code":"NZ","state_code":"E7","province_code":"","name":"Paparimu","cp":["2583"],"lat":"-37.1333","lng":"175.1167"},{"country_code":"NZ","state_code":"E7","province_code":"","name":"Opaheke","cp":["2584"],"lat":"-37.0833","lng":"174.9667"},{"country_code":"NZ","state_code":"E7","province_code":"","name":"Whakatiri","cp":["2585"],"lat":"-36.95","lng":"175.1167"},{"country_code":"NZ","state_code":"E7","province_code":"","name":"Ararimu","cp":["2675"],"lat":"-37.15","lng":"175.0333"},{"country_code":"NZ","state_code":"E7","province_code":"","name":"Paerata","cp":["2676"],"lat":"-37.1667","lng":"174.9"},{"country_code":"NZ","state_code":"E7","province_code":"","name":"Pukekohe East","cp":["2677"],"lat":"-37.2","lng":"174.95"},{"country_code":"NZ","state_code":"E7","province_code":"","name":"Mauku","cp":["2678"],"lat":"-37.2","lng":"174.8167"},{"country_code":"NZ","state_code":"E7","province_code":"","name":"Waiau Pa","cp":["2679"],"lat":"-37.1333","lng":"174.75"},{"country_code":"NZ","state_code":"E7","province_code":"","name":"Glenbrook","cp":["2681"],"lat":"-37.2167","lng":"174.7833"},{"country_code":"NZ","state_code":"E7","province_code":"","name":"Waipipi","cp":["2683"],"lat":"-37.2167","lng":"174.6667"},{"country_code":"NZ","state_code":"E7","province_code":"","name":"Pollok","cp":["2684"],"lat":"-37.1333","lng":"174.6167"},{"country_code":"NZ","state_code":"E7","province_code":"","name":"Te Kohanga","cp":["2693"],"lat":"-37.3141","lng":"174.8451"},{"country_code":"NZ","state_code":"E7","province_code":"","name":"Opuatia","cp":["2696"],"lat":"-37.4048","lng":"175.0002"},{"country_code":"NZ","state_code":"E7","province_code":"","name":"Te Kohanga","cp":["2697"],"lat":"-37.3141","lng":"174.8451"},{"country_code":"NZ","state_code":"E8","province_code":"","name":"Ohinemutu","cp":["3010"],"lat":"-38.1276","lng":"176.2446"},{"country_code":"NZ","state_code":"E8","province_code":"","name":"Sunnybrook","cp":["3015"],"lat":"-38.1482","lng":"176.2102"},{"country_code":"NZ","state_code":"E8","province_code":"","name":"Mamaku","cp":["3020"],"lat":"-38.1","lng":"176.0833"},{"country_code":"NZ","state_code":"E8","province_code":"","name":"Murupara","cp":["3025"],"lat":"-38.4667","lng":"176.7"},{"country_code":"NZ","state_code":"E8","province_code":"","name":"Ngapuna","cp":["3040"],"lat":"-38.1468","lng":"176.2747"},{"country_code":"NZ","state_code":"E8","province_code":"","name":"Ngongotaha","cp":["3041"],"lat":"-38.0833","lng":"176.2"},{"country_code":"NZ","state_code":"E8","province_code":"","name":"Owhata","cp":["3042"],"lat":"-38.1326","lng":"176.2982"},{"country_code":"NZ","state_code":"E8","province_code":"","name":"Whakarewarewa","cp":["3043"],"lat":"-38.1603","lng":"176.2651"},{"country_code":"NZ","state_code":"E8","province_code":"","name":"Glenholme","cp":["3044"],"lat":"-38.1487","lng":"176.2471"},{"country_code":"NZ","state_code":"E8","province_code":"","name":"Ngapuna","cp":["3045"],"lat":"-38.1468","lng":"176.2747"},{"country_code":"NZ","state_code":"E8","province_code":"","name":"Koutu","cp":["3046"],"lat":"-38.1197","lng":"176.2383"},{"country_code":"NZ","state_code":"E8","province_code":"","name":"Mangakakahi","cp":["3047"],"lat":"-38.1335","lng":"176.2344"},{"country_code":"NZ","state_code":"E8","province_code":"","name":"Tihiotonga","cp":["3048"],"lat":"-38.1726","lng":"176.2432"},{"country_code":"NZ","state_code":"E8","province_code":"","name":"Mamaku","cp":["3049"],"lat":"-38.1","lng":"176.0833"},{"country_code":"NZ","state_code":"E8","province_code":"","name":"Reporoa","cp":["3060"],"lat":"-38.4359","lng":"176.3412"},{"country_code":"NZ","state_code":"E8","province_code":"","name":"Murupara","cp":["3062"],"lat":"-38.4667","lng":"176.7"},{"country_code":"NZ","state_code":"E8","province_code":"","name":"Tarukenga","cp":["3072"],"lat":"-38.0752","lng":"176.1581"},{"country_code":"NZ","state_code":"E8","province_code":"","name":"Waimangu","cp":["3073"],"lat":"-38.284","lng":"176.3826"},{"country_code":"NZ","state_code":"E8","province_code":"","name":"Tikitere","cp":["3074"],"lat":"-38.0667","lng":"176.3667"},{"country_code":"NZ","state_code":"E8","province_code":"","name":"Guthrie","cp":["3077"],"lat":"-38.3","lng":"176.15"},{"country_code":"NZ","state_code":"E8","province_code":"","name":"Ruatahuna","cp":["3079"],"lat":"-38.6138","lng":"176.9592"},{"country_code":"NZ","state_code":"E8","province_code":"","name":"Tahorakui","cp":["3081","3083"],"lat":"-38.479","lng":"176.2724"},{"country_code":"NZ","state_code":"E8","province_code":"","name":"Tauranga","cp":["3110"],"lat":"-37.6861","lng":"176.1667"},{"country_code":"NZ","state_code":"E8","province_code":"","name":"Hairini","cp":["3112"],"lat":"-37.7333","lng":"176.1667"},{"country_code":"NZ","state_code":"E8","province_code":"","name":"Omokoroa Beach","cp":["3114"],"lat":"-37.6333","lng":"176.05"},{"country_code":"NZ","state_code":"E8","province_code":"","name":"Omanu","cp":["3116"],"lat":"-37.6568","lng":"176.2084"},{"country_code":"NZ","state_code":"E8","province_code":"","name":"Papamoa Beach","cp":["3118"],"lat":"-37.6973","lng":"176.2846"},{"country_code":"NZ","state_code":"E8","province_code":"","name":"Te Puke","cp":["3119"],"lat":"-37.7782","lng":"176.3302"},{"country_code":"NZ","state_code":"E8","province_code":"","name":"Poroporo","cp":["3120"],"lat":"-37.9833","lng":"176.9667"},{"country_code":"NZ","state_code":"E8","province_code":"","name":"Ohope Beach","cp":["3121"],"lat":"-37.9752","lng":"177.0759"},{"country_code":"NZ","state_code":"E8","province_code":"","name":"Opotiki","cp":["3122"],"lat":"-38.0091","lng":"177.2871"},{"country_code":"NZ","state_code":"E8","province_code":"","name":"Taneatua","cp":["3123"],"lat":"-38.0667","lng":"177.0167"},{"country_code":"NZ","state_code":"E8","province_code":"","name":"Kawerau","cp":["3127"],"lat":"-38.1","lng":"176.7"},{"country_code":"NZ","state_code":"E8","province_code":"","name":"Katikati","cp":["3129"],"lat":"-37.55","lng":"175.9167"},{"country_code":"NZ","state_code":"E8","province_code":"","name":"Tauranga","cp":["3140","3141"],"lat":"-37.6861","lng":"176.1667"},{"country_code":"NZ","state_code":"E8","province_code":"","name":"Greerton","cp":["3142"],"lat":"-37.7254","lng":"176.1335"},{"country_code":"NZ","state_code":"E8","province_code":"","name":"Tauranga","cp":["3143","3144"],"lat":"-37.6861","lng":"176.1667"},{"country_code":"NZ","state_code":"E8","province_code":"","name":"Otumoetai","cp":["3145"],"lat":"-37.6716","lng":"176.1386"},{"country_code":"NZ","state_code":"E8","province_code":"","name":"Judea","cp":["3146"],"lat":"-37.6953","lng":"176.1441"},{"country_code":"NZ","state_code":"E8","province_code":"","name":"Bethlehem","cp":["3147"],"lat":"-37.695","lng":"176.1086"},{"country_code":"NZ","state_code":"E8","province_code":"","name":"Hairini","cp":["3148"],"lat":"-37.7333","lng":"176.1667"},{"country_code":"NZ","state_code":"E8","province_code":"","name":"Omanu","cp":["3149"],"lat":"-37.6568","lng":"176.2084"},{"country_code":"NZ","state_code":"E8","province_code":"","name":"Mount Maunganui","cp":["3150"],"lat":"-37.6417","lng":"176.1861"},{"country_code":"NZ","state_code":"E8","province_code":"","name":"Kairua","cp":["3151"],"lat":"-37.7167","lng":"176.2833"},{"country_code":"NZ","state_code":"E8","province_code":"","name":"Omanu Beach","cp":["3152"],"lat":"-37.67","lng":"176.229"},{"country_code":"NZ","state_code":"E8","province_code":"","name":"Te Puke","cp":["3153"],"lat":"-37.7782","lng":"176.3302"},{"country_code":"NZ","state_code":"E8","province_code":"","name":"Omokoroa Beach","cp":["3154"],"lat":"-37.6333","lng":"176.05"},{"country_code":"NZ","state_code":"E8","province_code":"","name":"Whakatane","cp":["3158"],"lat":"-37.9585","lng":"176.9855"},{"country_code":"NZ","state_code":"E8","province_code":"","name":"Poroporo","cp":["3159"],"lat":"-37.9833","lng":"176.9667"},{"country_code":"NZ","state_code":"E8","province_code":"","name":"Edgecumbe","cp":["3160"],"lat":"-37.9833","lng":"176.8333"},{"country_code":"NZ","state_code":"E8","province_code":"","name":"Ohope Beach","cp":["3161"],"lat":"-37.9752","lng":"177.0759"},{"country_code":"NZ","state_code":"E8","province_code":"","name":"Opotiki","cp":["3162"],"lat":"-38.0091","lng":"177.2871"},{"country_code":"NZ","state_code":"E8","province_code":"","name":"Taneatua","cp":["3163"],"lat":"-38.0667","lng":"177.0167"},{"country_code":"NZ","state_code":"E8","province_code":"","name":"Waimana","cp":["3164"],"lat":"-38.15","lng":"177.0833"},{"country_code":"NZ","state_code":"E8","province_code":"","name":"Te Teko","cp":["3167"],"lat":"-38.0365","lng":"176.7936"},{"country_code":"NZ","state_code":"E8","province_code":"","name":"Matata","cp":["3168"],"lat":"-37.8833","lng":"176.75"},{"country_code":"NZ","state_code":"E8","province_code":"","name":"Kawerau","cp":["3169"],"lat":"-38.1","lng":"176.7"},{"country_code":"NZ","state_code":"E8","province_code":"","name":"Lower Kaimai","cp":["3171"],"lat":"-37.8","lng":"176.0333"},{"country_code":"NZ","state_code":"E8","province_code":"","name":"Omokoroa Beach","cp":["3172"],"lat":"-37.6333","lng":"176.05"},{"country_code":"NZ","state_code":"E8","province_code":"","name":"Oropi","cp":["3173"],"lat":"-37.8395","lng":"176.1611"},{"country_code":"NZ","state_code":"E8","province_code":"","name":"Upper Papamoa","cp":["3175"],"lat":"-37.7667","lng":"176.25"},{"country_code":"NZ","state_code":"E8","province_code":"","name":"Whakamarama","cp":["3176"],"lat":"-37.7333","lng":"176"},{"country_code":"NZ","state_code":"E8","province_code":"","name":"Athenree","cp":["3177"],"lat":"-37.4667","lng":"175.9167"},{"country_code":"NZ","state_code":"E8","province_code":"","name":"Katikati","cp":["3178"],"lat":"-37.55","lng":"175.9167"},{"country_code":"NZ","state_code":"E8","province_code":"","name":"Te Puke","cp":["3182"],"lat":"-37.7782","lng":"176.3302"},{"country_code":"NZ","state_code":"E8","province_code":"","name":"Upper Papamoa","cp":["3183"],"lat":"-37.7667","lng":"176.25"},{"country_code":"NZ","state_code":"E8","province_code":"","name":"Ohinepanea","cp":["3186"],"lat":"-37.8219","lng":"176.5643"},{"country_code":"NZ","state_code":"E8","province_code":"","name":"Papamoa","cp":["3187"],"lat":"-37.7333","lng":"176.3"},{"country_code":"NZ","state_code":"E8","province_code":"","name":"Ngawaro","cp":["3188"],"lat":"-37.9333","lng":"176.15"},{"country_code":"NZ","state_code":"E8","province_code":"","name":"Paengaroa","cp":["3189"],"lat":"-37.8167","lng":"176.4167"},{"country_code":"NZ","state_code":"E8","province_code":"","name":"Otangihaku","cp":["3191"],"lat":"-38.0333","lng":"177"},{"country_code":"NZ","state_code":"E8","province_code":"","name":"Kawerau","cp":["3192"],"lat":"-38.1","lng":"176.7"},{"country_code":"NZ","state_code":"E8","province_code":"","name":"Edgecumbe","cp":["3193"],"lat":"-37.9833","lng":"176.8333"},{"country_code":"NZ","state_code":"E8","province_code":"","name":"Awakaponga","cp":["3194"],"lat":"-37.9333","lng":"176.7667"},{"country_code":"NZ","state_code":"E8","province_code":"","name":"Waimana","cp":["3196"],"lat":"-38.15","lng":"177.0833"},{"country_code":"NZ","state_code":"E8","province_code":"","name":"Toatoa","cp":["3197"],"lat":"-38.1333","lng":"177.5"},{"country_code":"NZ","state_code":"E8","province_code":"","name":"Waimana","cp":["3198"],"lat":"-38.15","lng":"177.0833"},{"country_code":"NZ","state_code":"E8","province_code":"","name":"Omaio","cp":["3199"],"lat":"-37.8167","lng":"177.6667"},{"country_code":"NZ","state_code":"E8","province_code":"","name":"Kaimai","cp":["3473"],"lat":"-37.8333","lng":"175.9667"},{"country_code":"NZ","state_code":"E8","province_code":"","name":"Waihi Beach","cp":["3611","3642"],"lat":"-37.4","lng":"175.9333"},{"country_code":"NZ","state_code":"E9","province_code":"","name":"Kekerengu","cp":["7260"],"lat":"-42.0012","lng":"174.0077"},{"country_code":"NZ","state_code":"E9","province_code":"","name":"Cheviot","cp":["7310"],"lat":"-42.8167","lng":"173.2667"},{"country_code":"NZ","state_code":"E9","province_code":"","name":"Waiau","cp":["7332"],"lat":"-42.65","lng":"173.05"},{"country_code":"NZ","state_code":"E9","province_code":"","name":"Hanmer Springs","cp":["7334"],"lat":"-42.5167","lng":"172.8167"},{"country_code":"NZ","state_code":"E9","province_code":"","name":"Kaikoura Suburban","cp":["7340"],"lat":"-42.3833","lng":"173.65"},{"country_code":"NZ","state_code":"E9","province_code":"","name":"Cheviot","cp":["7341"],"lat":"-42.8167","lng":"173.2667"},{"country_code":"NZ","state_code":"E9","province_code":"","name":"Waiau","cp":["7343"],"lat":"-42.65","lng":"173.05"},{"country_code":"NZ","state_code":"E9","province_code":"","name":"Culverden","cp":["7345"],"lat":"-42.7667","lng":"172.85"},{"country_code":"NZ","state_code":"E9","province_code":"","name":"Hawarden","cp":["7348"],"lat":"-42.9333","lng":"172.6333"},{"country_code":"NZ","state_code":"E9","province_code":"","name":"Hanmer Springs","cp":["7360"],"lat":"-42.5167","lng":"172.8167"},{"country_code":"NZ","state_code":"E9","province_code":"","name":"Charwell Forks","cp":["7373"],"lat":"-42.4167","lng":"173.3667"},{"country_code":"NZ","state_code":"E9","province_code":"","name":"Goose Bay","cp":["7374"],"lat":"-42.479","lng":"173.5278"},{"country_code":"NZ","state_code":"E9","province_code":"","name":"Waiau","cp":["7379"],"lat":"-42.65","lng":"173.05"},{"country_code":"NZ","state_code":"E9","province_code":"","name":"Spotswood","cp":["7381"],"lat":"-42.75","lng":"173.2667"},{"country_code":"NZ","state_code":"E9","province_code":"","name":"Ethelton","cp":["7382"],"lat":"-42.8833","lng":"173.0833"},{"country_code":"NZ","state_code":"E9","province_code":"","name":"Domett","cp":["7383"],"lat":"-42.85","lng":"173.2167"},{"country_code":"NZ","state_code":"E9","province_code":"","name":"Hawkeswood","cp":["7384"],"lat":"-42.65","lng":"173.3333"},{"country_code":"NZ","state_code":"E9","province_code":"","name":"Masons Flat","cp":["7385"],"lat":"-42.9","lng":"172.55"},{"country_code":"NZ","state_code":"E9","province_code":"","name":"Tormore","cp":["7387"],"lat":"-42.9","lng":"173.1333"},{"country_code":"NZ","state_code":"E9","province_code":"","name":"Rotherham","cp":["7391"],"lat":"-42.7","lng":"172.95"},{"country_code":"NZ","state_code":"E9","province_code":"","name":"Hanmer Springs","cp":["7392","7395"],"lat":"-42.5167","lng":"172.8167"},{"country_code":"NZ","state_code":"E9","province_code":"","name":"Bells","cp":["7400"],"lat":"-43.3","lng":"172.5833"},{"country_code":"NZ","state_code":"E9","province_code":"","name":"Waikuku Beach","cp":["7402"],"lat":"-43.2833","lng":"172.7167"},{"country_code":"NZ","state_code":"E9","province_code":"","name":"Amberley","cp":["7410"],"lat":"-43.1559","lng":"172.7297"},{"country_code":"NZ","state_code":"E9","province_code":"","name":"Waikari","cp":["7420"],"lat":"-42.9667","lng":"172.6833"},{"country_code":"NZ","state_code":"E9","province_code":"","name":"Oxford","cp":["7430"],"lat":"-43.3","lng":"172.1833"},{"country_code":"NZ","state_code":"E9","province_code":"","name":"Bells","cp":["7440"],"lat":"-43.3","lng":"172.5833"},{"country_code":"NZ","state_code":"E9","province_code":"","name":"Amberley","cp":["7441"],"lat":"-43.1559","lng":"172.7297"},{"country_code":"NZ","state_code":"E9","province_code":"","name":"Waikari","cp":["7442"],"lat":"-42.9667","lng":"172.6833"},{"country_code":"NZ","state_code":"E9","province_code":"","name":"Oxford","cp":["7443"],"lat":"-43.3","lng":"172.1833"},{"country_code":"NZ","state_code":"E9","province_code":"","name":"Cust","cp":["7444"],"lat":"-43.3167","lng":"172.3667"},{"country_code":"NZ","state_code":"E9","province_code":"","name":"Sefton","cp":["7445"],"lat":"-43.25","lng":"172.6667"},{"country_code":"NZ","state_code":"E9","province_code":"","name":"Leithfield","cp":["7446"],"lat":"-43.2","lng":"172.7333"},{"country_code":"NZ","state_code":"E9","province_code":"","name":"Waipara","cp":["7447"],"lat":"-43.0667","lng":"172.75"},{"country_code":"NZ","state_code":"E9","province_code":"","name":"Waikuku Beach","cp":["7448"],"lat":"-43.2833","lng":"172.7167"},{"country_code":"NZ","state_code":"E9","province_code":"","name":"West Eyreton","cp":["7471"],"lat":"-43.35","lng":"172.3833"},{"country_code":"NZ","state_code":"E9","province_code":"","name":"North Loburn","cp":["7472"],"lat":"-43.2167","lng":"172.5"},{"country_code":"NZ","state_code":"E9","province_code":"","name":"Waikuku","cp":["7473"],"lat":"-43.3","lng":"172.6833"},{"country_code":"NZ","state_code":"E9","province_code":"","name":"North Loburn","cp":["7474"],"lat":"-43.2167","lng":"172.5"},{"country_code":"NZ","state_code":"E9","province_code":"","name":"Amberley","cp":["7481"],"lat":"-43.1559","lng":"172.7297"},{"country_code":"NZ","state_code":"E9","province_code":"","name":"Waipara","cp":["7482"],"lat":"-43.0667","lng":"172.75"},{"country_code":"NZ","state_code":"E9","province_code":"","name":"Omihi","cp":["7483"],"lat":"-43.0167","lng":"172.85"},{"country_code":"NZ","state_code":"E9","province_code":"","name":"Waikari","cp":["7491"],"lat":"-42.9667","lng":"172.6833"},{"country_code":"NZ","state_code":"E9","province_code":"","name":"Oxford","cp":["7495"],"lat":"-43.3","lng":"172.1833"},{"country_code":"NZ","state_code":"E9","province_code":"","name":"Sheffield","cp":["7500"],"lat":"-43.3833","lng":"172.0167"},{"country_code":"NZ","state_code":"E9","province_code":"","name":"Darfield","cp":["7510"],"lat":"-43.4833","lng":"172.1167"},{"country_code":"NZ","state_code":"E9","province_code":"","name":"Akaroa","cp":["7520"],"lat":"-43.8038","lng":"172.9682"},{"country_code":"NZ","state_code":"E9","province_code":"","name":"Sheffield","cp":["7540"],"lat":"-43.3833","lng":"172.0167"},{"country_code":"NZ","state_code":"E9","province_code":"","name":"Darfield","cp":["7541"],"lat":"-43.4833","lng":"172.1167"},{"country_code":"NZ","state_code":"E9","province_code":"","name":"Akaroa","cp":["7542"],"lat":"-43.8038","lng":"172.9682"},{"country_code":"NZ","state_code":"E9","province_code":"","name":"Kirwee","cp":["7543"],"lat":"-43.5","lng":"172.2167"},{"country_code":"NZ","state_code":"E9","province_code":"","name":"Hororata","cp":["7544"],"lat":"-43.5333","lng":"171.95"},{"country_code":"NZ","state_code":"E9","province_code":"","name":"Duvauchelle","cp":["7545"],"lat":"-43.75","lng":"172.9333"},{"country_code":"NZ","state_code":"E9","province_code":"","name":"Little River","cp":["7546"],"lat":"-43.7667","lng":"172.7833"},{"country_code":"NZ","state_code":"E9","province_code":"","name":"Doyleston","cp":["7548"],"lat":"-43.75","lng":"172.3"},{"country_code":"NZ","state_code":"E9","province_code":"","name":"Hawkins","cp":["7571"],"lat":"-43.4833","lng":"172.0333"},{"country_code":"NZ","state_code":"E9","province_code":"","name":"Lake Coleridge","cp":["7572"],"lat":"-43.3667","lng":"171.5333"},{"country_code":"NZ","state_code":"E9","province_code":"","name":"Craigieburn","cp":["7580"],"lat":"-43.1","lng":"171.8667"},{"country_code":"NZ","state_code":"E9","province_code":"","name":"Akaroa","cp":["7581"],"lat":"-43.8038","lng":"172.9682"},{"country_code":"NZ","state_code":"E9","province_code":"","name":"Wainui","cp":["7582"],"lat":"-43.8167","lng":"172.9"},{"country_code":"NZ","state_code":"E9","province_code":"","name":"Robinsons Bay","cp":["7583"],"lat":"-43.7667","lng":"172.9667"},{"country_code":"NZ","state_code":"E9","province_code":"","name":"Ataahua","cp":["7591"],"lat":"-43.7833","lng":"172.65"},{"country_code":"NZ","state_code":"E9","province_code":"","name":"Burnham","cp":["7600"],"lat":"-43.6167","lng":"172.3167"},{"country_code":"NZ","state_code":"E9","province_code":"","name":"Southbridge","cp":["7602"],"lat":"-43.8167","lng":"172.25"},{"country_code":"NZ","state_code":"E9","province_code":"","name":"Prebbleton","cp":["7604"],"lat":"-43.5833","lng":"172.5167"},{"country_code":"NZ","state_code":"E9","province_code":"","name":"Lincoln","cp":["7608"],"lat":"-43.65","lng":"172.4833"},{"country_code":"NZ","state_code":"E9","province_code":"","name":"Woodend","cp":["7610"],"lat":"-43.3167","lng":"172.6667"},{"country_code":"NZ","state_code":"E9","province_code":"","name":"Rolleston","cp":["7614"],"lat":"-43.5833","lng":"172.3833"},{"country_code":"NZ","state_code":"E9","province_code":"","name":"Springston","cp":["7616"],"lat":"-43.65","lng":"172.4167"},{"country_code":"NZ","state_code":"E9","province_code":"","name":"Kaiapoi","cp":["7630"],"lat":"-43.3783","lng":"172.6401"},{"country_code":"NZ","state_code":"E9","province_code":"","name":"Leeston","cp":["7632"],"lat":"-43.7667","lng":"172.3"},{"country_code":"NZ","state_code":"E9","province_code":"","name":"Lincoln","cp":["7640"],"lat":"-43.65","lng":"172.4833"},{"country_code":"NZ","state_code":"E9","province_code":"","name":"Woodend","cp":["7641"],"lat":"-43.3167","lng":"172.6667"},{"country_code":"NZ","state_code":"E9","province_code":"","name":"Southbridge","cp":["7642"],"lat":"-43.8167","lng":"172.25"},{"country_code":"NZ","state_code":"E9","province_code":"","name":"Rolleston","cp":["7643"],"lat":"-43.5833","lng":"172.3833"},{"country_code":"NZ","state_code":"E9","province_code":"","name":"Kaiapoi","cp":["7644"],"lat":"-43.3783","lng":"172.6401"},{"country_code":"NZ","state_code":"E9","province_code":"","name":"Tai Tapu","cp":["7645"],"lat":"-43.6667","lng":"172.55"},{"country_code":"NZ","state_code":"E9","province_code":"","name":"Coalgate","cp":["7646"],"lat":"-43.4833","lng":"171.9667"},{"country_code":"NZ","state_code":"E9","province_code":"","name":"Lincoln","cp":["7647"],"lat":"-43.65","lng":"172.4833"},{"country_code":"NZ","state_code":"E9","province_code":"","name":"Springfield","cp":["7649"],"lat":"-43.3333","lng":"171.9167"},{"country_code":"NZ","state_code":"E9","province_code":"","name":"Leeston","cp":["7656"],"lat":"-43.7667","lng":"172.3"},{"country_code":"NZ","state_code":"E9","province_code":"","name":"Dunsandel","cp":["7657"],"lat":"-43.6667","lng":"172.1833"},{"country_code":"NZ","state_code":"E9","province_code":"","name":"Coutts Island","cp":["7670"],"lat":"-43.4333","lng":"172.6167"},{"country_code":"NZ","state_code":"E9","province_code":"","name":"Aylesbury","cp":["7671"],"lat":"-43.5333","lng":"172.2667"},{"country_code":"NZ","state_code":"E9","province_code":"","name":"Motukarara","cp":["7672"],"lat":"-43.7333","lng":"172.5833"},{"country_code":"NZ","state_code":"E9","province_code":"","name":"Whitecliffs","cp":["7673"],"lat":"-43.4667","lng":"171.9"},{"country_code":"NZ","state_code":"E9","province_code":"","name":"Springston South","cp":["7674"],"lat":"-43.6833","lng":"172.4333"},{"country_code":"NZ","state_code":"E9","province_code":"","name":"Rolleston","cp":["7675"],"lat":"-43.5833","lng":"172.3833"},{"country_code":"NZ","state_code":"E9","province_code":"","name":"Templeton","cp":["7676"],"lat":"-43.55","lng":"172.4667"},{"country_code":"NZ","state_code":"E9","province_code":"","name":"Springfield","cp":["7681"],"lat":"-43.3333","lng":"171.9167"},{"country_code":"NZ","state_code":"E9","province_code":"","name":"Dunsandel","cp":["7682"],"lat":"-43.6667","lng":"172.1833"},{"country_code":"NZ","state_code":"E9","province_code":"","name":"Southbridge","cp":["7683"],"lat":"-43.8167","lng":"172.25"},{"country_code":"NZ","state_code":"E9","province_code":"","name":"Flaxton","cp":["7691"],"lat":"-43.35","lng":"172.6333"},{"country_code":"NZ","state_code":"E9","province_code":"","name":"Wetheral","cp":["7692"],"lat":"-43.3667","lng":"172.5833"},{"country_code":"NZ","state_code":"E9","province_code":"","name":"Allenton","cp":["7700"],"lat":"-43.8883","lng":"171.7401"},{"country_code":"NZ","state_code":"E9","province_code":"","name":"Rakaia","cp":["7710"],"lat":"-43.75","lng":"172.0167"},{"country_code":"NZ","state_code":"E9","province_code":"","name":"Methven","cp":["7730"],"lat":"-43.6333","lng":"171.65"},{"country_code":"NZ","state_code":"E9","province_code":"","name":"Hampstead","cp":["7740"],"lat":"-43.9083","lng":"171.7501"},{"country_code":"NZ","state_code":"E9","province_code":"","name":"Tinwald","cp":["7741"],"lat":"-43.9167","lng":"171.7167"},{"country_code":"NZ","state_code":"E9","province_code":"","name":"Allenton","cp":["7742"],"lat":"-43.8883","lng":"171.7401"},{"country_code":"NZ","state_code":"E9","province_code":"","name":"Rakaia","cp":["7743"],"lat":"-43.75","lng":"172.0167"},{"country_code":"NZ","state_code":"E9","province_code":"","name":"Methven","cp":["7745"],"lat":"-43.6333","lng":"171.65"},{"country_code":"NZ","state_code":"E9","province_code":"","name":"Mount Somers","cp":["7746"],"lat":"-43.7167","lng":"171.4"},{"country_code":"NZ","state_code":"E9","province_code":"","name":"Hinds","cp":["7747"],"lat":"-44","lng":"171.5667"},{"country_code":"NZ","state_code":"E9","province_code":"","name":"Mayfield","cp":["7748"],"lat":"-43.8167","lng":"171.4167"},{"country_code":"NZ","state_code":"E9","province_code":"","name":"Staveley","cp":["7771"],"lat":"-43.65","lng":"171.4333"},{"country_code":"NZ","state_code":"E9","province_code":"","name":"Mitcham","cp":["7772"],"lat":"-43.75","lng":"171.85"},{"country_code":"NZ","state_code":"E9","province_code":"","name":"Hinds","cp":["7773"],"lat":"-44","lng":"171.5667"},{"country_code":"NZ","state_code":"E9","province_code":"","name":"Flemington","cp":["7774"],"lat":"-44.0167","lng":"171.7333"},{"country_code":"NZ","state_code":"E9","province_code":"","name":"Lismore","cp":["7775"],"lat":"-43.9","lng":"171.4833"},{"country_code":"NZ","state_code":"E9","province_code":"","name":"Lyndhurst","cp":["7776"],"lat":"-43.7","lng":"171.7167"},{"country_code":"NZ","state_code":"E9","province_code":"","name":"Seafield","cp":["7777"],"lat":"-43.9167","lng":"171.9"},{"country_code":"NZ","state_code":"E9","province_code":"","name":"Mayfield","cp":["7778"],"lat":"-43.8167","lng":"171.4167"},{"country_code":"NZ","state_code":"E9","province_code":"","name":"Dorie","cp":["7781"],"lat":"-43.8833","lng":"172.15"},{"country_code":"NZ","state_code":"E9","province_code":"","name":"Highbank","cp":["7782"],"lat":"-43.6167","lng":"171.75"},{"country_code":"NZ","state_code":"E9","province_code":"","name":"Te Pirita","cp":["7783"],"lat":"-43.6667","lng":"171.95"},{"country_code":"NZ","state_code":"E9","province_code":"","name":"Somerton","cp":["7784"],"lat":"-43.75","lng":"171.9167"},{"country_code":"NZ","state_code":"E9","province_code":"","name":"Lake Coleridge","cp":["7791"],"lat":"-43.3667","lng":"171.5333"},{"country_code":"NZ","state_code":"E9","province_code":"","name":"Twizel","cp":["7901"],"lat":"-44.2584","lng":"170.1006"},{"country_code":"NZ","state_code":"E9","province_code":"","name":"Pleasant Point","cp":["7903"],"lat":"-44.2667","lng":"171.1333"},{"country_code":"NZ","state_code":"E9","province_code":"","name":"Seaview","cp":["7910"],"lat":"-44.3966","lng":"171.2415"},{"country_code":"NZ","state_code":"E9","province_code":"","name":"Pareora","cp":["7912"],"lat":"-44.5","lng":"171.2"},{"country_code":"NZ","state_code":"E9","province_code":"","name":"Temuka","cp":["7920"],"lat":"-44.2283","lng":"171.2801"},{"country_code":"NZ","state_code":"E9","province_code":"","name":"Waimate","cp":["7924"],"lat":"-44.7284","lng":"171.0501"},{"country_code":"NZ","state_code":"E9","province_code":"","name":"Fairlie","cp":["7925"],"lat":"-44.1","lng":"170.8333"},{"country_code":"NZ","state_code":"E9","province_code":"","name":"Geraldine","cp":["7930"],"lat":"-44.0906","lng":"171.2446"},{"country_code":"NZ","state_code":"E9","province_code":"","name":"Timaru","cp":["7940"],"lat":"-44.3967","lng":"171.2536"},{"country_code":"NZ","state_code":"E9","province_code":"","name":"Puhuka","cp":["7941"],"lat":"-44.3583","lng":"171.2301"},{"country_code":"NZ","state_code":"E9","province_code":"","name":"Parkside","cp":["7942"],"lat":"-44.4029","lng":"171.2546"},{"country_code":"NZ","state_code":"E9","province_code":"","name":"Kensington","cp":["7943"],"lat":"-44.412","lng":"171.247"},{"country_code":"NZ","state_code":"E9","province_code":"","name":"Twizel","cp":["7944"],"lat":"-44.2584","lng":"170.1006"},{"country_code":"NZ","state_code":"E9","province_code":"","name":"Lake Tekapo","cp":["7945"],"lat":"-44.0064","lng":"170.4803"},{"country_code":"NZ","state_code":"E9","province_code":"","name":"Glentanner","cp":["7946"],"lat":"-43.9073","lng":"170.1234"},{"country_code":"NZ","state_code":"E9","province_code":"","name":"Pleasant Point","cp":["7947"],"lat":"-44.2667","lng":"171.1333"},{"country_code":"NZ","state_code":"E9","province_code":"","name":"Temuka","cp":["7948"],"lat":"-44.2283","lng":"171.2801"},{"country_code":"NZ","state_code":"E9","province_code":"","name":"Fairlie","cp":["7949"],"lat":"-44.1","lng":"170.8333"},{"country_code":"NZ","state_code":"E9","province_code":"","name":"Geraldine","cp":["7956"],"lat":"-44.0906","lng":"171.2446"},{"country_code":"NZ","state_code":"E9","province_code":"","name":"Cave","cp":["7957"],"lat":"-44.3167","lng":"170.95"},{"country_code":"NZ","state_code":"E9","province_code":"","name":"Winchester","cp":["7958"],"lat":"-44.2","lng":"171.2833"},{"country_code":"NZ","state_code":"E9","province_code":"","name":"Waimate","cp":["7960"],"lat":"-44.7284","lng":"171.0501"},{"country_code":"NZ","state_code":"E9","province_code":"","name":"Esk Valley","cp":["7971"],"lat":"-44.5333","lng":"171.0833"},{"country_code":"NZ","state_code":"E9","province_code":"","name":"Southburn","cp":["7972"],"lat":"-44.45","lng":"171.1"},{"country_code":"NZ","state_code":"E9","province_code":"","name":"Seadown","cp":["7973"],"lat":"-44.3","lng":"171.2667"},{"country_code":"NZ","state_code":"E9","province_code":"","name":"Claremont","cp":["7974"],"lat":"-44.4","lng":"171.0833"},{"country_code":"NZ","state_code":"E9","province_code":"","name":"Waihaorunga","cp":["7977"],"lat":"-44.75","lng":"170.8167"},{"country_code":"NZ","state_code":"E9","province_code":"","name":"Waimate","cp":["7978"],"lat":"-44.7284","lng":"171.0501"},{"country_code":"NZ","state_code":"E9","province_code":"","name":"Waihao Forks","cp":["7979"],"lat":"-44.8","lng":"170.9333"},{"country_code":"NZ","state_code":"E9","province_code":"","name":"Morven","cp":["7980"],"lat":"-44.8333","lng":"171.1167"},{"country_code":"NZ","state_code":"E9","province_code":"","name":"Hazelburn","cp":["7982"],"lat":"-44.2","lng":"170.9833"},{"country_code":"NZ","state_code":"E9","province_code":"","name":"Sutherlands","cp":["7983"],"lat":"-44.2833","lng":"171.05"},{"country_code":"NZ","state_code":"E9","province_code":"","name":"Mawaro","cp":["7984"],"lat":"-44.3","lng":"170.8833"},{"country_code":"NZ","state_code":"E9","province_code":"","name":"Waitohi Flat","cp":["7985"],"lat":"-44.2167","lng":"171.1833"},{"country_code":"NZ","state_code":"E9","province_code":"","name":"Orton","cp":["7986"],"lat":"-44.1667","lng":"171.4333"},{"country_code":"NZ","state_code":"E9","province_code":"","name":"Waikarua","cp":["7987"],"lat":"-44.0333","lng":"170.8833"},{"country_code":"NZ","state_code":"E9","province_code":"","name":"Esk Valley","cp":["7988"],"lat":"-44.5333","lng":"171.0833"},{"country_code":"NZ","state_code":"E9","province_code":"","name":"Sherwood Downs","cp":["7990"],"lat":"-43.9667","lng":"170.8667"},{"country_code":"NZ","state_code":"E9","province_code":"","name":"Te Moana","cp":["7991"],"lat":"-44.0667","lng":"171.1333"},{"country_code":"NZ","state_code":"E9","province_code":"","name":"Arundel","cp":["7992"],"lat":"-43.9833","lng":"171.2833"},{"country_code":"NZ","state_code":"E9","province_code":"","name":"Glentanner","cp":["7999"],"lat":"-43.9073","lng":"170.1234"},{"country_code":"NZ","state_code":"E9","province_code":"","name":"Christchurch","cp":["8011","8013"],"lat":"-43.5333","lng":"172.6333"},{"country_code":"NZ","state_code":"E9","province_code":"","name":"Saint Albans","cp":["8014"],"lat":"-43.5167","lng":"172.6167"},{"country_code":"NZ","state_code":"E9","province_code":"","name":"Cashmere Hills","cp":["8022"],"lat":"-43.5833","lng":"172.6333"},{"country_code":"NZ","state_code":"E9","province_code":"","name":"Hillsborough","cp":["8023"],"lat":"-43.5626","lng":"172.6737"},{"country_code":"NZ","state_code":"E9","province_code":"","name":"Spreydon","cp":["8024"],"lat":"-43.5567","lng":"172.6169"},{"country_code":"NZ","state_code":"E9","province_code":"","name":"Halswell","cp":["8025"],"lat":"-43.5833","lng":"172.5667"},{"country_code":"NZ","state_code":"E9","province_code":"","name":"Fendalton","cp":["8041"],"lat":"-43.5167","lng":"172.6"},{"country_code":"NZ","state_code":"E9","province_code":"","name":"Hei Hei","cp":["8042"],"lat":"-43.5283","lng":"172.5201"},{"country_code":"NZ","state_code":"E9","province_code":"","name":"Harewood","cp":["8051"],"lat":"-43.4833","lng":"172.5833"},{"country_code":"NZ","state_code":"E9","province_code":"","name":"Papanui","cp":["8052"],"lat":"-43.5","lng":"172.6167"},{"country_code":"NZ","state_code":"E9","province_code":"","name":"Burnside","cp":["8053"],"lat":"-43.4983","lng":"172.5601"},{"country_code":"NZ","state_code":"E9","province_code":"","name":"Aranui","cp":["8061"],"lat":"-43.5167","lng":"172.7"},{"country_code":"NZ","state_code":"E9","province_code":"","name":"Bromley","cp":["8062"],"lat":"-43.5283","lng":"172.6801"},{"country_code":"NZ","state_code":"E9","province_code":"","name":"Sumner","cp":["8081"],"lat":"-43.5683","lng":"172.7601"},{"country_code":"NZ","state_code":"E9","province_code":"","name":"Lyttelton","cp":["8082"],"lat":"-43.6031","lng":"172.7176"},{"country_code":"NZ","state_code":"E9","province_code":"","name":"Ouruhia","cp":["8083"],"lat":"-43.45","lng":"172.65"},{"country_code":"NZ","state_code":"E9","province_code":"","name":"Christchurch","cp":["8140","8141","8142"],"lat":"-43.5333","lng":"172.6333"},{"country_code":"NZ","state_code":"E9","province_code":"","name":"Saint Albans","cp":["8143"],"lat":"-43.5167","lng":"172.6167"},{"country_code":"NZ","state_code":"E9","province_code":"","name":"Christchurch","cp":["8144"],"lat":"-43.5333","lng":"172.6333"},{"country_code":"NZ","state_code":"E9","province_code":"","name":"Opawa","cp":["8145"],"lat":"-43.555","lng":"172.6614"},{"country_code":"NZ","state_code":"E9","province_code":"","name":"Saint Albans","cp":["8146"],"lat":"-43.5167","lng":"172.6167"},{"country_code":"NZ","state_code":"E9","province_code":"","name":"Linwood","cp":["8147"],"lat":"-43.5333","lng":"172.65"},{"country_code":"NZ","state_code":"E9","province_code":"","name":"Avonside","cp":["8148"],"lat":"-43.5183","lng":"172.6601"},{"country_code":"NZ","state_code":"E9","province_code":"","name":"Spreydon","cp":["8149"],"lat":"-43.5567","lng":"172.6169"},{"country_code":"NZ","state_code":"E9","province_code":"","name":"Sydenham","cp":["8240"],"lat":"-43.547","lng":"172.6359"},{"country_code":"NZ","state_code":"E9","province_code":"","name":"Woolston","cp":["8241"],"lat":"-43.5473","lng":"172.6774"},{"country_code":"NZ","state_code":"E9","province_code":"","name":"Beckenham","cp":["8242"],"lat":"-43.565","lng":"172.6411"},{"country_code":"NZ","state_code":"E9","province_code":"","name":"Spreydon","cp":["8243"],"lat":"-43.5567","lng":"172.6169"},{"country_code":"NZ","state_code":"E9","province_code":"","name":"Somerfield","cp":["8244"],"lat":"-43.5593","lng":"172.6313"},{"country_code":"NZ","state_code":"E9","province_code":"","name":"Halswell","cp":["8245"],"lat":"-43.5833","lng":"172.5667"},{"country_code":"NZ","state_code":"E9","province_code":"","name":"Hillsborough","cp":["8246"],"lat":"-43.5626","lng":"172.6737"},{"country_code":"NZ","state_code":"E9","province_code":"","name":"Mount Pleasant","cp":["8247"],"lat":"-43.5628","lng":"172.7152"},{"country_code":"NZ","state_code":"E9","province_code":"","name":"Riccarton","cp":["8440"],"lat":"-43.5283","lng":"172.5901"},{"country_code":"NZ","state_code":"E9","province_code":"","name":"Hornby","cp":["8441"],"lat":"-43.55","lng":"172.5333"},{"country_code":"NZ","state_code":"E9","province_code":"","name":"Upper Riccarton","cp":["8442"],"lat":"-43.5283","lng":"172.5701"},{"country_code":"NZ","state_code":"E9","province_code":"","name":"Wigram","cp":["8443"],"lat":"-43.55","lng":"172.55"},{"country_code":"NZ","state_code":"E9","province_code":"","name":"Ilam","cp":["8444"],"lat":"-43.5183","lng":"172.5701"},{"country_code":"NZ","state_code":"E9","province_code":"","name":"Templeton","cp":["8445"],"lat":"-43.55","lng":"172.4667"},{"country_code":"NZ","state_code":"E9","province_code":"","name":"Fendalton","cp":["8540"],"lat":"-43.5167","lng":"172.6"},{"country_code":"NZ","state_code":"E9","province_code":"","name":"Papanui","cp":["8542"],"lat":"-43.5","lng":"172.6167"},{"country_code":"NZ","state_code":"E9","province_code":"","name":"Harewood","cp":["8543","8544"],"lat":"-43.4833","lng":"172.5833"},{"country_code":"NZ","state_code":"E9","province_code":"","name":"Burnside","cp":["8545"],"lat":"-43.4983","lng":"172.5601"},{"country_code":"NZ","state_code":"E9","province_code":"","name":"Belfast","cp":["8546"],"lat":"-43.45","lng":"172.6333"},{"country_code":"NZ","state_code":"E9","province_code":"","name":"Dallington","cp":["8640"],"lat":"-43.5083","lng":"172.6701"},{"country_code":"NZ","state_code":"E9","province_code":"","name":"New Brighton","cp":["8641"],"lat":"-43.5167","lng":"172.7333"},{"country_code":"NZ","state_code":"E9","province_code":"","name":"Bromley","cp":["8642"],"lat":"-43.5283","lng":"172.6801"},{"country_code":"NZ","state_code":"E9","province_code":"","name":"Aranui","cp":["8643"],"lat":"-43.5167","lng":"172.7"},{"country_code":"NZ","state_code":"E9","province_code":"","name":"Sumner","cp":["8840"],"lat":"-43.5683","lng":"172.7601"},{"country_code":"NZ","state_code":"E9","province_code":"","name":"Lyttelton","cp":["8841"],"lat":"-43.6031","lng":"172.7176"},{"country_code":"NZ","state_code":"E9","province_code":"","name":"North New Brighton","cp":["8842"],"lat":"-43.4918","lng":"172.7202"},{"country_code":"NZ","state_code":"E9","province_code":"","name":"Diamond Harbour","cp":["8941","8942"],"lat":"-43.6289","lng":"172.7254"},{"country_code":"NZ","state_code":"E9","province_code":"","name":"Allandale","cp":["8971"],"lat":"-43.65","lng":"172.65"},{"country_code":"NZ","state_code":"E9","province_code":"","name":"Pigeon Bay","cp":["8972"],"lat":"-43.688","lng":"172.8929"},{"country_code":"NZ","state_code":"E9","province_code":"","name":"Duntroon","cp":["9445"],"lat":"-44.8554","lng":"170.6848"},{"country_code":"NZ","state_code":"E9","province_code":"","name":"Kurow","cp":["9446"],"lat":"-44.7334","lng":"170.4696"},{"country_code":"NZ","state_code":"E9","province_code":"","name":"Omarama","cp":["9448"],"lat":"-44.4885","lng":"169.9663"},{"country_code":"NZ","state_code":"E9","province_code":"","name":"Kaingapai","cp":["9498"],"lat":"-44.6","lng":"170.5667"},{"country_code":"NZ","state_code":"F1","province_code":"","name":"Kaiti","cp":["4010"],"lat":"-38.6682","lng":"178.0302"},{"country_code":"NZ","state_code":"F1","province_code":"","name":"Te Karaka","cp":["4022"],"lat":"-38.4667","lng":"177.8667"},{"country_code":"NZ","state_code":"F1","province_code":"","name":"Ruatoria","cp":["4032"],"lat":"-37.8833","lng":"178.3333"},{"country_code":"NZ","state_code":"F1","province_code":"","name":"Kaiti","cp":["4040"],"lat":"-38.6682","lng":"178.0302"},{"country_code":"NZ","state_code":"F1","province_code":"","name":"Tamarau","cp":["4041"],"lat":"-38.6782","lng":"178.0502"},{"country_code":"NZ","state_code":"F1","province_code":"","name":"Te Karaka","cp":["4042"],"lat":"-38.4667","lng":"177.8667"},{"country_code":"NZ","state_code":"F1","province_code":"","name":"Ruatoria","cp":["4043"],"lat":"-37.8833","lng":"178.3333"},{"country_code":"NZ","state_code":"F1","province_code":"","name":"Tiniroto","cp":["4044"],"lat":"-38.7667","lng":"177.5667"},{"country_code":"NZ","state_code":"F1","province_code":"","name":"Patutahi","cp":["4045"],"lat":"-38.6167","lng":"177.9"},{"country_code":"NZ","state_code":"F1","province_code":"","name":"Tolaga Bay","cp":["4046"],"lat":"-38.3667","lng":"178.3"},{"country_code":"NZ","state_code":"F1","province_code":"","name":"Tokomaru","cp":["4047"],"lat":"-38.1333","lng":"178.3"},{"country_code":"NZ","state_code":"F1","province_code":"","name":"Te Puia","cp":["4048"],"lat":"-38.0667","lng":"178.3"},{"country_code":"NZ","state_code":"F1","province_code":"","name":"Rangitukia","cp":["4049"],"lat":"-37.7667","lng":"178.45"},{"country_code":"NZ","state_code":"F1","province_code":"","name":"Te Araroa","cp":["4050"],"lat":"-37.6333","lng":"178.3667"},{"country_code":"NZ","state_code":"F1","province_code":"","name":"Matawai","cp":["4051"],"lat":"-38.35","lng":"177.5333"},{"country_code":"NZ","state_code":"F1","province_code":"","name":"Motu","cp":["4052"],"lat":"-38.25","lng":"177.55"},{"country_code":"NZ","state_code":"F1","province_code":"","name":"Waerengaahika","cp":["4071"],"lat":"-38.6","lng":"177.9333"},{"country_code":"NZ","state_code":"F1","province_code":"","name":"Pehiri","cp":["4072"],"lat":"-38.6333","lng":"177.7"},{"country_code":"NZ","state_code":"F1","province_code":"","name":"Whangara","cp":["4073"],"lat":"-38.5667","lng":"178.2167"},{"country_code":"NZ","state_code":"F1","province_code":"","name":"Rakauroa","cp":["4075"],"lat":"-38.4167","lng":"177.55"},{"country_code":"NZ","state_code":"F1","province_code":"","name":"Tolaga Bay","cp":["4077"],"lat":"-38.3667","lng":"178.3"},{"country_code":"NZ","state_code":"F1","province_code":"","name":"Tiniroto","cp":["4078"],"lat":"-38.7667","lng":"177.5667"},{"country_code":"NZ","state_code":"F1","province_code":"","name":"Tokomaru","cp":["4079"],"lat":"-38.1333","lng":"178.3"},{"country_code":"NZ","state_code":"F1","province_code":"","name":"Waitakaro","cp":["4081"],"lat":"-37.9333","lng":"178.2667"},{"country_code":"NZ","state_code":"F1","province_code":"","name":"Ruatoria","cp":["4082"],"lat":"-37.8833","lng":"178.3333"},{"country_code":"NZ","state_code":"F1","province_code":"","name":"Pakihiroa","cp":["4083"],"lat":"-37.85","lng":"178.0667"},{"country_code":"NZ","state_code":"F1","province_code":"","name":"Whakaangiangi","cp":["4086"],"lat":"-37.7167","lng":"178.3"},{"country_code":"NZ","state_code":"F1","province_code":"","name":"Te Araroa","cp":["4087"],"lat":"-37.6333","lng":"178.3667"},{"country_code":"NZ","state_code":"F1","province_code":"","name":"Ahititi","cp":["4091"],"lat":"-38.4333","lng":"178.05"},{"country_code":"NZ","state_code":"F1","province_code":"","name":"Otoko","cp":["4092"],"lat":"-38.4","lng":"177.6667"},{"country_code":"NZ","state_code":"F1","province_code":"","name":"Te Karaka","cp":["4093"],"lat":"-38.4667","lng":"177.8667"},{"country_code":"NZ","state_code":"F1","province_code":"","name":"Whatatutu","cp":["4094"],"lat":"-38.3833","lng":"177.8333"},{"country_code":"NZ","state_code":"F2","province_code":"","name":"Tarawera","cp":["3360"],"lat":"-39.0333","lng":"176.5833"},{"country_code":"NZ","state_code":"F2","province_code":"","name":"Haumoana","cp":["4102"],"lat":"-39.6037","lng":"176.9457"},{"country_code":"NZ","state_code":"F2","province_code":"","name":"Petane","cp":["4104"],"lat":"-39.3833","lng":"176.8667"},{"country_code":"NZ","state_code":"F2","province_code":"","name":"North Clyde","cp":["4108"],"lat":"-39.0282","lng":"177.4202"},{"country_code":"NZ","state_code":"F2","province_code":"","name":"Onekawa","cp":["4110"],"lat":"-39.4982","lng":"176.8802"},{"country_code":"NZ","state_code":"F2","province_code":"","name":"Puk-kura","cp":["4112"],"lat":"-39.5233","lng":"176.8442"},{"country_code":"NZ","state_code":"F2","province_code":"","name":"HASTINGS","cp":["4120"],"lat":"-39.6381","lng":"176.8492"},{"country_code":"NZ","state_code":"F2","province_code":"","name":"Akina","cp":["4122"],"lat":"-39.6482","lng":"176.8402"},{"country_code":"NZ","state_code":"F2","province_code":"","name":"Havelock North","cp":["4130"],"lat":"-39.6667","lng":"176.8833"},{"country_code":"NZ","state_code":"F2","province_code":"","name":"Onekawa","cp":["4140"],"lat":"-39.5091","lng":"176.8896"},{"country_code":"NZ","state_code":"F2","province_code":"","name":"Taradale","cp":["4141"],"lat":"-39.5333","lng":"176.85"},{"country_code":"NZ","state_code":"F2","province_code":"","name":"Pirimai","cp":["4142"],"lat":"-39.5082","lng":"176.8802"},{"country_code":"NZ","state_code":"F2","province_code":"","name":"Napier South","cp":["4143"],"lat":"-39.4982","lng":"176.9002"},{"country_code":"NZ","state_code":"F2","province_code":"","name":"Ahuriri","cp":["4144"],"lat":"-39.4833","lng":"176.9"},{"country_code":"NZ","state_code":"F2","province_code":"","name":"Greenmeadows","cp":["4145"],"lat":"-39.5182","lng":"176.8602"},{"country_code":"NZ","state_code":"F2","province_code":"","name":"Pirimai","cp":["4146"],"lat":"-39.5082","lng":"176.8802"},{"country_code":"NZ","state_code":"F2","province_code":"","name":"Tamatea","cp":["4147"],"lat":"-39.5082","lng":"176.8602"},{"country_code":"NZ","state_code":"F2","province_code":"","name":"Clive","cp":["4148"],"lat":"-39.5833","lng":"176.9167"},{"country_code":"NZ","state_code":"F2","province_code":"","name":"Petane","cp":["4149"],"lat":"-39.4131","lng":"176.8767"},{"country_code":"NZ","state_code":"F2","province_code":"","name":"Saint Leonards","cp":["4153"],"lat":"-39.6282","lng":"176.8302"},{"country_code":"NZ","state_code":"F2","province_code":"","name":"Flaxmere","cp":["4154"],"lat":"-39.6182","lng":"176.7802"},{"country_code":"NZ","state_code":"F2","province_code":"","name":"Parkvale","cp":["4155","4156"],"lat":"-39.6382","lng":"176.8502"},{"country_code":"NZ","state_code":"F2","province_code":"","name":"Havelock North","cp":["4157"],"lat":"-39.6667","lng":"176.8833"},{"country_code":"NZ","state_code":"F2","province_code":"","name":"Parkvale","cp":["4158"],"lat":"-39.6382","lng":"176.8502"},{"country_code":"NZ","state_code":"F2","province_code":"","name":"Mayfair","cp":["4159"],"lat":"-39.6382","lng":"176.8502"},{"country_code":"NZ","state_code":"F2","province_code":"","name":"Wairoa","cp":["4160"],"lat":"-39.0333","lng":"177.3667"},{"country_code":"NZ","state_code":"F2","province_code":"","name":"Pahowai","cp":["4161"],"lat":"-39.6006","lng":"176.8942"},{"country_code":"NZ","state_code":"F2","province_code":"","name":"Tutira","cp":["4162"],"lat":"-39.2","lng":"176.8667"},{"country_code":"NZ","state_code":"F2","province_code":"","name":"Frasertown","cp":["4163"],"lat":"-38.9686","lng":"177.4006"},{"country_code":"NZ","state_code":"F2","province_code":"","name":"Tuai","cp":["4164"],"lat":"-38.8167","lng":"177.1667"},{"country_code":"NZ","state_code":"F2","province_code":"","name":"Nuhaka","cp":["4165"],"lat":"-39.05","lng":"177.75"},{"country_code":"NZ","state_code":"F2","province_code":"","name":"Mahia","cp":["4166"],"lat":"-39.0872","lng":"177.9172"},{"country_code":"NZ","state_code":"F2","province_code":"","name":"Blackburn","cp":["4171"],"lat":"-39.8667","lng":"176.2833"},{"country_code":"NZ","state_code":"F2","province_code":"","name":"Te Awanga","cp":["4172"],"lat":"-39.6333","lng":"176.9833"},{"country_code":"NZ","state_code":"F2","province_code":"","name":"Te Hauke","cp":["4174"],"lat":"-39.7667","lng":"176.6833"},{"country_code":"NZ","state_code":"F2","province_code":"","name":"Flaxmere","cp":["4175"],"lat":"-39.6182","lng":"176.7802"},{"country_code":"NZ","state_code":"F2","province_code":"","name":"Poukawa","cp":["4178"],"lat":"-39.7667","lng":"176.7333"},{"country_code":"NZ","state_code":"F2","province_code":"","name":"Puketitiri","cp":["4179"],"lat":"-39.2833","lng":"176.55"},{"country_code":"NZ","state_code":"F2","province_code":"","name":"Tutira","cp":["4181"],"lat":"-39.2","lng":"176.8667"},{"country_code":"NZ","state_code":"F2","province_code":"","name":"Te Pohue","cp":["4182"],"lat":"-39.25","lng":"176.6833"},{"country_code":"NZ","state_code":"F2","province_code":"","name":"Taradale","cp":["4183"],"lat":"-39.5333","lng":"176.85"},{"country_code":"NZ","state_code":"F2","province_code":"","name":"Puketitiri","cp":["4184"],"lat":"-39.2833","lng":"176.55"},{"country_code":"NZ","state_code":"F2","province_code":"","name":"Patoka","cp":["4186"],"lat":"-39.35","lng":"176.6167"},{"country_code":"NZ","state_code":"F2","province_code":"","name":"Kotemaori","cp":["4188","4189"],"lat":"-39.0667","lng":"177.0333"},{"country_code":"NZ","state_code":"F2","province_code":"","name":"Raupunga","cp":["4191"],"lat":"-39.0333","lng":"177.2167"},{"country_code":"NZ","state_code":"F2","province_code":"","name":"Wairoa","cp":["4193"],"lat":"-39.0333","lng":"177.3667"},{"country_code":"NZ","state_code":"F2","province_code":"","name":"Tuai","cp":["4195"],"lat":"-38.8167","lng":"177.1667"},{"country_code":"NZ","state_code":"F2","province_code":"","name":"Opoiti","cp":["4196"],"lat":"-38.8883","lng":"177.4928"},{"country_code":"NZ","state_code":"F2","province_code":"","name":"Raupunga","cp":["4197"],"lat":"-39.0333","lng":"177.2167"},{"country_code":"NZ","state_code":"F2","province_code":"","name":"Waitaniwha","cp":["4198"],"lat":"-39.0592","lng":"177.7989"},{"country_code":"NZ","state_code":"F2","province_code":"","name":"Waipukurau","cp":["4200"],"lat":"-39.9982","lng":"176.5602"},{"country_code":"NZ","state_code":"F2","province_code":"","name":"Otane","cp":["4202"],"lat":"-39.8833","lng":"176.6333"},{"country_code":"NZ","state_code":"F2","province_code":"","name":"Takapau","cp":["4203"],"lat":"-40.0333","lng":"176.35"},{"country_code":"NZ","state_code":"F2","province_code":"","name":"Waipawa","cp":["4210","4240"],"lat":"-39.9382","lng":"176.6002"},{"country_code":"NZ","state_code":"F2","province_code":"","name":"Otane","cp":["4241"],"lat":"-39.8833","lng":"176.6333"},{"country_code":"NZ","state_code":"F2","province_code":"","name":"Waipukurau","cp":["4242"],"lat":"-39.9982","lng":"176.5602"},{"country_code":"NZ","state_code":"F2","province_code":"","name":"Takapau","cp":["4243"],"lat":"-40.0333","lng":"176.35"},{"country_code":"NZ","state_code":"F2","province_code":"","name":"Onga Onga","cp":["4244"],"lat":"-39.9167","lng":"176.4167"},{"country_code":"NZ","state_code":"F2","province_code":"","name":"Porangahau","cp":["4245"],"lat":"-40.2789","lng":"176.6283"},{"country_code":"NZ","state_code":"F2","province_code":"","name":"Patangata","cp":["4271"],"lat":"-39.9167","lng":"176.7167"},{"country_code":"NZ","state_code":"F2","province_code":"","name":"Ruataniwha","cp":["4272"],"lat":"-39.9333","lng":"176.5"},{"country_code":"NZ","state_code":"F2","province_code":"","name":"Argyll East","cp":["4273"],"lat":"-39.8667","lng":"176.5333"},{"country_code":"NZ","state_code":"F2","province_code":"","name":"Tikokino","cp":["4274"],"lat":"-39.8167","lng":"176.45"},{"country_code":"NZ","state_code":"F2","province_code":"","name":"Waipawa","cp":["4275"],"lat":"-39.9382","lng":"176.6002"},{"country_code":"NZ","state_code":"F2","province_code":"","name":"Pukehou","cp":["4276"],"lat":"-39.8333","lng":"176.6333"},{"country_code":"NZ","state_code":"F2","province_code":"","name":"Patangata","cp":["4277"],"lat":"-39.9167","lng":"176.7167"},{"country_code":"NZ","state_code":"F2","province_code":"","name":"Blackburn","cp":["4278","4279"],"lat":"-39.8667","lng":"176.2833"},{"country_code":"NZ","state_code":"F2","province_code":"","name":"Maharakeke","cp":["4281"],"lat":"-40.0167","lng":"176.45"},{"country_code":"NZ","state_code":"F2","province_code":"","name":"Wanstead","cp":["4282"],"lat":"-40.1333","lng":"176.5333"},{"country_code":"NZ","state_code":"F2","province_code":"","name":"Ruataniwha","cp":["4283"],"lat":"-39.9333","lng":"176.5"},{"country_code":"NZ","state_code":"F2","province_code":"","name":"Wallingford","cp":["4284"],"lat":"-40.2167","lng":"176.6"},{"country_code":"NZ","state_code":"F2","province_code":"","name":"Waipukurau","cp":["4285"],"lat":"-39.9982","lng":"176.5602"},{"country_code":"NZ","state_code":"F2","province_code":"","name":"Ashley Clinton","cp":["4286"],"lat":"-39.95","lng":"176.25"},{"country_code":"NZ","state_code":"F2","province_code":"","name":"Maharakeke","cp":["4288"],"lat":"-40.0167","lng":"176.45"},{"country_code":"NZ","state_code":"F2","province_code":"","name":"Porangahau","cp":["4291","4292","4293"],"lat":"-40.2789","lng":"176.6283"},{"country_code":"NZ","state_code":"F2","province_code":"","name":"Waimarama","cp":["4294"],"lat":"-39.8","lng":"176.9833"},{"country_code":"NZ","state_code":"F2","province_code":"","name":"Elsthorpe","cp":["4295"],"lat":"-39.9167","lng":"176.8167"},{"country_code":"NZ","state_code":"F3","province_code":"","name":"Taumarunui","cp":["3920"],"lat":"-38.8782","lng":"175.2602"},{"country_code":"NZ","state_code":"F3","province_code":"","name":"Manunui","cp":["3924"],"lat":"-38.8833","lng":"175.3333"},{"country_code":"NZ","state_code":"F3","province_code":"","name":"Ohura","cp":["3926"],"lat":"-38.8333","lng":"174.9833"},{"country_code":"NZ","state_code":"F3","province_code":"","name":"Taumarunui","cp":["3946"],"lat":"-38.8782","lng":"175.2602"},{"country_code":"NZ","state_code":"F3","province_code":"","name":"Ohura","cp":["3947"],"lat":"-38.8333","lng":"174.9833"},{"country_code":"NZ","state_code":"F3","province_code":"","name":"National Park","cp":["3948"],"lat":"-39.1833","lng":"175.4"},{"country_code":"NZ","state_code":"F3","province_code":"","name":"Waitewhenua","cp":["3979"],"lat":"-38.7","lng":"174.9667"},{"country_code":"NZ","state_code":"F3","province_code":"","name":"Tatu","cp":["3980"],"lat":"-38.9","lng":"174.95"},{"country_code":"NZ","state_code":"F3","province_code":"","name":"Oio","cp":["3989"],"lat":"-39.05","lng":"175.4167"},{"country_code":"NZ","state_code":"F3","province_code":"","name":"Upper Ruatiti","cp":["3990"],"lat":"-39.2","lng":"175.2"},{"country_code":"NZ","state_code":"F3","province_code":"","name":"Aukopae","cp":["3991"],"lat":"-38.9","lng":"175.1667"},{"country_code":"NZ","state_code":"F3","province_code":"","name":"Hikumutu","cp":["3992"],"lat":"-38.95","lng":"175.2833"},{"country_code":"NZ","state_code":"F3","province_code":"","name":"Kirikau","cp":["3993"],"lat":"-39.0167","lng":"175.1333"},{"country_code":"NZ","state_code":"F3","province_code":"","name":"Ngapuke","cp":["3994"],"lat":"-38.85","lng":"175.4667"},{"country_code":"NZ","state_code":"F3","province_code":"","name":"Matiere","cp":["3995"],"lat":"-38.75","lng":"175.1"},{"country_code":"NZ","state_code":"F3","province_code":"","name":"Okahukura","cp":["3996"],"lat":"-38.7833","lng":"175.2167"},{"country_code":"NZ","state_code":"F3","province_code":"","name":"Ongarue","cp":["3997"],"lat":"-38.7167","lng":"175.2833"},{"country_code":"NZ","state_code":"F3","province_code":"","name":"Waimiha","cp":["3998"],"lat":"-38.6167","lng":"175.3167"},{"country_code":"NZ","state_code":"F3","province_code":"","name":"Norsewood","cp":["4287"],"lat":"-40.0705","lng":"176.2183"},{"country_code":"NZ","state_code":"F3","province_code":"","name":"Awapuni","cp":["4412"],"lat":"-40.3762","lng":"175.5838"},{"country_code":"NZ","state_code":"F3","province_code":"","name":"Kelvin Grove","cp":["4414"],"lat":"-40.3287","lng":"175.6451"},{"country_code":"NZ","state_code":"F3","province_code":"","name":"Hokowhitu","cp":["4440"],"lat":"-40.3626","lng":"175.6338"},{"country_code":"NZ","state_code":"F3","province_code":"","name":"Terrace End","cp":["4441"],"lat":"-40.3483","lng":"175.6302"},{"country_code":"NZ","state_code":"F3","province_code":"","name":"Takaro","cp":["4442"],"lat":"-40.3579","lng":"175.5897"},{"country_code":"NZ","state_code":"F3","province_code":"","name":"West End","cp":["4443"],"lat":"-40.3659","lng":"175.5984"},{"country_code":"NZ","state_code":"F3","province_code":"","name":"Terrace End","cp":["4444"],"lat":"-40.3483","lng":"175.6302"},{"country_code":"NZ","state_code":"F3","province_code":"","name":"Awapuni","cp":["4445"],"lat":"-40.3762","lng":"175.5838"},{"country_code":"NZ","state_code":"F3","province_code":"","name":"Hokowhitu","cp":["4446"],"lat":"-40.3626","lng":"175.6338"},{"country_code":"NZ","state_code":"F3","province_code":"","name":"Ashhurst","cp":["4470"],"lat":"-40.2911","lng":"175.7547"},{"country_code":"NZ","state_code":"F3","province_code":"","name":"Aokautere","cp":["4471"],"lat":"-40.3667","lng":"175.6667"},{"country_code":"NZ","state_code":"F3","province_code":"","name":"Carnarvon","cp":["4473"],"lat":"-40.2833","lng":"175.3167"},{"country_code":"NZ","state_code":"F3","province_code":"","name":"Tokomaru","cp":["4474"],"lat":"-40.473","lng":"175.5093"},{"country_code":"NZ","state_code":"F3","province_code":"","name":"Kairanga","cp":["4475"],"lat":"-40.35","lng":"175.5333"},{"country_code":"NZ","state_code":"F3","province_code":"","name":"Rongotea","cp":["4476"],"lat":"-40.2926","lng":"175.4251"},{"country_code":"NZ","state_code":"F3","province_code":"","name":"Mangawhata","cp":["4477"],"lat":"-40.4","lng":"175.4333"},{"country_code":"NZ","state_code":"F3","province_code":"","name":"Milson","cp":["4478"],"lat":"-40.3283","lng":"175.6102"},{"country_code":"NZ","state_code":"F3","province_code":"","name":"Sanson","cp":["4479"],"lat":"-40.2201","lng":"175.4245"},{"country_code":"NZ","state_code":"F3","province_code":"","name":"Bunnythorpe","cp":["4481"],"lat":"-40.2833","lng":"175.6333"},{"country_code":"NZ","state_code":"F3","province_code":"","name":"Aramoho","cp":["4500"],"lat":"-39.9019","lng":"175.0647"},{"country_code":"NZ","state_code":"F3","province_code":"","name":"Gonville","cp":["4501"],"lat":"-39.9388","lng":"175.0457"},{"country_code":"NZ","state_code":"F3","province_code":"","name":"Wanganui","cp":["4540","4541"],"lat":"-39.9333","lng":"175.05"},{"country_code":"NZ","state_code":"F3","province_code":"","name":"Wanganui East","cp":["4542"],"lat":"-39.9171","lng":"175.0616"},{"country_code":"NZ","state_code":"F3","province_code":"","name":"Gonville","cp":["4543"],"lat":"-39.9388","lng":"175.0457"},{"country_code":"NZ","state_code":"F3","province_code":"","name":"Turakina South","cp":["4547"],"lat":"-40.0515","lng":"175.2188"},{"country_code":"NZ","state_code":"F3","province_code":"","name":"Ratana","cp":["4548"],"lat":"-40.0412","lng":"175.1771"},{"country_code":"NZ","state_code":"F3","province_code":"","name":"Brunswick","cp":["4571"],"lat":"-39.85","lng":"175.0167"},{"country_code":"NZ","state_code":"F3","province_code":"","name":"Wiritoa","cp":["4572"],"lat":"-39.9667","lng":"175.1"},{"country_code":"NZ","state_code":"F3","province_code":"","name":"Kakatahi","cp":["4573"],"lat":"-39.6833","lng":"175.3333"},{"country_code":"NZ","state_code":"F3","province_code":"","name":"Mowhanau","cp":["4574"],"lat":"-39.8667","lng":"174.9"},{"country_code":"NZ","state_code":"F3","province_code":"","name":"Upokonui","cp":["4575"],"lat":"-39.7833","lng":"175.2167"},{"country_code":"NZ","state_code":"F3","province_code":"","name":"Matahiwi","cp":["4576"],"lat":"-39.6","lng":"175.15"},{"country_code":"NZ","state_code":"F3","province_code":"","name":"Kauangaroa","cp":["4577"],"lat":"-39.9244","lng":"175.2829"},{"country_code":"NZ","state_code":"F3","province_code":"","name":"Ahuiti","cp":["4578"],"lat":"-39.6333","lng":"175"},{"country_code":"NZ","state_code":"F3","province_code":"","name":"Turakina","cp":["4581"],"lat":"-40.047","lng":"175.2147"},{"country_code":"NZ","state_code":"F3","province_code":"","name":"Okoia","cp":["4582"],"lat":"-39.9333","lng":"175.1333"},{"country_code":"NZ","state_code":"F3","province_code":"","name":"Whakaihuwaka","cp":["4584"],"lat":"-39.7667","lng":"175.15"},{"country_code":"NZ","state_code":"F3","province_code":"","name":"Kakatahi","cp":["4585","4586"],"lat":"-39.6833","lng":"175.3333"},{"country_code":"NZ","state_code":"F3","province_code":"","name":"Nukumaru","cp":["4587"],"lat":"-39.8333","lng":"174.8"},{"country_code":"NZ","state_code":"F3","province_code":"","name":"Ohakune","cp":["4625"],"lat":"-39.4082","lng":"175.4002"},{"country_code":"NZ","state_code":"F3","province_code":"","name":"Raetihi","cp":["4632","4646"],"lat":"-39.4288","lng":"175.2773"},{"country_code":"NZ","state_code":"F3","province_code":"","name":"Ohakune","cp":["4660"],"lat":"-39.4082","lng":"175.4002"},{"country_code":"NZ","state_code":"F3","province_code":"","name":"Rangataua","cp":["4691"],"lat":"-39.4333","lng":"175.4667"},{"country_code":"NZ","state_code":"F3","province_code":"","name":"Raetihi","cp":["4694"],"lat":"-39.4288","lng":"175.2773"},{"country_code":"NZ","state_code":"F3","province_code":"","name":"Te Ranga","cp":["4696"],"lat":"-39.3","lng":"175.2"},{"country_code":"NZ","state_code":"F3","province_code":"","name":"FEILDING","cp":["4702"],"lat":"-40.2183","lng":"175.5402"},{"country_code":"NZ","state_code":"F3","province_code":"","name":"Marton","cp":["4710"],"lat":"-40.0692","lng":"175.3782"},{"country_code":"NZ","state_code":"F3","province_code":"","name":"Taihape","cp":["4720"],"lat":"-39.6782","lng":"175.798"},{"country_code":"NZ","state_code":"F3","province_code":"","name":"Hunterville","cp":["4730"],"lat":"-39.9366","lng":"175.5684"},{"country_code":"NZ","state_code":"F3","province_code":"","name":"FEILDING","cp":["4740"],"lat":"-40.2183","lng":"175.5402"},{"country_code":"NZ","state_code":"F3","province_code":"","name":"Marton","cp":["4741"],"lat":"-40.0692","lng":"175.3782"},{"country_code":"NZ","state_code":"F3","province_code":"","name":"Taihape","cp":["4742"],"lat":"-39.6782","lng":"175.798"},{"country_code":"NZ","state_code":"F3","province_code":"","name":"Kimbolton","cp":["4744"],"lat":"-40.0555","lng":"175.7794"},{"country_code":"NZ","state_code":"F3","province_code":"","name":"Hunterville","cp":["4745"],"lat":"-39.9366","lng":"175.5684"},{"country_code":"NZ","state_code":"F3","province_code":"","name":"Mangaweka","cp":["4746"],"lat":"-39.8094","lng":"175.7888"},{"country_code":"NZ","state_code":"F3","province_code":"","name":"Umutoi","cp":["4771"],"lat":"-40","lng":"175.9667"},{"country_code":"NZ","state_code":"F3","province_code":"","name":"Apiti","cp":["4774"],"lat":"-39.9667","lng":"175.8833"},{"country_code":"NZ","state_code":"F3","province_code":"","name":"Colyton","cp":["4775"],"lat":"-40.2333","lng":"175.65"},{"country_code":"NZ","state_code":"F3","province_code":"","name":"Kiwitea","cp":["4777"],"lat":"-40.1167","lng":"175.7333"},{"country_code":"NZ","state_code":"F3","province_code":"","name":"Waituna West","cp":["4779"],"lat":"-40.05","lng":"175.6167"},{"country_code":"NZ","state_code":"F3","province_code":"","name":"Rewa","cp":["4780"],"lat":"-39.9833","lng":"175.6333"},{"country_code":"NZ","state_code":"F3","province_code":"","name":"Silverhope","cp":["4781"],"lat":"-39.9659","lng":"175.5283"},{"country_code":"NZ","state_code":"F3","province_code":"","name":"Pukeroa","cp":["4782"],"lat":"-39.7841","lng":"175.4972"},{"country_code":"NZ","state_code":"F3","province_code":"","name":"Pakihikura","cp":["4783"],"lat":"-39.9333","lng":"175.7167"},{"country_code":"NZ","state_code":"F3","province_code":"","name":"Silverhope","cp":["4784"],"lat":"-39.9659","lng":"175.5283"},{"country_code":"NZ","state_code":"F3","province_code":"","name":"Poukiore","cp":["4785"],"lat":"-39.8694","lng":"175.621"},{"country_code":"NZ","state_code":"F3","province_code":"","name":"Rewa","cp":["4786"],"lat":"-39.9833","lng":"175.6333"},{"country_code":"NZ","state_code":"F3","province_code":"","name":"Marton","cp":["4788","4789"],"lat":"-40.0692","lng":"175.3782"},{"country_code":"NZ","state_code":"F3","province_code":"","name":"Raketapauma","cp":["4791"],"lat":"-39.5513","lng":"175.65"},{"country_code":"NZ","state_code":"F3","province_code":"","name":"Erehwon","cp":["4792"],"lat":"-39.5165","lng":"175.9651"},{"country_code":"NZ","state_code":"F3","province_code":"","name":"Ohotu","cp":["4793"],"lat":"-39.7119","lng":"175.8389"},{"country_code":"NZ","state_code":"F3","province_code":"","name":"Utiku","cp":["4794"],"lat":"-39.7334","lng":"175.8438"},{"country_code":"NZ","state_code":"F3","province_code":"","name":"Waiouru Military Camp","cp":["4795"],"lat":"-39.4706","lng":"175.6817"},{"country_code":"NZ","state_code":"F3","province_code":"","name":"Taihape","cp":["4796"],"lat":"-39.6782","lng":"175.798"},{"country_code":"NZ","state_code":"F3","province_code":"","name":"Ruahine","cp":["4797"],"lat":"-39.8333","lng":"175.9"},{"country_code":"NZ","state_code":"F3","province_code":"","name":"Ashhurst","cp":["4810"],"lat":"-40.2911","lng":"175.7547"},{"country_code":"NZ","state_code":"F3","province_code":"","name":"Foxton","cp":["4814"],"lat":"-40.4667","lng":"175.3"},{"country_code":"NZ","state_code":"F3","province_code":"","name":"Foxton Beach","cp":["4815"],"lat":"-40.4667","lng":"175.2167"},{"country_code":"NZ","state_code":"F3","province_code":"","name":"Ohakea","cp":["4816"],"lat":"-40.2","lng":"175.4"},{"country_code":"NZ","state_code":"F3","province_code":"","name":"Sanson","cp":["4817"],"lat":"-40.2201","lng":"175.4245"},{"country_code":"NZ","state_code":"F3","province_code":"","name":"Bulls","cp":["4818"],"lat":"-40.1749","lng":"175.3846"},{"country_code":"NZ","state_code":"F3","province_code":"","name":"Longburn","cp":["4820"],"lat":"-40.384","lng":"175.5429"},{"country_code":"NZ","state_code":"F3","province_code":"","name":"Shannon","cp":["4821"],"lat":"-40.5483","lng":"175.4202"},{"country_code":"NZ","state_code":"F3","province_code":"","name":"Tangimoana","cp":["4822"],"lat":"-40.3","lng":"175.25"},{"country_code":"NZ","state_code":"F3","province_code":"","name":"Ashhurst","cp":["4847"],"lat":"-40.2911","lng":"175.7547"},{"country_code":"NZ","state_code":"F3","province_code":"","name":"Foxton","cp":["4848"],"lat":"-40.4667","lng":"175.3"},{"country_code":"NZ","state_code":"F3","province_code":"","name":"Foxton Beach","cp":["4849"],"lat":"-40.4667","lng":"175.2167"},{"country_code":"NZ","state_code":"F3","province_code":"","name":"Shannon","cp":["4860"],"lat":"-40.5483","lng":"175.4202"},{"country_code":"NZ","state_code":"F3","province_code":"","name":"Sanson","cp":["4862"],"lat":"-40.2201","lng":"175.4245"},{"country_code":"NZ","state_code":"F3","province_code":"","name":"Bulls","cp":["4863"],"lat":"-40.1749","lng":"175.3846"},{"country_code":"NZ","state_code":"F3","province_code":"","name":"Tokomaru","cp":["4864"],"lat":"-40.473","lng":"175.5093"},{"country_code":"NZ","state_code":"F3","province_code":"","name":"Rongotea","cp":["4865"],"lat":"-40.2926","lng":"175.4251"},{"country_code":"NZ","state_code":"F3","province_code":"","name":"Longburn","cp":["4866"],"lat":"-40.384","lng":"175.5429"},{"country_code":"NZ","state_code":"F3","province_code":"","name":"Bunnythorpe","cp":["4867"],"lat":"-40.2833","lng":"175.6333"},{"country_code":"NZ","state_code":"F3","province_code":"","name":"Pohangina","cp":["4884"],"lat":"-40.1734","lng":"175.7943"},{"country_code":"NZ","state_code":"F3","province_code":"","name":"Himatangi","cp":["4891"],"lat":"-40.4","lng":"175.3167"},{"country_code":"NZ","state_code":"F3","province_code":"","name":"Marotiri","cp":["4893"],"lat":"-40.4833","lng":"175.35"},{"country_code":"NZ","state_code":"F3","province_code":"","name":"Bulls","cp":["4894"],"lat":"-40.1749","lng":"175.3846"},{"country_code":"NZ","state_code":"F3","province_code":"","name":"Eketahuna","cp":["4900"],"lat":"-40.6462","lng":"175.7037"},{"country_code":"NZ","state_code":"F3","province_code":"","name":"Pahiatua","cp":["4910"],"lat":"-40.4534","lng":"175.8406"},{"country_code":"NZ","state_code":"F3","province_code":"","name":"Woodville","cp":["4920"],"lat":"-40.3372","lng":"175.8668"},{"country_code":"NZ","state_code":"F3","province_code":"","name":"Dannevirke","cp":["4930"],"lat":"-40.2055","lng":"176.1008"},{"country_code":"NZ","state_code":"F3","province_code":"","name":"Eketahuna","cp":["4940"],"lat":"-40.6462","lng":"175.7037"},{"country_code":"NZ","state_code":"F3","province_code":"","name":"Pahiatua","cp":["4941"],"lat":"-40.4534","lng":"175.8406"},{"country_code":"NZ","state_code":"F3","province_code":"","name":"Dannevirke","cp":["4942"],"lat":"-40.2055","lng":"176.1008"},{"country_code":"NZ","state_code":"F3","province_code":"","name":"Norsewood","cp":["4943"],"lat":"-40.0705","lng":"176.2183"},{"country_code":"NZ","state_code":"F3","province_code":"","name":"Pongaroa","cp":["4944"],"lat":"-40.5421","lng":"176.1937"},{"country_code":"NZ","state_code":"F3","province_code":"","name":"Woodville","cp":["4945"],"lat":"-40.3372","lng":"175.8668"},{"country_code":"NZ","state_code":"F3","province_code":"","name":"Ti-tree Point","cp":["4970"],"lat":"-40.437","lng":"176.4054"},{"country_code":"NZ","state_code":"F3","province_code":"","name":"Waipatiki","cp":["4971"],"lat":"-40.373","lng":"176.2833"},{"country_code":"NZ","state_code":"F3","province_code":"","name":"Kiritaki","cp":["4972"],"lat":"-40.2392","lng":"175.9827"},{"country_code":"NZ","state_code":"F3","province_code":"","name":"Waipatiki","cp":["4973"],"lat":"-40.373","lng":"176.2833"},{"country_code":"NZ","state_code":"F3","province_code":"","name":"Ngamoko","cp":["4974"],"lat":"-40.0545","lng":"176.1632"},{"country_code":"NZ","state_code":"F3","province_code":"","name":"Tahoraiti","cp":["4975"],"lat":"-40.2335","lng":"176.0597"},{"country_code":"NZ","state_code":"F3","province_code":"","name":"Raumati","cp":["4976"],"lat":"-40.1908","lng":"176.1463"},{"country_code":"NZ","state_code":"F3","province_code":"","name":"Makotuku","cp":["4977"],"lat":"-40.1206","lng":"176.2319"},{"country_code":"NZ","state_code":"F3","province_code":"","name":"Piripiri","cp":["4978"],"lat":"-40.1736","lng":"176.1347"},{"country_code":"NZ","state_code":"F3","province_code":"","name":"Waione","cp":["4979"],"lat":"-40.4695","lng":"176.2797"},{"country_code":"NZ","state_code":"F3","province_code":"","name":"Kaitawa","cp":["4981"],"lat":"-40.4966","lng":"175.89"},{"country_code":"NZ","state_code":"F3","province_code":"","name":"Ngaturi","cp":["4982"],"lat":"-40.4682","lng":"175.9227"},{"country_code":"NZ","state_code":"F3","province_code":"","name":"Ballance","cp":["4983"],"lat":"-40.4022","lng":"175.8017"},{"country_code":"NZ","state_code":"F3","province_code":"","name":"Konini","cp":["4984"],"lat":"-40.5046","lng":"175.7916"},{"country_code":"NZ","state_code":"F3","province_code":"","name":"Makuri","cp":["4985"],"lat":"-40.5333","lng":"176.0167"},{"country_code":"NZ","state_code":"F3","province_code":"","name":"Haunui","cp":["4986"],"lat":"-40.6085","lng":"176.0463"},{"country_code":"NZ","state_code":"F3","province_code":"","name":"Konini","cp":["4987"],"lat":"-40.5046","lng":"175.7916"},{"country_code":"NZ","state_code":"F3","province_code":"","name":"Mangamaire","cp":["4988"],"lat":"-40.5172","lng":"175.7526"},{"country_code":"NZ","state_code":"F3","province_code":"","name":"Makuri","cp":["4989"],"lat":"-40.5333","lng":"176.0167"},