[{"country_code":"YT","state_code":"00","province_code":"","name":"Passamainty","cp":["97605"],"lat":"-12.802","lng":"45.2082"},{"country_code":"YT","state_code":"97601","province_code":"","name":"Acoua","cp":["97630"],"lat":"-12.7239","lng":"45.0582"},{"country_code":"YT","state_code":"97602","province_code":"","name":"Bandraboua","cp":["97650"],"lat":"-12.7044","lng":"45.1223"},{"country_code":"YT","state_code":"97603","province_code":"","name":"Bandr\u00e9l\u00e9","cp":["97660"],"lat":"-12.9128","lng":"45.1926"},{"country_code":"YT","state_code":"97604","province_code":"","name":"Bou\u00e9ni","cp":["97620"],"lat":"-12.9025","lng":"45.0761"},{"country_code":"YT","state_code":"97605","province_code":"","name":"Chiconi","cp":["97670"],"lat":"-12.8333","lng":"45.1106"},{"country_code":"YT","state_code":"97606","province_code":"","name":"Chirongui","cp":["97620"],"lat":"-12.9319","lng":"45.1483"},{"country_code":"YT","state_code":"97607","province_code":"","name":"Dembeni","cp":["97660"],"lat":"-12.8436","lng":"45.1844"},{"country_code":"YT","state_code":"97608","province_code":"","name":"Dzaoudzi","cp":["97615"],"lat":"-12.7783","lng":"45.2837"},{"country_code":"YT","state_code":"97609","province_code":"","name":"Kani K\u00e9li","cp":["97625"],"lat":"-12.9536","lng":"45.1033"},{"country_code":"YT","state_code":"97610","province_code":"","name":"Koungou","cp":["97600"],"lat":"-12.7336","lng":"45.2042"},{"country_code":"YT","state_code":"97611","province_code":"","name":"Mamoudzou","cp":["97600","97605","97650","97680"],"lat":"-12.7823","lng":"45.2288"},{"country_code":"YT","state_code":"97612","province_code":"","name":"Mtsamboro","cp":["97630"],"lat":"-12.6998","lng":"45.0689"},{"country_code":"YT","state_code":"97613","province_code":"","name":"M'Tsangamouji","cp":["97650"],"lat":"-12.7594","lng":"45.0836"},{"country_code":"YT","state_code":"97614","province_code":"","name":"Ouangani","cp":["97670"],"lat":"-12.8464","lng":"45.1361"},{"country_code":"YT","state_code":"97615","province_code":"","name":"Pamandzi","cp":["97615"],"lat":"-12.7949","lng":"45.282"},{"country_code":"YT","state_code":"97616","province_code":"","name":"Sada","cp":["97640"],"lat":"-12.8505","lng":"45.1021"},{"country_code":"YT","state_code":"97617","province_code":"","name":"Tsingoni","cp":["97680"],"lat":"-12.7872","lng":"45.1028"}]