[{"code":"BAL","country_code":"AF","state_code":"","name":"Balkh","geo":{"center":{"lat":36.7550603,"lng":66.8975372},"min":{"lat":36.7550603,"lng":66.8975372},"max":{"lat":36.7550603,"lng":66.8975372}}},{"code":"BAM","country_code":"AF","state_code":"","name":"Bamian","geo":{"center":{"lat":34.9073296,"lng":67.1894488},"min":{"lat":34.9073296,"lng":67.1894488},"max":{"lat":34.9073296,"lng":67.1894488}}},{"code":"BDG","country_code":"AF","state_code":"","name":"Badghis","geo":{"center":{"lat":35.1671339,"lng":63.7695384},"min":{"lat":35.1671339,"lng":63.7695384},"max":{"lat":35.1671339,"lng":63.7695384}}},{"code":"BDS","country_code":"AF","state_code":"","name":"Badakhshan","geo":{"center":{"lat":36.7347725,"lng":70.8119953},"min":{"lat":36.7347725,"lng":70.8119953},"max":{"lat":36.7347725,"lng":70.8119953}}},{"code":"BGL","country_code":"AF","state_code":"","name":"Baghlan","geo":{"center":{"lat":36.1789026,"lng":68.7453064},"min":{"lat":36.1789026,"lng":68.7453064},"max":{"lat":36.1789026,"lng":68.7453064}}},{"code":"DAY","country_code":"AF","state_code":"","name":"Daykondi","geo":{"center":{"lat":33.669495,"lng":66.0463534},"min":{"lat":33.669495,"lng":66.0463534},"max":{"lat":33.669495,"lng":66.0463534}}},{"code":"FRA","country_code":"AF","state_code":"","name":"Farah","geo":{"center":{"lat":32.495328,"lng":62.2626627},"min":{"lat":32.495328,"lng":62.2626627},"max":{"lat":32.495328,"lng":62.2626627}}},{"code":"FYB","country_code":"AF","state_code":"","name":"Faryab","geo":{"center":{"lat":36.0795613,"lng":64.905955},"min":{"lat":36.0795613,"lng":64.905955},"max":{"lat":36.0795613,"lng":64.905955}}},{"code":"GHA","country_code":"AF","state_code":"","name":"Ghazni","geo":{"center":{"lat":33.4982289,"lng":67.7615983},"min":{"lat":33.4982289,"lng":67.7615983},"max":{"lat":33.4982289,"lng":67.7615983}}},{"code":"GHO","country_code":"AF","state_code":"","name":"Ghowr","geo":{"center":{"lat":34.0995776,"lng":64.905955},"min":{"lat":34.0995776,"lng":64.905955},"max":{"lat":34.0995776,"lng":64.905955}}},{"code":"HEL","country_code":"AF","state_code":"","name":"Helmand","geo":{"center":{"lat":31.3636474,"lng":63.9586111},"min":{"lat":31.3636474,"lng":63.9586111},"max":{"lat":31.3636474,"lng":63.9586111}}},{"code":"HER","country_code":"AF","state_code":"","name":"Herat","geo":{"center":{"lat":34.341944,"lng":62.203056},"min":{"lat":34.341944,"lng":62.203056},"max":{"lat":34.341944,"lng":62.203056}}},{"code":"JOW","country_code":"AF","state_code":"","name":"Jowzjan","geo":{"center":{"lat":36.8969692,"lng":65.6658568},"min":{"lat":36.8969692,"lng":65.6658568},"max":{"lat":36.8969692,"lng":65.6658568}}},{"code":"KAB","country_code":"AF","state_code":"","name":"Kabul [Kabol]","geo":{"center":{"lat":34.533333,"lng":69.166667},"min":{"lat":34.533333,"lng":69.166667},"max":{"lat":34.533333,"lng":69.166667}}},{"code":"KAN","country_code":"AF","state_code":"","name":"Kandahar","geo":{"center":{"lat":31.6119,"lng":65.6811},"min":{"lat":31.6119,"lng":65.6811},"max":{"lat":31.6119,"lng":65.6811}}},{"code":"KAP","country_code":"AF","state_code":"","name":"Kapisa","geo":{"center":{"lat":34.9810572,"lng":69.6214562},"min":{"lat":34.9810572,"lng":69.6214562},"max":{"lat":34.9810572,"lng":69.6214562}}},{"code":"KDZ","country_code":"AF","state_code":"","name":"Kondoz [Kunduz]","geo":{"center":{"lat":36.7285907,"lng":68.8680663},"min":{"lat":36.7285907,"lng":68.8680663},"max":{"lat":36.7285907,"lng":68.8680663}}},{"code":"KHO","country_code":"AF","state_code":"","name":"Khowst","geo":{"center":{"lat":33.3585079,"lng":69.8597406},"min":{"lat":33.3585079,"lng":69.8597406},"max":{"lat":33.3585079,"lng":69.8597406}}},{"code":"KNR","country_code":"AF","state_code":"","name":"Konar [Kunar]","geo":{"center":{"lat":35.0883133,"lng":71.3668504},"min":{"lat":35.0883133,"lng":71.3668504},"max":{"lat":35.0883133,"lng":71.3668504}}},{"code":"LAG","country_code":"AF","state_code":"","name":"Laghman","geo":{"center":{"lat":34.6897687,"lng":70.1455805},"min":{"lat":34.6897687,"lng":70.1455805},"max":{"lat":34.6897687,"lng":70.1455805}}},{"code":"LOW","country_code":"AF","state_code":"","name":"Lowgar","geo":{"center":{"lat":34.0145518,"lng":69.1923916},"min":{"lat":34.0145518,"lng":69.1923916},"max":{"lat":34.0145518,"lng":69.1923916}}},{"code":"NAN","country_code":"AF","state_code":"","name":"Nangrahar [Nangarhar]","geo":{"center":{"lat":34.1718313,"lng":70.6216794},"min":{"lat":34.1718313,"lng":70.6216794},"max":{"lat":34.1718313,"lng":70.6216794}}},{"code":"NIM","country_code":"AF","state_code":"","name":"Nimruz","geo":{"center":{"lat":31.0261488,"lng":62.4504154},"min":{"lat":31.0261488,"lng":62.4504154},"max":{"lat":31.0261488,"lng":62.4504154}}},{"code":"NUR","country_code":"AF","state_code":"","name":"Nurestan","geo":{"center":{"lat":35.3250223,"lng":70.9071236},"min":{"lat":35.3250223,"lng":70.9071236},"max":{"lat":35.3250223,"lng":70.9071236}}},{"code":"ORU","country_code":"AF","state_code":"","name":"Oruzgan [Uruzgan]","geo":{"center":{"lat":32.93021,"lng":66.636429},"min":{"lat":32.93021,"lng":66.636429},"max":{"lat":32.93021,"lng":66.636429}}},{"code":"PAN","country_code":"AF","state_code":"","name":"Panjshir","geo":{"center":{"lat":35.3350467,"lng":69.7167783},"min":{"lat":35.3350467,"lng":69.7167783},"max":{"lat":35.3350467,"lng":69.7167783}}},{"code":"PAR","country_code":"AF","state_code":"","name":"Parwan","geo":{"center":{"lat":34.9630977,"lng":68.8108849},"min":{"lat":34.9630977,"lng":68.8108849},"max":{"lat":34.9630977,"lng":68.8108849}}},{"code":"PIA","country_code":"AF","state_code":"","name":"Paktia","geo":{"center":{"lat":33.706199,"lng":69.3831079},"min":{"lat":33.706199,"lng":69.3831079},"max":{"lat":33.706199,"lng":69.3831079}}},{"code":"PKA","country_code":"AF","state_code":"","name":"Paktika","geo":{"center":{"lat":32.2645386,"lng":68.5247149},"min":{"lat":32.2645386,"lng":68.5247149},"max":{"lat":32.2645386,"lng":68.5247149}}},{"code":"SAM","country_code":"AF","state_code":"","name":"Samangan","geo":{"center":{"lat":35.9807296,"lng":67.5708536},"min":{"lat":35.9807296,"lng":67.5708536},"max":{"lat":35.9807296,"lng":67.5708536}}},{"code":"SAR","country_code":"AF","state_code":"","name":"Sar-e Pol","geo":{"center":{"lat":36.221389,"lng":65.927778},"min":{"lat":36.221389,"lng":65.927778},"max":{"lat":36.221389,"lng":65.927778}}},{"code":"TAK","country_code":"AF","state_code":"","name":"Takhar","geo":{"center":{"lat":36.6698013,"lng":69.4784541},"min":{"lat":36.6698013,"lng":69.4784541},"max":{"lat":36.6698013,"lng":69.4784541}}},{"code":"WAR","country_code":"AF","state_code":"","name":"Wardak [Wardag]","geo":{"center":{"lat":34.3513494,"lng":68.2385339},"min":{"lat":34.3513494,"lng":68.2385339},"max":{"lat":34.3513494,"lng":68.2385339}}},{"code":"ZAB","country_code":"AF","state_code":"","name":"Zabol [Zabul]","geo":{"center":{"lat":32.1918782,"lng":67.1894488},"min":{"lat":32.1918782,"lng":67.1894488},"max":{"lat":32.1918782,"lng":67.1894488}}}]