[{"code":"BGO","country_code":"AO","state_code":"","name":"Bengo","geo":{"center":{"lat":-9.1042257,"lng":13.7289167},"min":{"lat":-9.1042257,"lng":13.7289167},"max":{"lat":-9.1042257,"lng":13.7289167}}},{"code":"BGU","country_code":"AO","state_code":"","name":"Benguela","geo":{"center":{"lat":-12.5905158,"lng":13.416501},"min":{"lat":-12.5905158,"lng":13.416501},"max":{"lat":-12.5905158,"lng":13.416501}}},{"code":"BIE","country_code":"AO","state_code":"","name":"Bi\u00e9","geo":{"center":{"lat":-12.5727907,"lng":17.668887},"min":{"lat":-12.5727907,"lng":17.668887},"max":{"lat":-12.5727907,"lng":17.668887}}},{"code":"CAB","country_code":"AO","state_code":"","name":"Cabinda","geo":{"center":{"lat":-5.56,"lng":12.19},"min":{"lat":-5.56,"lng":12.19},"max":{"lat":-5.56,"lng":12.19}}},{"code":"CCU","country_code":"AO","state_code":"","name":"Cuando-Cubango","geo":{"center":{"lat":-16.4180824,"lng":18.8076195},"min":{"lat":-16.4180824,"lng":18.8076195},"max":{"lat":-16.4180824,"lng":18.8076195}}},{"code":"CNN","country_code":"AO","state_code":"","name":"Cunene","geo":{"center":{"lat":-16.2802221,"lng":16.1580937},"min":{"lat":-16.2802221,"lng":16.1580937},"max":{"lat":-16.2802221,"lng":16.1580937}}},{"code":"CNO","country_code":"AO","state_code":"","name":"Cuanza Norte","geo":{"center":{"lat":-9.2398513,"lng":14.6587821},"min":{"lat":-9.2398513,"lng":14.6587821},"max":{"lat":-9.2398513,"lng":14.6587821}}},{"code":"CUS","country_code":"AO","state_code":"","name":"Cuanza Sul","geo":{"center":{"lat":-10.595191,"lng":15.4068079},"min":{"lat":-10.595191,"lng":15.4068079},"max":{"lat":-10.595191,"lng":15.4068079}}},{"code":"HUA","country_code":"AO","state_code":"","name":"Huambo","geo":{"center":{"lat":-12.766667,"lng":15.733333},"min":{"lat":-12.766667,"lng":15.733333},"max":{"lat":-12.766667,"lng":15.733333}}},{"code":"HUI","country_code":"AO","state_code":"","name":"Hu\u00edla","geo":{"center":{"lat":-14.9280553,"lng":14.6587821},"min":{"lat":-14.9280553,"lng":14.6587821},"max":{"lat":-14.9280553,"lng":14.6587821}}},{"code":"LNO","country_code":"AO","state_code":"","name":"Lunda Norte","geo":{"center":{"lat":-8.3525022,"lng":19.1880047},"min":{"lat":-8.3525022,"lng":19.1880047},"max":{"lat":-8.3525022,"lng":19.1880047}}},{"code":"LSU","country_code":"AO","state_code":"","name":"Lunda Sul","geo":{"center":{"lat":-10.2866578,"lng":20.7122465},"min":{"lat":-10.2866578,"lng":20.7122465},"max":{"lat":-10.2866578,"lng":20.7122465}}},{"code":"LUA","country_code":"AO","state_code":"","name":"Luanda","geo":{"center":{"lat":-8.838333,"lng":13.234444},"min":{"lat":-8.838333,"lng":13.234444},"max":{"lat":-8.838333,"lng":13.234444}}},{"code":"MAL","country_code":"AO","state_code":"","name":"Malange","geo":{"center":{"lat":-9.5469,"lng":16.3387},"min":{"lat":-9.5469,"lng":16.3387},"max":{"lat":-9.5469,"lng":16.3387}}},{"code":"MOX","country_code":"AO","state_code":"","name":"Moxico","geo":{"center":{"lat":-13.4293579,"lng":20.3308814},"min":{"lat":-13.4293579,"lng":20.3308814},"max":{"lat":-13.4293579,"lng":20.3308814}}},{"code":"NAM","country_code":"AO","state_code":"","name":"Namibe","geo":{"center":{"lat":-15.195278,"lng":12.150833},"min":{"lat":-15.195278,"lng":12.150833},"max":{"lat":-15.195278,"lng":12.150833}}},{"code":"UIG","country_code":"AO","state_code":"","name":"U\u00edge","geo":{"center":{"lat":-7.616667,"lng":15.05},"min":{"lat":-7.616667,"lng":15.05},"max":{"lat":-7.616667,"lng":15.05}}},{"code":"ZAI","country_code":"AO","state_code":"","name":"Zaire","geo":{"center":{"lat":-6.5733458,"lng":13.1740348},"min":{"lat":-6.5733458,"lng":13.1740348},"max":{"lat":-6.5733458,"lng":13.1740348}}}]