[{"code":"01","country_code":"BB","state_code":"","name":"Christ Church","geo":{"center":{"lat":13.083735,"lng":-59.5296742},"min":{"lat":13.083735,"lng":-59.5296742},"max":{"lat":13.083735,"lng":-59.5296742}}},{"code":"02","country_code":"BB","state_code":"","name":"Saint Andrew","geo":{"center":{"lat":13.2540083,"lng":-59.5757599},"min":{"lat":13.2540083,"lng":-59.5757599},"max":{"lat":13.2540083,"lng":-59.5757599}}},{"code":"03","country_code":"BB","state_code":"","name":"Saint George","geo":{"center":{"lat":13.148292,"lng":-59.552715},"min":{"lat":13.148292,"lng":-59.552715},"max":{"lat":13.148292,"lng":-59.552715}}},{"code":"04","country_code":"BB","state_code":"","name":"Saint James","geo":{"center":{"lat":13.1939911,"lng":-59.6276259},"min":{"lat":13.1939911,"lng":-59.6276259},"max":{"lat":13.1939911,"lng":-59.6276259}}},{"code":"05","country_code":"BB","state_code":"","name":"Saint John","geo":{"center":{"lat":13.1833369,"lng":-59.5066376},"min":{"lat":13.1833369,"lng":-59.5066376},"max":{"lat":13.1833369,"lng":-59.5066376}}},{"code":"06","country_code":"BB","state_code":"","name":"Saint Joseph","geo":{"center":{"lat":13.2040088,"lng":-59.5469544},"min":{"lat":13.2040088,"lng":-59.5469544},"max":{"lat":13.2040088,"lng":-59.5469544}}},{"code":"07","country_code":"BB","state_code":"","name":"Saint Lucy","geo":{"center":{"lat":13.3011778,"lng":-59.621862},"min":{"lat":13.3011778,"lng":-59.621862},"max":{"lat":13.3011778,"lng":-59.621862}}},{"code":"08","country_code":"BB","state_code":"","name":"Saint Michael","geo":{"center":{"lat":13.1132219,"lng":-59.5988089},"min":{"lat":13.1132219,"lng":-59.5988089},"max":{"lat":13.1132219,"lng":-59.5988089}}},{"code":"09","country_code":"BB","state_code":"","name":"Saint Peter","geo":{"center":{"lat":13.2600459,"lng":-59.621862},"min":{"lat":13.2600459,"lng":-59.621862},"max":{"lat":13.2600459,"lng":-59.621862}}},{"code":10,"country_code":"BB","state_code":"","name":"Saint Philip","geo":{"center":{"lat":13.1362782,"lng":-59.4605768},"min":{"lat":13.1362782,"lng":-59.4605768},"max":{"lat":13.1362782,"lng":-59.4605768}}},{"code":11,"country_code":"BB","state_code":"","name":"Saint Thomas","geo":{"center":{"lat":13.1748291,"lng":-59.5988089},"min":{"lat":13.1748291,"lng":-59.5988089},"max":{"lat":13.1748291,"lng":-59.5988089}}}]