[{"code":"01","country_code":"BD","state_code":"","name":"Bandarban zila","geo":{"center":{"lat":21.7444268,"lng":92.3813621},"min":{"lat":21.7444268,"lng":92.3813621},"max":{"lat":21.7444268,"lng":92.3813621}}},{"code":"02","country_code":"BD","state_code":"","name":"Barguna zila","geo":{"center":{"lat":22.0952915,"lng":90.1120696},"min":{"lat":22.0952915,"lng":90.1120696},"max":{"lat":22.0952915,"lng":90.1120696}}},{"code":"03","country_code":"BD","state_code":"","name":"Bogra zila","geo":{"center":{"lat":24.8473899,"lng":89.3771408},"min":{"lat":24.8473899,"lng":89.3771408},"max":{"lat":24.8473899,"lng":89.3771408}}},{"code":"04","country_code":"BD","state_code":"","name":"Brahmanbaria zila","geo":{"center":{"lat":24.0446149,"lng":91.135302},"min":{"lat":24.0446149,"lng":91.135302},"max":{"lat":24.0446149,"lng":91.135302}}},{"code":"05","country_code":"BD","state_code":"","name":"Bagerhat zila","geo":{"center":{"lat":22.3336224,"lng":89.7755338},"min":{"lat":22.3336224,"lng":89.7755338},"max":{"lat":22.3336224,"lng":89.7755338}}},{"code":"06","country_code":"BD","state_code":"","name":"Barisal zila","geo":{"center":{"lat":22.8578618,"lng":90.3371889},"min":{"lat":22.8578618,"lng":90.3371889},"max":{"lat":22.8578618,"lng":90.3371889}}},{"code":"07","country_code":"BD","state_code":"","name":"Bhola zila","geo":{"center":{"lat":22.6851314,"lng":90.6471553},"min":{"lat":22.6851314,"lng":90.6471553},"max":{"lat":22.6851314,"lng":90.6471553}}},{"code":"08","country_code":"BD","state_code":"","name":"Comilla zila","geo":{"center":{"lat":23.4628949,"lng":91.1817394},"min":{"lat":23.4628949,"lng":91.1817394},"max":{"lat":23.4628949,"lng":91.1817394}}},{"code":"09","country_code":"BD","state_code":"","name":"Chandpur zila","geo":{"center":{"lat":23.2246765,"lng":90.6562431},"min":{"lat":23.2246765,"lng":90.6562431},"max":{"lat":23.2246765,"lng":90.6562431}}},{"code":10,"country_code":"BD","state_code":"","name":"Chittagong zila","geo":{"center":{"lat":22.3417825,"lng":91.8368089},"min":{"lat":22.3417825,"lng":91.8368089},"max":{"lat":22.3417825,"lng":91.8368089}}},{"code":11,"country_code":"BD","state_code":"","name":"Cox's Bazar zila","geo":{"center":{"lat":21.4404015,"lng":91.9743392},"min":{"lat":21.4404015,"lng":91.9743392},"max":{"lat":21.4404015,"lng":91.9743392}}},{"code":12,"country_code":"BD","state_code":"","name":"Chuadanga zila","geo":{"center":{"lat":23.6160512,"lng":88.8263006},"min":{"lat":23.6160512,"lng":88.8263006},"max":{"lat":23.6160512,"lng":88.8263006}}},{"code":13,"country_code":"BD","state_code":"","name":"Dhaka zila","geo":{"center":{"lat":24.5239682,"lng":90.2995785},"min":{"lat":24.5239682,"lng":90.2995785},"max":{"lat":24.5239682,"lng":90.2995785}}},{"code":14,"country_code":"BD","state_code":"","name":"Dinajpur zila","geo":{"center":{"lat":25.6220932,"lng":88.6370301},"min":{"lat":25.6220932,"lng":88.6370301},"max":{"lat":25.6220932,"lng":88.6370301}}},{"code":15,"country_code":"BD","state_code":"","name":"Faridpur zila","geo":{"center":{"lat":23.6085755,"lng":89.8432597},"min":{"lat":23.6085755,"lng":89.8432597},"max":{"lat":23.6085755,"lng":89.8432597}}},{"code":16,"country_code":"BD","state_code":"","name":"Feni zila","geo":{"center":{"lat":22.9473563,"lng":91.4048249},"min":{"lat":22.9473563,"lng":91.4048249},"max":{"lat":22.9473563,"lng":91.4048249}}},{"code":17,"country_code":"BD","state_code":"","name":"Gopalganj zila","geo":{"center":{"lat":null,"lng":null},"min":{"lat":null,"lng":null},"max":{"lat":null,"lng":null}}},{"code":18,"country_code":"BD","state_code":"","name":"Gazipur zila","geo":{"center":{"lat":24.0958171,"lng":90.4125181},"min":{"lat":24.0958171,"lng":90.4125181},"max":{"lat":24.0958171,"lng":90.4125181}}},{"code":19,"country_code":"BD","state_code":"","name":"Gaibandha zila","geo":{"center":{"lat":25.1879868,"lng":89.4742177},"min":{"lat":25.1879868,"lng":89.4742177},"max":{"lat":25.1879868,"lng":89.4742177}}},{"code":20,"country_code":"BD","state_code":"","name":"Habiganj zila","geo":{"center":{"lat":24.372963,"lng":91.4165201},"min":{"lat":24.372963,"lng":91.4165201},"max":{"lat":24.372963,"lng":91.4165201}}},{"code":21,"country_code":"BD","state_code":"","name":"Jamalpur zila","geo":{"center":{"lat":24.9377671,"lng":89.934228},"min":{"lat":24.9377671,"lng":89.934228},"max":{"lat":24.9377671,"lng":89.934228}}},{"code":22,"country_code":"BD","state_code":"","name":"Jessore zila","geo":{"center":{"lat":23.0943403,"lng":89.1705998},"min":{"lat":23.0943403,"lng":89.1705998},"max":{"lat":23.0943403,"lng":89.1705998}}},{"code":23,"country_code":"BD","state_code":"","name":"Jhenaidah zila","geo":{"center":{"lat":23.4754162,"lng":89.1705998},"min":{"lat":23.4754162,"lng":89.1705998},"max":{"lat":23.4754162,"lng":89.1705998}}},{"code":24,"country_code":"BD","state_code":"","name":"Jaipurhat zila","geo":{"center":{"lat":25.138494,"lng":89.0561532},"min":{"lat":25.138494,"lng":89.0561532},"max":{"lat":25.138494,"lng":89.0561532}}},{"code":25,"country_code":"BD","state_code":"","name":"Jhalakati zila","geo":{"center":{"lat":22.57208,"lng":90.1869644},"min":{"lat":22.57208,"lng":90.1869644},"max":{"lat":22.57208,"lng":90.1869644}}},{"code":26,"country_code":"BD","state_code":"","name":"Kishoreganj zila","geo":{"center":{"lat":24.4260457,"lng":90.9820668},"min":{"lat":24.4260457,"lng":90.9820668},"max":{"lat":24.4260457,"lng":90.9820668}}},{"code":27,"country_code":"BD","state_code":"","name":"Khulna zila","geo":{"center":{"lat":22.8146371,"lng":89.5705569},"min":{"lat":22.8146371,"lng":89.5705569},"max":{"lat":22.8146371,"lng":89.5705569}}},{"code":28,"country_code":"BD","state_code":"","name":"Kurigram zila","geo":{"center":{"lat":25.7570397,"lng":89.6251646},"min":{"lat":25.7570397,"lng":89.6251646},"max":{"lat":25.7570397,"lng":89.6251646}}},{"code":29,"country_code":"BD","state_code":"","name":"Khagrachari zila","geo":{"center":{"lat":23.1321751,"lng":91.949021},"min":{"lat":23.1321751,"lng":91.949021},"max":{"lat":23.1321751,"lng":91.949021}}},{"code":30,"country_code":"BD","state_code":"","name":"Kushtia zila","geo":{"center":{"lat":23.9031823,"lng":89.0561532},"min":{"lat":23.9031823,"lng":89.0561532},"max":{"lat":23.9031823,"lng":89.0561532}}},{"code":31,"country_code":"BD","state_code":"","name":"Lakshmipur zila","geo":{"center":{"lat":22.9339332,"lng":90.8321688},"min":{"lat":22.9339332,"lng":90.8321688},"max":{"lat":22.9339332,"lng":90.8321688}}},{"code":32,"country_code":"BD","state_code":"","name":"Lalmonirhat zila","geo":{"center":{"lat":25.9923398,"lng":89.2847251},"min":{"lat":25.9923398,"lng":89.2847251},"max":{"lat":25.9923398,"lng":89.2847251}}},{"code":33,"country_code":"BD","state_code":"","name":"Manikganj zila","geo":{"center":{"lat":23.8584557,"lng":89.9253233},"min":{"lat":23.8584557,"lng":89.9253233},"max":{"lat":23.8584557,"lng":89.9253233}}},{"code":34,"country_code":"BD","state_code":"","name":"Mymensingh zila","geo":{"center":{"lat":24.6188256,"lng":90.3748354},"min":{"lat":24.6188256,"lng":90.3748354},"max":{"lat":24.6188256,"lng":90.3748354}}},{"code":35,"country_code":"BD","state_code":"","name":"Munshiganj zila","geo":{"center":{"lat":23.5248687,"lng":90.3371889},"min":{"lat":23.5248687,"lng":90.3371889},"max":{"lat":23.5248687,"lng":90.3371889}}},{"code":36,"country_code":"BD","state_code":"","name":"Madaripur zila","geo":{"center":{"lat":23.1666835,"lng":90.2049417},"min":{"lat":23.1666835,"lng":90.2049417},"max":{"lat":23.1666835,"lng":90.2049417}}},{"code":37,"country_code":"BD","state_code":"","name":"Magura zila","geo":{"center":{"lat":null,"lng":null},"min":{"lat":null,"lng":null},"max":{"lat":null,"lng":null}}},{"code":38,"country_code":"BD","state_code":"","name":"Moulvibazar zila","geo":{"center":{"lat":24.4191069,"lng":91.7538817},"min":{"lat":24.4191069,"lng":91.7538817},"max":{"lat":24.4191069,"lng":91.7538817}}},{"code":39,"country_code":"BD","state_code":"","name":"Meherpur zila","geo":{"center":{"lat":23.8051991,"lng":88.6723578},"min":{"lat":23.8051991,"lng":88.6723578},"max":{"lat":23.8051991,"lng":88.6723578}}},{"code":40,"country_code":"BD","state_code":"","name":"Narayanganj zila","geo":{"center":{"lat":23.7146601,"lng":90.563609},"min":{"lat":23.7146601,"lng":90.563609},"max":{"lat":23.7146601,"lng":90.563609}}},{"code":41,"country_code":"BD","state_code":"","name":"Netrakona zila","geo":{"center":{"lat":24.8834972,"lng":90.7312453},"min":{"lat":24.8834972,"lng":90.7312453},"max":{"lat":24.8834972,"lng":90.7312453}}},{"code":42,"country_code":"BD","state_code":"","name":"Narsingdi zila","geo":{"center":{"lat":23.9991955,"lng":90.7913227},"min":{"lat":23.9991955,"lng":90.7913227},"max":{"lat":23.9991955,"lng":90.7913227}}},{"code":43,"country_code":"BD","state_code":"","name":"Narail zila","geo":{"center":{"lat":23.1436191,"lng":89.5874819},"min":{"lat":23.1436191,"lng":89.5874819},"max":{"lat":23.1436191,"lng":89.5874819}}},{"code":44,"country_code":"BD","state_code":"","name":"Natore zila","geo":{"center":{"lat":24.4260457,"lng":89.0179332},"min":{"lat":24.4260457,"lng":89.0179332},"max":{"lat":24.4260457,"lng":89.0179332}}},{"code":45,"country_code":"BD","state_code":"","name":"Nawabganj zila","geo":{"center":{"lat":29.9688,"lng":77.5495},"min":{"lat":29.9688,"lng":77.5495},"max":{"lat":29.9688,"lng":77.5495}}},{"code":46,"country_code":"BD","state_code":"","name":"Nilphamari zila","geo":{"center":{"lat":25.989962,"lng":88.90306},"min":{"lat":25.989962,"lng":88.90306},"max":{"lat":25.989962,"lng":88.90306}}},{"code":47,"country_code":"BD","state_code":"","name":"Noakhali zila","geo":{"center":{"lat":22.5205292,"lng":91.135302},"min":{"lat":22.5205292,"lng":91.135302},"max":{"lat":22.5205292,"lng":91.135302}}},{"code":48,"country_code":"BD","state_code":"","name":"Naogaon zila","geo":{"center":{"lat":24.8127781,"lng":88.9415362},"min":{"lat":24.8127781,"lng":88.9415362},"max":{"lat":24.8127781,"lng":88.9415362}}},{"code":49,"country_code":"BD","state_code":"","name":"Pabna zila","geo":{"center":{"lat":24.0021069,"lng":89.2332005},"min":{"lat":24.0021069,"lng":89.2332005},"max":{"lat":24.0021069,"lng":89.2332005}}},{"code":50,"country_code":"BD","state_code":"","name":"Pirojpur zila","geo":{"center":{"lat":25.6657924,"lng":88.1364591},"min":{"lat":25.6657924,"lng":88.1364591},"max":{"lat":25.6657924,"lng":88.1364591}}},{"code":51,"country_code":"BD","state_code":"","name":"Patuakhali zila","geo":{"center":{"lat":21.951824,"lng":90.3748354},"min":{"lat":21.951824,"lng":90.3748354},"max":{"lat":21.951824,"lng":90.3748354}}},{"code":52,"country_code":"BD","state_code":"","name":"Panchagarh zila","geo":{"center":{"lat":26.335376,"lng":88.551698},"min":{"lat":26.335376,"lng":88.551698},"max":{"lat":26.335376,"lng":88.551698}}},{"code":53,"country_code":"BD","state_code":"","name":"Rajbari zila","geo":{"center":{"lat":23.715134,"lng":89.5874819},"min":{"lat":23.715134,"lng":89.5874819},"max":{"lat":23.715134,"lng":89.5874819}}},{"code":54,"country_code":"BD","state_code":"","name":"Rajshahi zila","geo":{"center":{"lat":24.4130584,"lng":88.9822586},"min":{"lat":24.4130584,"lng":88.9822586},"max":{"lat":24.4130584,"lng":88.9822586}}},{"code":55,"country_code":"BD","state_code":"","name":"Rangpur zila","geo":{"center":{"lat":25.7588,"lng":89.243377},"min":{"lat":25.7588,"lng":89.243377},"max":{"lat":25.7588,"lng":89.243377}}},{"code":56,"country_code":"BD","state_code":"","name":"Rangamati zila","geo":{"center":{"lat":25.158978,"lng":91.685097},"min":{"lat":25.158978,"lng":91.685097},"max":{"lat":25.158978,"lng":91.685097}}},{"code":57,"country_code":"BD","state_code":"","name":"Sherpur zila","geo":{"center":{"lat":25.0465571,"lng":90.1120696},"min":{"lat":25.0465571,"lng":90.1120696},"max":{"lat":25.0465571,"lng":90.1120696}}},{"code":58,"country_code":"BD","state_code":"","name":"Satkhira zila","geo":{"center":{"lat":21.9501677,"lng":89.1705998},"min":{"lat":21.9501677,"lng":89.1705998},"max":{"lat":21.9501677,"lng":89.1705998}}},{"code":59,"country_code":"BD","state_code":"","name":"Sirajganj zila","geo":{"center":{"lat":null,"lng":null},"min":{"lat":null,"lng":null},"max":{"lat":null,"lng":null}}},{"code":60,"country_code":"BD","state_code":"","name":"Sylhet zila","geo":{"center":{"lat":24.8902772,"lng":91.8637142},"min":{"lat":24.8902772,"lng":91.8637142},"max":{"lat":24.8902772,"lng":91.8637142}}},{"code":61,"country_code":"BD","state_code":"","name":"Sunamganj zila","geo":{"center":{"lat":24.993592,"lng":91.2891036},"min":{"lat":24.993592,"lng":91.2891036},"max":{"lat":24.993592,"lng":91.2891036}}},{"code":62,"country_code":"BD","state_code":"","name":"Shariatpur zila","geo":{"center":{"lat":23.2866398,"lng":90.3748354},"min":{"lat":23.2866398,"lng":90.3748354},"max":{"lat":23.2866398,"lng":90.3748354}}},{"code":63,"country_code":"BD","state_code":"","name":"Tangail zila","geo":{"center":{"lat":24.2574606,"lng":89.9172914},"min":{"lat":24.2574606,"lng":89.9172914},"max":{"lat":24.2574606,"lng":89.9172914}}},{"code":64,"country_code":"BD","state_code":"","name":"Thakurgaon zila","geo":{"center":{"lat":25.9848836,"lng":88.362785},"min":{"lat":25.9848836,"lng":88.362785},"max":{"lat":25.9848836,"lng":88.362785}}}]