[{"code":"BAL","country_code":"BF","state_code":"","name":"Bal\u00e9","geo":{"center":{"lat":13.383333,"lng":0.133333},"min":{"lat":13.383333,"lng":0.133333},"max":{"lat":13.383333,"lng":0.133333}}},{"code":"BAM","country_code":"BF","state_code":"","name":"Bam","geo":{"center":{"lat":13.4061979,"lng":-1.5160212},"min":{"lat":13.4061979,"lng":-1.5160212},"max":{"lat":13.4061979,"lng":-1.5160212}}},{"code":"BAN","country_code":"BF","state_code":"","name":"Banwa","geo":{"center":{"lat":12.1323053,"lng":-4.1513764},"min":{"lat":12.1323053,"lng":-4.1513764},"max":{"lat":12.1323053,"lng":-4.1513764}}},{"code":"BAZ","country_code":"BF","state_code":"","name":"Baz\u00e8ga","geo":{"center":{"lat":11.9767692,"lng":-1.443469},"min":{"lat":11.9767692,"lng":-1.443469},"max":{"lat":11.9767692,"lng":-1.443469}}},{"code":"BGR","country_code":"BF","state_code":"","name":"Bougouriba","geo":{"center":{"lat":10.8722646,"lng":-3.3388917},"min":{"lat":10.8722646,"lng":-3.3388917},"max":{"lat":10.8722646,"lng":-3.3388917}}},{"code":"BLG","country_code":"BF","state_code":"","name":"Boulgou","geo":{"center":{"lat":11.4336766,"lng":-0.3748354},"min":{"lat":11.4336766,"lng":-0.3748354},"max":{"lat":11.4336766,"lng":-0.3748354}}},{"code":"BLK","country_code":"BF","state_code":"","name":"Boulkiemd\u00e9","geo":{"center":{"lat":12.3373752,"lng":-2.2236667},"min":{"lat":12.3373752,"lng":-2.2236667},"max":{"lat":12.3373752,"lng":-2.2236667}}},{"code":"COM","country_code":"BF","state_code":"","name":"Como\u00e9","geo":{"center":{"lat":10.4072992,"lng":-4.5624426},"min":{"lat":10.4072992,"lng":-4.5624426},"max":{"lat":10.4072992,"lng":-4.5624426}}},{"code":"GAN","country_code":"BF","state_code":"","name":"Ganzourgou","geo":{"center":{"lat":12.2537648,"lng":-0.7532809},"min":{"lat":12.2537648,"lng":-0.7532809},"max":{"lat":12.2537648,"lng":-0.7532809}}},{"code":"GNA","country_code":"BF","state_code":"","name":"Gnagna","geo":{"center":{"lat":12.8974992,"lng":0.0746767},"min":{"lat":12.8974992,"lng":0.0746767},"max":{"lat":12.8974992,"lng":0.0746767}}},{"code":"GOU","country_code":"BF","state_code":"","name":"Gourma","geo":{"center":{"lat":12.1624473,"lng":0.6773046},"min":{"lat":12.1624473,"lng":0.6773046},"max":{"lat":12.1624473,"lng":0.6773046}}},{"code":"HOU","country_code":"BF","state_code":"","name":"Houet","geo":{"center":{"lat":11.1320447,"lng":-4.2333355},"min":{"lat":11.1320447,"lng":-4.2333355},"max":{"lat":11.1320447,"lng":-4.2333355}}},{"code":"IOB","country_code":"BF","state_code":"","name":"Ioba","geo":{"center":{"lat":11.0562034,"lng":-3.0175712},"min":{"lat":11.0562034,"lng":-3.0175712},"max":{"lat":11.0562034,"lng":-3.0175712}}},{"code":"KAD","country_code":"BF","state_code":"","name":"Kadiogo","geo":{"center":{"lat":12.3425897,"lng":-1.443469},"min":{"lat":12.3425897,"lng":-1.443469},"max":{"lat":12.3425897,"lng":-1.443469}}},{"code":"KEN","country_code":"BF","state_code":"","name":"K\u00e9n\u00e9dougou","geo":{"center":{"lat":11.3919395,"lng":-4.976654},"min":{"lat":11.3919395,"lng":-4.976654},"max":{"lat":11.3919395,"lng":-4.976654}}},{"code":"KMD","country_code":"BF","state_code":"","name":"Komondjari","geo":{"center":{"lat":12.7126527,"lng":0.6773046},"min":{"lat":12.7126527,"lng":0.6773046},"max":{"lat":12.7126527,"lng":0.6773046}}},{"code":"KMP","country_code":"BF","state_code":"","name":"Kompienga","geo":{"center":{"lat":11.5238362,"lng":0.7532809},"min":{"lat":11.5238362,"lng":0.7532809},"max":{"lat":11.5238362,"lng":0.7532809}}},{"code":"KOP","country_code":"BF","state_code":"","name":"Koulp\u00e9logo","geo":{"center":{"lat":11.5247674,"lng":0.1494988},"min":{"lat":11.5247674,"lng":0.1494988},"max":{"lat":11.5247674,"lng":0.1494988}}},{"code":"KOS","country_code":"BF","state_code":"","name":"Kossi","geo":{"center":{"lat":12.960458,"lng":-3.9062688},"min":{"lat":12.960458,"lng":-3.9062688},"max":{"lat":12.960458,"lng":-3.9062688}}},{"code":"KOT","country_code":"BF","state_code":"","name":"Kouritenga","geo":{"center":{"lat":12.1631813,"lng":-0.2244662},"min":{"lat":12.1631813,"lng":-0.2244662},"max":{"lat":12.1631813,"lng":-0.2244662}}},{"code":"KOW","country_code":"BF","state_code":"","name":"Kourw\u00e9ogo","geo":{"center":{"lat":12.7077495,"lng":-1.7538817},"min":{"lat":12.7077495,"lng":-1.7538817},"max":{"lat":12.7077495,"lng":-1.7538817}}},{"code":"LER","country_code":"BF","state_code":"","name":"L\u00e9raba","geo":{"center":{"lat":10.6648785,"lng":-5.3102505},"min":{"lat":10.6648785,"lng":-5.3102505},"max":{"lat":10.6648785,"lng":-5.3102505}}},{"code":"LOR","country_code":"BF","state_code":"","name":"Loroum","geo":{"center":{"lat":13.8129814,"lng":-2.0665197},"min":{"lat":13.8129814,"lng":-2.0665197},"max":{"lat":13.8129814,"lng":-2.0665197}}},{"code":"MOU","country_code":"BF","state_code":"","name":"Mouhoun","geo":{"center":{"lat":12.1432381,"lng":-3.3388917},"min":{"lat":12.1432381,"lng":-3.3388917},"max":{"lat":12.1432381,"lng":-3.3388917}}},{"code":"NAM","country_code":"BF","state_code":"","name":"Namentenga","geo":{"center":{"lat":13.0812584,"lng":-0.5257823},"min":{"lat":13.0812584,"lng":-0.5257823},"max":{"lat":13.0812584,"lng":-0.5257823}}},{"code":"NAO","country_code":"BF","state_code":"","name":"Nahouri","geo":{"center":{"lat":11.2502267,"lng":-1.135302},"min":{"lat":11.2502267,"lng":-1.135302},"max":{"lat":11.2502267,"lng":-1.135302}}},{"code":"NAY","country_code":"BF","state_code":"","name":"Nayala","geo":{"center":{"lat":12.6964558,"lng":-3.0175712},"min":{"lat":12.6964558,"lng":-3.0175712},"max":{"lat":12.6964558,"lng":-3.0175712}}},{"code":"NOU","country_code":"BF","state_code":"","name":"Noumbiel","geo":{"center":{"lat":9.8440946,"lng":-2.9775558},"min":{"lat":9.8440946,"lng":-2.9775558},"max":{"lat":9.8440946,"lng":-2.9775558}}},{"code":"OUB","country_code":"BF","state_code":"","name":"Oubritenga","geo":{"center":{"lat":12.7096087,"lng":-1.443469},"min":{"lat":12.7096087,"lng":-1.443469},"max":{"lat":12.7096087,"lng":-1.443469}}},{"code":"OUD","country_code":"BF","state_code":"","name":"Oudalan","geo":{"center":{"lat":14.471902,"lng":-0.4502368},"min":{"lat":14.471902,"lng":-0.4502368},"max":{"lat":14.471902,"lng":-0.4502368}}},{"code":"PAS","country_code":"BF","state_code":"","name":"Passor\u00e9","geo":{"center":{"lat":12.8881221,"lng":-2.2236667},"min":{"lat":12.8881221,"lng":-2.2236667},"max":{"lat":12.8881221,"lng":-2.2236667}}},{"code":"PON","country_code":"BF","state_code":"","name":"Poni","geo":{"center":{"lat":10.3325996,"lng":-3.3388917},"min":{"lat":10.3325996,"lng":-3.3388917},"max":{"lat":10.3325996,"lng":-3.3388917}}},{"code":"SEN","country_code":"BF","state_code":"","name":"S\u00e9no","geo":{"center":{"lat":14.0072234,"lng":-0.0746767},"min":{"lat":14.0072234,"lng":-0.0746767},"max":{"lat":14.0072234,"lng":-0.0746767}}},{"code":"SIS","country_code":"BF","state_code":"","name":"Sissili","geo":{"center":{"lat":11.2441219,"lng":-2.2236667},"min":{"lat":11.2441219,"lng":-2.2236667},"max":{"lat":11.2441219,"lng":-2.2236667}}},{"code":"SMT","country_code":"BF","state_code":"","name":"Sanmatenga","geo":{"center":{"lat":13.3565304,"lng":-1.0586135},"min":{"lat":13.3565304,"lng":-1.0586135},"max":{"lat":13.3565304,"lng":-1.0586135}}},{"code":"SNG","country_code":"BF","state_code":"","name":"Sangui\u00e9","geo":{"center":{"lat":12.1501861,"lng":-2.6983868},"min":{"lat":12.1501861,"lng":-2.6983868},"max":{"lat":12.1501861,"lng":-2.6983868}}},{"code":"SOM","country_code":"BF","state_code":"","name":"Soum","geo":{"center":{"lat":12.600536,"lng":-2.2728877},"min":{"lat":12.600536,"lng":-2.2728877},"max":{"lat":12.600536,"lng":-2.2728877}}},{"code":"SOR","country_code":"BF","state_code":"","name":"Sourou","geo":{"center":{"lat":13.341803,"lng":-2.9375739},"min":{"lat":13.341803,"lng":-2.9375739},"max":{"lat":13.341803,"lng":-2.9375739}}},{"code":"TAP","country_code":"BF","state_code":"","name":"Tapoa","geo":{"center":{"lat":12.2497072,"lng":1.6760691},"min":{"lat":12.2497072,"lng":1.6760691},"max":{"lat":12.2497072,"lng":1.6760691}}},{"code":"TUI","country_code":"BF","state_code":"","name":"Tui","geo":{"center":{"lat":11.5029004,"lng":-3.5812692},"min":{"lat":11.5029004,"lng":-3.5812692},"max":{"lat":11.5029004,"lng":-3.5812692}}},{"code":"YAG","country_code":"BF","state_code":"","name":"Yagha","geo":{"center":{"lat":13.3576157,"lng":0.7532809},"min":{"lat":13.3576157,"lng":0.7532809},"max":{"lat":13.3576157,"lng":0.7532809}}},{"code":"YAT","country_code":"BF","state_code":"","name":"Yatenga","geo":{"center":{"lat":13.6249344,"lng":-2.3813621},"min":{"lat":13.6249344,"lng":-2.3813621},"max":{"lat":13.6249344,"lng":-2.3813621}}},{"code":"ZIR","country_code":"BF","state_code":"","name":"Ziro","geo":{"center":{"lat":11.6094995,"lng":-1.9099238},"min":{"lat":11.6094995,"lng":-1.9099238},"max":{"lat":11.6094995,"lng":-1.9099238}}},{"code":"ZON","country_code":"BF","state_code":"","name":"Zondoma","geo":{"center":{"lat":13.1165926,"lng":-2.4208713},"min":{"lat":13.1165926,"lng":-2.4208713},"max":{"lat":13.1165926,"lng":-2.4208713}}},{"code":"ZOU","country_code":"BF","state_code":"","name":"Zoundw\u00e9ogo","geo":{"center":{"lat":11.6141174,"lng":-0.9820668},"min":{"lat":11.6141174,"lng":-0.9820668},"max":{"lat":11.6141174,"lng":-0.9820668}}}]