[{"code":"01","country_code":"BG","state_code":"","name":"Blagoevgrad","geo":{"center":{"lat":42.0208569,"lng":23.0943385},"min":{"lat":42.0208569,"lng":23.0943385},"max":{"lat":42.0208569,"lng":23.0943385}}},{"code":"02","country_code":"BG","state_code":"","name":"Burgas","geo":{"center":{"lat":42.5047926,"lng":27.4626361},"min":{"lat":42.5047926,"lng":27.4626361},"max":{"lat":42.5047926,"lng":27.4626361}}},{"code":"03","country_code":"BG","state_code":"","name":"Varna","geo":{"center":{"lat":43.2140504,"lng":27.9147333},"min":{"lat":43.2140504,"lng":27.9147333},"max":{"lat":43.2140504,"lng":27.9147333}}},{"code":"04","country_code":"BG","state_code":"","name":"Veliko Tarnovo","geo":{"center":{"lat":43.0756739,"lng":25.6171514},"min":{"lat":43.0756739,"lng":25.6171514},"max":{"lat":43.0756739,"lng":25.6171514}}},{"code":"05","country_code":"BG","state_code":"","name":"Vidin","geo":{"center":{"lat":43.996159,"lng":22.8679302},"min":{"lat":43.996159,"lng":22.8679302},"max":{"lat":43.996159,"lng":22.8679302}}},{"code":"06","country_code":"BG","state_code":"","name":"Vratsa","geo":{"center":{"lat":43.2102375,"lng":23.5528803},"min":{"lat":43.2102375,"lng":23.5528803},"max":{"lat":43.2102375,"lng":23.5528803}}},{"code":"07","country_code":"BG","state_code":"","name":"Gabrovo","geo":{"center":{"lat":42.8742212,"lng":25.3186837},"min":{"lat":42.8742212,"lng":25.3186837},"max":{"lat":42.8742212,"lng":25.3186837}}},{"code":"08","country_code":"BG","state_code":"","name":"Dobrich","geo":{"center":{"lat":43.57259,"lng":27.8272606},"min":{"lat":43.57259,"lng":27.8272606},"max":{"lat":43.57259,"lng":27.8272606}}},{"code":"09","country_code":"BG","state_code":"","name":"Kardzhali","geo":{"center":{"lat":41.6338439,"lng":25.3777119},"min":{"lat":41.6338439,"lng":25.3777119},"max":{"lat":41.6338439,"lng":25.3777119}}},{"code":10,"country_code":"BG","state_code":"","name":"Kjustendil","geo":{"center":{"lat":42.2868817,"lng":22.6939308},"min":{"lat":42.2868817,"lng":22.6939308},"max":{"lat":42.2868817,"lng":22.6939308}}},{"code":11,"country_code":"BG","state_code":"","name":"Lovech","geo":{"center":{"lat":43.1369534,"lng":24.7141906},"min":{"lat":43.1369534,"lng":24.7141906},"max":{"lat":43.1369534,"lng":24.7141906}}},{"code":12,"country_code":"BG","state_code":"","name":"Montana","geo":{"center":{"lat":43.4085161,"lng":23.2257292},"min":{"lat":43.4085161,"lng":23.2257292},"max":{"lat":43.4085161,"lng":23.2257292}}},{"code":13,"country_code":"BG","state_code":"","name":"Pazardzhik","geo":{"center":{"lat":42.1927654,"lng":24.3335662},"min":{"lat":42.1927654,"lng":24.3335662},"max":{"lat":42.1927654,"lng":24.3335662}}},{"code":14,"country_code":"BG","state_code":"","name":"Pernik","geo":{"center":{"lat":42.6051862,"lng":23.0378368},"min":{"lat":42.6051862,"lng":23.0378368},"max":{"lat":42.6051862,"lng":23.0378368}}},{"code":15,"country_code":"BG","state_code":"","name":"Pleven","geo":{"center":{"lat":43.4170423,"lng":24.6066847},"min":{"lat":43.4170423,"lng":24.6066847},"max":{"lat":43.4170423,"lng":24.6066847}}},{"code":16,"country_code":"BG","state_code":"","name":"Plovdiv","geo":{"center":{"lat":42.1354079,"lng":24.7452904},"min":{"lat":42.1354079,"lng":24.7452904},"max":{"lat":42.1354079,"lng":24.7452904}}},{"code":17,"country_code":"BG","state_code":"","name":"Razgrad","geo":{"center":{"lat":43.5336719,"lng":26.5411164},"min":{"lat":43.5336719,"lng":26.5411164},"max":{"lat":43.5336719,"lng":26.5411164}}},{"code":18,"country_code":"BG","state_code":"","name":"Ruse","geo":{"center":{"lat":43.8355713,"lng":25.9656554},"min":{"lat":43.8355713,"lng":25.9656554},"max":{"lat":43.8355713,"lng":25.9656554}}},{"code":19,"country_code":"BG","state_code":"","name":"Silistra","geo":{"center":{"lat":44.1147271,"lng":27.2671901},"min":{"lat":44.1147271,"lng":27.2671901},"max":{"lat":44.1147271,"lng":27.2671901}}},{"code":20,"country_code":"BG","state_code":"","name":"Sliven","geo":{"center":{"lat":42.6816536,"lng":26.3228685},"min":{"lat":42.6816536,"lng":26.3228685},"max":{"lat":42.6816536,"lng":26.3228685}}},{"code":21,"country_code":"BG","state_code":"","name":"Smolyan","geo":{"center":{"lat":41.5774233,"lng":24.7011138},"min":{"lat":41.5774233,"lng":24.7011138},"max":{"lat":41.5774233,"lng":24.7011138}}},{"code":22,"country_code":"BG","state_code":"","name":"Sofia-Grad","geo":{"center":{"lat":42.6977082,"lng":23.3218675},"min":{"lat":42.6977082,"lng":23.3218675},"max":{"lat":42.6977082,"lng":23.3218675}}},{"code":23,"country_code":"BG","state_code":"","name":"Sofia","geo":{"center":{"lat":42.6977082,"lng":23.3218675},"min":{"lat":42.6977082,"lng":23.3218675},"max":{"lat":42.6977082,"lng":23.3218675}}},{"code":24,"country_code":"BG","state_code":"","name":"Stara Zagora","geo":{"center":{"lat":42.4257769,"lng":25.6344644},"min":{"lat":42.4257769,"lng":25.6344644},"max":{"lat":42.4257769,"lng":25.6344644}}},{"code":25,"country_code":"BG","state_code":"","name":"Targovishte","geo":{"center":{"lat":43.2493556,"lng":26.5727357},"min":{"lat":43.2493556,"lng":26.5727357},"max":{"lat":43.2493556,"lng":26.5727357}}},{"code":26,"country_code":"BG","state_code":"","name":"Haskovo","geo":{"center":{"lat":41.9344366,"lng":25.5554462},"min":{"lat":41.9344366,"lng":25.5554462},"max":{"lat":41.9344366,"lng":25.5554462}}},{"code":27,"country_code":"BG","state_code":"","name":"\u0160umen","geo":{"center":{"lat":43.2712398,"lng":26.9361286},"min":{"lat":43.2712398,"lng":26.9361286},"max":{"lat":43.2712398,"lng":26.9361286}}},{"code":28,"country_code":"BG","state_code":"","name":"Yambol","geo":{"center":{"lat":42.4841999,"lng":26.5035023},"min":{"lat":42.4841999,"lng":26.5035023},"max":{"lat":42.4841999,"lng":26.5035023}}}]