[{"code":"AC","country_code":"BR","state_code":"","name":"Acre","geo":{"center":{"lat":-9.0237964,"lng":-70.8119953},"min":{"lat":-9.0237964,"lng":-70.8119953},"max":{"lat":-9.0237964,"lng":-70.8119953}}},{"code":"AL","country_code":"BR","state_code":"","name":"Alagoas","geo":{"center":{"lat":-9.5713058,"lng":-36.7819505},"min":{"lat":-9.5713058,"lng":-36.7819505},"max":{"lat":-9.5713058,"lng":-36.7819505}}},{"code":"AM","country_code":"BR","state_code":"","name":"Amazonas","geo":{"center":{"lat":-3.4168427,"lng":-65.8560646},"min":{"lat":-3.4168427,"lng":-65.8560646},"max":{"lat":-3.4168427,"lng":-65.8560646}}},{"code":"AP","country_code":"BR","state_code":"","name":"Amap\u00e1","geo":{"center":{"lat":2.0447397,"lng":-50.7874222},"min":{"lat":2.0447397,"lng":-50.7874222},"max":{"lat":2.0447397,"lng":-50.7874222}}},{"code":"BA","country_code":"BR","state_code":"","name":"Bahia","geo":{"center":{"lat":-12.579738,"lng":-41.7007272},"min":{"lat":-12.579738,"lng":-41.7007272},"max":{"lat":-12.579738,"lng":-41.7007272}}},{"code":"CE","country_code":"BR","state_code":"","name":"Cear\u00e1","geo":{"center":{"lat":-5.4983977,"lng":-39.3206241},"min":{"lat":-5.4983977,"lng":-39.3206241},"max":{"lat":-5.4983977,"lng":-39.3206241}}},{"code":"DF","country_code":"BR","state_code":"","name":"Distrito Federal","geo":{"center":{"lat":-15.826691,"lng":-47.9218204},"min":{"lat":-15.826691,"lng":-47.9218204},"max":{"lat":-15.826691,"lng":-47.9218204}}},{"code":"ES","country_code":"BR","state_code":"","name":"Esp\u00edrito Santo","geo":{"center":{"lat":-19.1834229,"lng":-40.3088626},"min":{"lat":-19.1834229,"lng":-40.3088626},"max":{"lat":-19.1834229,"lng":-40.3088626}}},{"code":"GO","country_code":"BR","state_code":"","name":"Goi\u00e1s","geo":{"center":{"lat":-15.93397,"lng":-50.1403832},"min":{"lat":-15.93397,"lng":-50.1403832},"max":{"lat":-15.93397,"lng":-50.1403832}}},{"code":"MA","country_code":"BR","state_code":"","name":"Maranh\u00e3o","geo":{"center":{"lat":-4.9609498,"lng":-45.2744159},"min":{"lat":-4.9609498,"lng":-45.2744159},"max":{"lat":-4.9609498,"lng":-45.2744159}}},{"code":"MG","country_code":"BR","state_code":"","name":"Minas Gerais","geo":{"center":{"lat":-18.512178,"lng":-44.5550308},"min":{"lat":-18.512178,"lng":-44.5550308},"max":{"lat":-18.512178,"lng":-44.5550308}}},{"code":"MS","country_code":"BR","state_code":"","name":"Mato Grosso do Sul","geo":{"center":{"lat":-20.7722295,"lng":-54.7851531},"min":{"lat":-20.7722295,"lng":-54.7851531},"max":{"lat":-20.7722295,"lng":-54.7851531}}},{"code":"MT","country_code":"BR","state_code":"","name":"Mato Grosso","geo":{"center":{"lat":-12.6818712,"lng":-56.921099},"min":{"lat":-12.6818712,"lng":-56.921099},"max":{"lat":-12.6818712,"lng":-56.921099}}},{"code":"PA","country_code":"BR","state_code":"","name":"Par\u00e1","geo":{"center":{"lat":-1.9981271,"lng":-54.9306152},"min":{"lat":-1.9981271,"lng":-54.9306152},"max":{"lat":-1.9981271,"lng":-54.9306152}}},{"code":"PB","country_code":"BR","state_code":"","name":"Para\u00edba","geo":{"center":{"lat":-7.2399609,"lng":-36.7819505},"min":{"lat":-7.2399609,"lng":-36.7819505},"max":{"lat":-7.2399609,"lng":-36.7819505}}},{"code":"PE","country_code":"BR","state_code":"","name":"Pernambuco","geo":{"center":{"lat":-8.8137173,"lng":-36.954107},"min":{"lat":-8.8137173,"lng":-36.954107},"max":{"lat":-8.8137173,"lng":-36.954107}}},{"code":"PI","country_code":"BR","state_code":"","name":"Piau\u00ed","geo":{"center":{"lat":-7.7183401,"lng":-42.7289236},"min":{"lat":-7.7183401,"lng":-42.7289236},"max":{"lat":-7.7183401,"lng":-42.7289236}}},{"code":"PR","country_code":"BR","state_code":"","name":"Paran\u00e1","geo":{"center":{"lat":-25.2520888,"lng":-52.0215415},"min":{"lat":-25.2520888,"lng":-52.0215415},"max":{"lat":-25.2520888,"lng":-52.0215415}}},{"code":"RJ","country_code":"BR","state_code":"","name":"Rio de Janeiro","geo":{"center":{"lat":-22.9068467,"lng":-43.1728965},"min":{"lat":-22.9068467,"lng":-43.1728965},"max":{"lat":-22.9068467,"lng":-43.1728965}}},{"code":"RN","country_code":"BR","state_code":"","name":"Rio Grande do Norte","geo":{"center":{"lat":-5.4025803,"lng":-36.954107},"min":{"lat":-5.4025803,"lng":-36.954107},"max":{"lat":-5.4025803,"lng":-36.954107}}},{"code":"RO","country_code":"BR","state_code":"","name":"Rond\u00f4nia","geo":{"center":{"lat":-11.5057341,"lng":-63.580611},"min":{"lat":-11.5057341,"lng":-63.580611},"max":{"lat":-11.5057341,"lng":-63.580611}}},{"code":"RR","country_code":"BR","state_code":"","name":"Roraima","geo":{"center":{"lat":2.7375971,"lng":-62.0750998},"min":{"lat":2.7375971,"lng":-62.0750998},"max":{"lat":2.7375971,"lng":-62.0750998}}},{"code":"RS","country_code":"BR","state_code":"","name":"Rio Grande do Sul","geo":{"center":{"lat":-30.0346316,"lng":-51.2176986},"min":{"lat":-30.0346316,"lng":-51.2176986},"max":{"lat":-30.0346316,"lng":-51.2176986}}},{"code":"SC","country_code":"BR","state_code":"","name":"Santa Catarina","geo":{"center":{"lat":-27.2423392,"lng":-50.2188556},"min":{"lat":-27.2423392,"lng":-50.2188556},"max":{"lat":-27.2423392,"lng":-50.2188556}}},{"code":"SE","country_code":"BR","state_code":"","name":"Sergipe","geo":{"center":{"lat":-10.5740934,"lng":-37.3856581},"min":{"lat":-10.5740934,"lng":-37.3856581},"max":{"lat":-10.5740934,"lng":-37.3856581}}},{"code":"SP","country_code":"BR","state_code":"","name":"S\u00e3o Paulo","geo":{"center":{"lat":-23.5505199,"lng":-46.6333094},"min":{"lat":-23.5505199,"lng":-46.6333094},"max":{"lat":-23.5505199,"lng":-46.6333094}}},{"code":"TO","country_code":"BR","state_code":"","name":"Tocantins","geo":{"center":{"lat":-10.17528,"lng":-48.2982474},"min":{"lat":-10.17528,"lng":-48.2982474},"max":{"lat":-10.17528,"lng":-48.2982474}}}]