[{"code":11,"country_code":"BT","state_code":"","name":"Paro","geo":{"center":{"lat":27.4285949,"lng":89.4166516},"min":{"lat":27.4285949,"lng":89.4166516},"max":{"lat":27.4285949,"lng":89.4166516}}},{"code":12,"country_code":"BT","state_code":"","name":"Chhukha","geo":{"center":{"lat":27.0522919,"lng":89.5756987},"min":{"lat":27.0522919,"lng":89.5756987},"max":{"lat":27.0522919,"lng":89.5756987}}},{"code":13,"country_code":"BT","state_code":"","name":"Ha","geo":{"center":{"lat":27.2651669,"lng":89.1705998},"min":{"lat":27.2651669,"lng":89.1705998},"max":{"lat":27.2651669,"lng":89.1705998}}},{"code":14,"country_code":"BT","state_code":"","name":"Samtse","geo":{"center":{"lat":26.9131041,"lng":89.0836019},"min":{"lat":26.9131041,"lng":89.0836019},"max":{"lat":26.9131041,"lng":89.0836019}}},{"code":15,"country_code":"BT","state_code":"","name":"Thimphu","geo":{"center":{"lat":27.4727924,"lng":89.6392863},"min":{"lat":27.4727924,"lng":89.6392863},"max":{"lat":27.4727924,"lng":89.6392863}}},{"code":21,"country_code":"BT","state_code":"","name":"Tsirang","geo":{"center":{"lat":27.032207,"lng":90.1869644},"min":{"lat":27.032207,"lng":90.1869644},"max":{"lat":27.032207,"lng":90.1869644}}},{"code":22,"country_code":"BT","state_code":"","name":"Dagana","geo":{"center":{"lat":27.0322861,"lng":89.8879304},"min":{"lat":27.0322861,"lng":89.8879304},"max":{"lat":27.0322861,"lng":89.8879304}}},{"code":23,"country_code":"BT","state_code":"","name":"Punakha","geo":{"center":{"lat":27.5920869,"lng":89.8797459},"min":{"lat":27.5920869,"lng":89.8797459},"max":{"lat":27.5920869,"lng":89.8797459}}},{"code":24,"country_code":"BT","state_code":"","name":"Wangdue Phodrang","geo":{"center":{"lat":27.4879018,"lng":89.8996196},"min":{"lat":27.4879018,"lng":89.8996196},"max":{"lat":27.4879018,"lng":89.8996196}}},{"code":31,"country_code":"BT","state_code":"","name":"Sarpang","geo":{"center":{"lat":26.9373041,"lng":90.4879916},"min":{"lat":26.9373041,"lng":90.4879916},"max":{"lat":26.9373041,"lng":90.4879916}}},{"code":32,"country_code":"BT","state_code":"","name":"Trongsa","geo":{"center":{"lat":27.5002269,"lng":90.5080634},"min":{"lat":27.5002269,"lng":90.5080634},"max":{"lat":27.5002269,"lng":90.5080634}}},{"code":33,"country_code":"BT","state_code":"","name":"Bumthang","geo":{"center":{"lat":27.641839,"lng":90.6773046},"min":{"lat":27.641839,"lng":90.6773046},"max":{"lat":27.641839,"lng":90.6773046}}},{"code":34,"country_code":"BT","state_code":"","name":"Zhemgang","geo":{"center":{"lat":27.1439047,"lng":90.6903529},"min":{"lat":27.1439047,"lng":90.6903529},"max":{"lat":27.1439047,"lng":90.6903529}}},{"code":41,"country_code":"BT","state_code":"","name":"Trashigang","geo":{"center":{"lat":27.2566795,"lng":91.7538817},"min":{"lat":27.2566795,"lng":91.7538817},"max":{"lat":27.2566795,"lng":91.7538817}}},{"code":42,"country_code":"BT","state_code":"","name":"Monggar","geo":{"center":{"lat":27.275,"lng":91.24},"min":{"lat":27.275,"lng":91.24},"max":{"lat":27.275,"lng":91.24}}},{"code":43,"country_code":"BT","state_code":"","name":"Pemagatshel","geo":{"center":{"lat":27.002382,"lng":91.3469247},"min":{"lat":27.002382,"lng":91.3469247},"max":{"lat":27.002382,"lng":91.3469247}}},{"code":44,"country_code":"BT","state_code":"","name":"Lhuentse","geo":{"center":{"lat":27.6649208,"lng":91.1761004},"min":{"lat":27.6649208,"lng":91.1761004},"max":{"lat":27.6649208,"lng":91.1761004}}},{"code":45,"country_code":"BT","state_code":"","name":"Samdrup Jongkha","geo":{"center":{"lat":26.928696,"lng":91.637215},"min":{"lat":26.928696,"lng":91.637215},"max":{"lat":26.928696,"lng":91.637215}}},{"code":"GA","country_code":"BT","state_code":"","name":"Gasa","geo":{"center":{"lat":28.0185886,"lng":89.9253233},"min":{"lat":28.0185886,"lng":89.9253233},"max":{"lat":28.0185886,"lng":89.9253233}}},{"code":"TY","country_code":"BT","state_code":"","name":"Trashi Yangtse","geo":{"center":{"lat":27.583333,"lng":91.466667},"min":{"lat":27.583333,"lng":91.466667},"max":{"lat":27.583333,"lng":91.466667}}}]