[{"code":"AG","country_code":"CH","state_code":"","name":"Aargau (de)","geo":{"center":{"lat":47.3876664,"lng":8.2554295},"min":{"lat":47.3876664,"lng":8.2554295},"max":{"lat":47.3876664,"lng":8.2554295}}},{"code":"AI","country_code":"CH","state_code":"","name":"Appenzell Innerrhoden (de)","geo":{"center":{"lat":47.3161925,"lng":9.4316573},"min":{"lat":47.3161925,"lng":9.4316573},"max":{"lat":47.3161925,"lng":9.4316573}}},{"code":"AR","country_code":"CH","state_code":"","name":"Appenzell Ausserrhoden (de)","geo":{"center":{"lat":47.366481,"lng":9.3000916},"min":{"lat":47.366481,"lng":9.3000916},"max":{"lat":47.366481,"lng":9.3000916}}},{"code":"BE","country_code":"CH","state_code":"","name":"Bern (de)","geo":{"center":{"lat":46.9479222,"lng":7.4446085},"min":{"lat":46.9479222,"lng":7.4446085},"max":{"lat":46.9479222,"lng":7.4446085}}},{"code":"BL","country_code":"CH","state_code":"","name":"Basel-Landschaft (de)","geo":{"center":{"lat":47.4418122,"lng":7.7644002},"min":{"lat":47.4418122,"lng":7.7644002},"max":{"lat":47.4418122,"lng":7.7644002}}},{"code":"BS","country_code":"CH","state_code":"","name":"Basel-Stadt (de)","geo":{"center":{"lat":47.5674422,"lng":7.5975507},"min":{"lat":47.5674422,"lng":7.5975507},"max":{"lat":47.5674422,"lng":7.5975507}}},{"code":"FR","country_code":"CH","state_code":"","name":"Fribourg (fr)","geo":{"center":{"lat":46.8016663,"lng":7.1455683},"min":{"lat":46.8016663,"lng":7.1455683},"max":{"lat":46.8016663,"lng":7.1455683}}},{"code":"GE","country_code":"CH","state_code":"","name":"Gen\u00e8ve (fr)","geo":{"center":{"lat":46.1983922,"lng":6.1422961},"min":{"lat":46.1983922,"lng":6.1422961},"max":{"lat":46.1983922,"lng":6.1422961}}},{"code":"GL","country_code":"CH","state_code":"","name":"Glarus (de)","geo":{"center":{"lat":47.0404265,"lng":9.0672085},"min":{"lat":47.0404265,"lng":9.0672085},"max":{"lat":47.0404265,"lng":9.0672085}}},{"code":"GR","country_code":"CH","state_code":"","name":"Graub\u00fcnden (de)","geo":{"center":{"lat":46.6569871,"lng":9.5780257},"min":{"lat":46.6569871,"lng":9.5780257},"max":{"lat":46.6569871,"lng":9.5780257}}},{"code":"JU","country_code":"CH","state_code":"","name":"Jura (fr)","geo":{"center":{"lat":47.3444474,"lng":7.1430608},"min":{"lat":47.3444474,"lng":7.1430608},"max":{"lat":47.3444474,"lng":7.1430608}}},{"code":"LU","country_code":"CH","state_code":"","name":"Luzern (de)","geo":{"center":{"lat":47.0500376,"lng":8.3089295},"min":{"lat":47.0500376,"lng":8.3089295},"max":{"lat":47.0500376,"lng":8.3089295}}},{"code":"NE","country_code":"CH","state_code":"","name":"Neuch\u00e2tel (fr)","geo":{"center":{"lat":46.9929793,"lng":6.9319325},"min":{"lat":46.9929793,"lng":6.9319325},"max":{"lat":46.9929793,"lng":6.9319325}}},{"code":"NW","country_code":"CH","state_code":"","name":"Nidwalden (de)","geo":{"center":{"lat":46.9267016,"lng":8.3849982},"min":{"lat":46.9267016,"lng":8.3849982},"max":{"lat":46.9267016,"lng":8.3849982}}},{"code":"OW","country_code":"CH","state_code":"","name":"Obwalden (de)","geo":{"center":{"lat":46.877858,"lng":8.251249},"min":{"lat":46.877858,"lng":8.251249},"max":{"lat":46.877858,"lng":8.251249}}},{"code":"SG","country_code":"CH","state_code":"","name":"Sankt Gallen (de)","geo":{"center":{"lat":47.4179284,"lng":9.3643968},"min":{"lat":47.4179284,"lng":9.3643968},"max":{"lat":47.4179284,"lng":9.3643968}}},{"code":"SH","country_code":"CH","state_code":"","name":"Schaffhausen (de)","geo":{"center":{"lat":47.7077664,"lng":8.6414424},"min":{"lat":47.7077664,"lng":8.6414424},"max":{"lat":47.7077664,"lng":8.6414424}}},{"code":"SO","country_code":"CH","state_code":"","name":"Solothurn (de)","geo":{"center":{"lat":47.2086574,"lng":7.5379549},"min":{"lat":47.2086574,"lng":7.5379549},"max":{"lat":47.2086574,"lng":7.5379549}}},{"code":"SZ","country_code":"CH","state_code":"","name":"Schwyz (de)","geo":{"center":{"lat":47.0198346,"lng":8.6473977},"min":{"lat":47.0198346,"lng":8.6473977},"max":{"lat":47.0198346,"lng":8.6473977}}},{"code":"TG","country_code":"CH","state_code":"","name":"Thurgau (de)","geo":{"center":{"lat":47.6037856,"lng":9.0557371},"min":{"lat":47.6037856,"lng":9.0557371},"max":{"lat":47.6037856,"lng":9.0557371}}},{"code":"TI","country_code":"CH","state_code":"","name":"Ticino (it)","geo":{"center":{"lat":46.331734,"lng":8.8004529},"min":{"lat":46.331734,"lng":8.8004529},"max":{"lat":46.331734,"lng":8.8004529}}},{"code":"UR","country_code":"CH","state_code":"","name":"Uri (de)","geo":{"center":{"lat":46.7738629,"lng":8.6025153},"min":{"lat":46.7738629,"lng":8.6025153},"max":{"lat":46.7738629,"lng":8.6025153}}},{"code":"VD","country_code":"CH","state_code":"","name":"Vaud (fr)","geo":{"center":{"lat":46.5613135,"lng":6.536765},"min":{"lat":46.5613135,"lng":6.536765},"max":{"lat":46.5613135,"lng":6.536765}}},{"code":"VS","country_code":"CH","state_code":"","name":"Valais (fr)","geo":{"center":{"lat":46.1904614,"lng":7.5449226},"min":{"lat":46.1904614,"lng":7.5449226},"max":{"lat":46.1904614,"lng":7.5449226}}},{"code":"ZG","country_code":"CH","state_code":"","name":"Zug (de)","geo":{"center":{"lat":47.1745887,"lng":8.513854},"min":{"lat":47.1745887,"lng":8.513854},"max":{"lat":47.1745887,"lng":8.513854}}},{"code":"ZH","country_code":"CH","state_code":"","name":"Z\u00fcrich (de)","geo":{"center":{"lat":47.3686498,"lng":8.5391825},"min":{"lat":47.3686498,"lng":8.5391825},"max":{"lat":47.3686498,"lng":8.5391825}}}]