[{"code":"01","country_code":"CI","state_code":"","name":"Lagunes (R\u00e9gion des)","geo":{"center":{"lat":5.4611461,"lng":-4.479976},"min":{"lat":5.4611461,"lng":-4.479976},"max":{"lat":5.4611461,"lng":-4.479976}}},{"code":"02","country_code":"CI","state_code":"","name":"Haut-Sassandra (R\u00e9gion du)","geo":{"center":{"lat":6.8757848,"lng":-6.5783387},"min":{"lat":6.8757848,"lng":-6.5783387},"max":{"lat":6.8757848,"lng":-6.5783387}}},{"code":"03","country_code":"CI","state_code":"","name":"Savanes (R\u00e9gion des)","geo":{"center":{"lat":9.6783614,"lng":-5.5617279},"min":{"lat":9.6783614,"lng":-5.5617279},"max":{"lat":9.6783614,"lng":-5.5617279}}},{"code":"04","country_code":"CI","state_code":"","name":"Vall\u00e9e du Bandama (R\u00e9gion de la)","geo":{"center":{"lat":8.278978,"lng":-4.8935627},"min":{"lat":8.278978,"lng":-4.8935627},"max":{"lat":8.278978,"lng":-4.8935627}}},{"code":"05","country_code":"CI","state_code":"","name":"Moyen-Como\u00e9 (R\u00e9gion du)","geo":{"center":{"lat":6.7419877,"lng":-3.5073638},"min":{"lat":6.7419877,"lng":-3.5073638},"max":{"lat":6.7419877,"lng":-3.5073638}}},{"code":"06","country_code":"CI","state_code":"","name":"18 Montagnes (R\u00e9gion des)","geo":{"center":{"lat":7.3762373,"lng":-7.4381355},"min":{"lat":7.3762373,"lng":-7.4381355},"max":{"lat":7.3762373,"lng":-7.4381355}}},{"code":"07","country_code":"CI","state_code":"","name":"Lacs (R\u00e9gion des)","geo":{"center":{"lat":6.8924144,"lng":-5.2266675},"min":{"lat":6.8924144,"lng":-5.2266675},"max":{"lat":6.8924144,"lng":-5.2266675}}},{"code":"08","country_code":"CI","state_code":"","name":"Zanzan (R\u00e9gion du)","geo":{"center":{"lat":8.8207904,"lng":-3.4195527},"min":{"lat":8.8207904,"lng":-3.4195527},"max":{"lat":8.8207904,"lng":-3.4195527}}},{"code":"09","country_code":"CI","state_code":"","name":"Bas-Sassandra (R\u00e9gion du)","geo":{"center":{"lat":5.7841299,"lng":-6.5957329},"min":{"lat":5.7841299,"lng":-6.5957329},"max":{"lat":5.7841299,"lng":-6.5957329}}},{"code":10,"country_code":"CI","state_code":"","name":"Dengu\u00e9l\u00e9 (R\u00e9gion du)","geo":{"center":{"lat":9.4662372,"lng":-7.4381355},"min":{"lat":9.4662372,"lng":-7.4381355},"max":{"lat":9.4662372,"lng":-7.4381355}}},{"code":11,"country_code":"CI","state_code":"","name":"Nzi-Como\u00e9 (R\u00e9gion)","geo":{"center":{"lat":7.2456749,"lng":-4.2333355},"min":{"lat":7.2456749,"lng":-4.2333355},"max":{"lat":7.2456749,"lng":-4.2333355}}},{"code":12,"country_code":"CI","state_code":"","name":"Marahou\u00e9 (R\u00e9gion de la)","geo":{"center":{"lat":6.8846207,"lng":-5.8987139},"min":{"lat":6.8846207,"lng":-5.8987139},"max":{"lat":6.8846207,"lng":-5.8987139}}},{"code":13,"country_code":"CI","state_code":"","name":"Sud-Como\u00e9 (R\u00e9gion du)","geo":{"center":{"lat":5.552793,"lng":-3.2583626},"min":{"lat":5.552793,"lng":-3.2583626},"max":{"lat":5.552793,"lng":-3.2583626}}},{"code":14,"country_code":"CI","state_code":"","name":"Worodougou (R\u00e9gion du)","geo":{"center":{"lat":8.2548962,"lng":-6.5783387},"min":{"lat":8.2548962,"lng":-6.5783387},"max":{"lat":8.2548962,"lng":-6.5783387}}},{"code":15,"country_code":"CI","state_code":"","name":"Sud-Bandama (R\u00e9gion du)","geo":{"center":{"lat":5.5357083,"lng":-5.5617279},"min":{"lat":5.5357083,"lng":-5.5617279},"max":{"lat":5.5357083,"lng":-5.5617279}}},{"code":16,"country_code":"CI","state_code":"","name":"Agn\u00e9bi (R\u00e9gion de l')","geo":{"center":{"lat":null,"lng":null},"min":{"lat":null,"lng":null},"max":{"lat":null,"lng":null}}},{"code":17,"country_code":"CI","state_code":"","name":"Bafing (R\u00e9gion du)","geo":{"center":{"lat":8.3252047,"lng":-7.5247243},"min":{"lat":8.3252047,"lng":-7.5247243},"max":{"lat":8.3252047,"lng":-7.5247243}}},{"code":18,"country_code":"CI","state_code":"","name":"Fromager (R\u00e9gion du)","geo":{"center":{"lat":6.2903418,"lng":-5.8142885},"min":{"lat":6.2903418,"lng":-5.8142885},"max":{"lat":6.2903418,"lng":-5.8142885}}},{"code":19,"country_code":"CI","state_code":"","name":"Moyen-Cavally (R\u00e9gion du)","geo":{"center":{"lat":6.5208793,"lng":-7.6114217},"min":{"lat":6.5208793,"lng":-7.6114217},"max":{"lat":6.5208793,"lng":-7.6114217}}}]