[{"code":"A","country_code":"CR","state_code":"","name":"Alajuela","geo":{"center":{"lat":10.391583,"lng":-84.4382721},"min":{"lat":10.391583,"lng":-84.4382721},"max":{"lat":10.391583,"lng":-84.4382721}}},{"code":"C","country_code":"CR","state_code":"","name":"Cartago","geo":{"center":{"lat":9.7539596,"lng":-83.6773928},"min":{"lat":9.7539596,"lng":-83.6773928},"max":{"lat":9.7539596,"lng":-83.6773928}}},{"code":"G","country_code":"CR","state_code":"","name":"Guanacaste","geo":{"center":{"lat":10.4957971,"lng":-85.354965},"min":{"lat":10.4957971,"lng":-85.354965},"max":{"lat":10.4957971,"lng":-85.354965}}},{"code":"H","country_code":"CR","state_code":"","name":"Heredia","geo":{"center":{"lat":10.473523,"lng":-84.0167423},"min":{"lat":10.473523,"lng":-84.0167423},"max":{"lat":10.473523,"lng":-84.0167423}}},{"code":"L","country_code":"CR","state_code":"","name":"Lim\u00f3n","geo":{"center":{"lat":9.983333,"lng":-83.033333},"min":{"lat":9.983333,"lng":-83.033333},"max":{"lat":9.983333,"lng":-83.033333}}},{"code":"P","country_code":"CR","state_code":"","name":"Puntarenas","geo":{"center":{"lat":9.9778439,"lng":-84.8294211},"min":{"lat":9.9778439,"lng":-84.8294211},"max":{"lat":9.9778439,"lng":-84.8294211}}},{"code":"SJ","country_code":"CR","state_code":"","name":"San Jos\u00e9","geo":{"center":{"lat":9.9280694,"lng":-84.0907246},"min":{"lat":9.9280694,"lng":-84.0907246},"max":{"lat":9.9280694,"lng":-84.0907246}}}]