[{"code":"JC","country_code":"CZ","state_code":"","name":"Jiho\u010desk\u00fd kraj","geo":{"center":{"lat":48.9457789,"lng":14.4416055},"min":{"lat":48.9457789,"lng":14.4416055},"max":{"lat":48.9457789,"lng":14.4416055}}},{"code":"JM","country_code":"CZ","state_code":"","name":"Jihomoravsk\u00fd kraj ","geo":{"center":{"lat":48.9544528,"lng":16.7676899},"min":{"lat":48.9544528,"lng":16.7676899},"max":{"lat":48.9544528,"lng":16.7676899}}},{"code":"KA","country_code":"CZ","state_code":"","name":"Karlovarsk\u00fd kraj","geo":{"center":{"lat":50.1435,"lng":12.7501899},"min":{"lat":50.1435,"lng":12.7501899},"max":{"lat":50.1435,"lng":12.7501899}}},{"code":"KR","country_code":"CZ","state_code":"","name":"Kr\u00e1lov\u00e9hradeck\u00fd kraj","geo":{"center":{"lat":50.3512484,"lng":15.7976459},"min":{"lat":50.3512484,"lng":15.7976459},"max":{"lat":50.3512484,"lng":15.7976459}}},{"code":"LI","country_code":"CZ","state_code":"","name":"Libereck\u00fd kraj","geo":{"center":{"lat":50.659424,"lng":14.7632424},"min":{"lat":50.659424,"lng":14.7632424},"max":{"lat":50.659424,"lng":14.7632424}}},{"code":"MO","country_code":"CZ","state_code":"","name":"Moravskoslezsk\u00fd kraj","geo":{"center":{"lat":49.7305327,"lng":18.2332637},"min":{"lat":49.7305327,"lng":18.2332637},"max":{"lat":49.7305327,"lng":18.2332637}}},{"code":"OL","country_code":"CZ","state_code":"","name":"Olomouck\u00fd kraj","geo":{"center":{"lat":49.6586549,"lng":17.0811406},"min":{"lat":49.6586549,"lng":17.0811406},"max":{"lat":49.6586549,"lng":17.0811406}}},{"code":"PA","country_code":"CZ","state_code":"","name":"Pardubick\u00fd kraj","geo":{"center":{"lat":49.9444479,"lng":16.2856916},"min":{"lat":49.9444479,"lng":16.2856916},"max":{"lat":49.9444479,"lng":16.2856916}}},{"code":"PL","country_code":"CZ","state_code":"","name":"Plze\u0148sk\u00fd kraj","geo":{"center":{"lat":49.4134812,"lng":13.3157246},"min":{"lat":49.4134812,"lng":13.3157246},"max":{"lat":49.4134812,"lng":13.3157246}}},{"code":"PR","country_code":"CZ","state_code":"","name":"Praha, hlavn\u00ed m\u011bsto","geo":{"center":{"lat":50.0755381,"lng":14.4378005},"min":{"lat":50.0755381,"lng":14.4378005},"max":{"lat":50.0755381,"lng":14.4378005}}},{"code":"ST","country_code":"CZ","state_code":"","name":"St\u0159edo\u010desk\u00fd kraj","geo":{"center":{"lat":49.8782223,"lng":14.9362955},"min":{"lat":49.8782223,"lng":14.9362955},"max":{"lat":49.8782223,"lng":14.9362955}}},{"code":"US","country_code":"CZ","state_code":"","name":"\u00dasteck\u00fd kraj","geo":{"center":{"lat":50.6119037,"lng":13.7870086},"min":{"lat":50.6119037,"lng":13.7870086},"max":{"lat":50.6119037,"lng":13.7870086}}},{"code":"VY","country_code":"CZ","state_code":"","name":"Vyso\u010dina","geo":{"center":{"lat":49.4490052,"lng":15.6405934},"min":{"lat":49.4490052,"lng":15.6405934},"max":{"lat":49.4490052,"lng":15.6405934}}},{"code":"ZL","country_code":"CZ","state_code":"","name":"Zl\u00ednsk\u00fd kraj","geo":{"center":{"lat":49.2162296,"lng":17.7720353},"min":{"lat":49.2162296,"lng":17.7720353},"max":{"lat":49.2162296,"lng":17.7720353}}}]