[{"code":"BB","country_code":"DE","state_code":"","name":"Brandenburg","geo":{"center":{"lat":52.4125287,"lng":12.5316444},"min":{"lat":52.4125287,"lng":12.5316444},"max":{"lat":52.4125287,"lng":12.5316444}}},{"code":"BE","country_code":"DE","state_code":"","name":"Berlin","geo":{"center":{"lat":52.5200066,"lng":13.404954},"min":{"lat":52.5200066,"lng":13.404954},"max":{"lat":52.5200066,"lng":13.404954}}},{"code":"BW","country_code":"DE","state_code":"","name":"Baden-W\u00fcrttemberg","geo":{"center":{"lat":48.6616037,"lng":9.3501336},"min":{"lat":48.6616037,"lng":9.3501336},"max":{"lat":48.6616037,"lng":9.3501336}}},{"code":"BY","country_code":"DE","state_code":"","name":"Bayern","geo":{"center":{"lat":48.7904472,"lng":11.4978895},"min":{"lat":48.7904472,"lng":11.4978895},"max":{"lat":48.7904472,"lng":11.4978895}}},{"code":"HB","country_code":"DE","state_code":"","name":"Bremen","geo":{"center":{"lat":53.0792962,"lng":8.8016937},"min":{"lat":53.0792962,"lng":8.8016937},"max":{"lat":53.0792962,"lng":8.8016937}}},{"code":"HE","country_code":"DE","state_code":"","name":"Hessen","geo":{"center":{"lat":50.6520515,"lng":9.1624376},"min":{"lat":50.6520515,"lng":9.1624376},"max":{"lat":50.6520515,"lng":9.1624376}}},{"code":"HH","country_code":"DE","state_code":"","name":"Hamburg","geo":{"center":{"lat":53.5510846,"lng":9.9936818},"min":{"lat":53.5510846,"lng":9.9936818},"max":{"lat":53.5510846,"lng":9.9936818}}},{"code":"MV","country_code":"DE","state_code":"","name":"Mecklenburg-Vorpommern","geo":{"center":{"lat":53.6126505,"lng":12.4295953},"min":{"lat":53.6126505,"lng":12.4295953},"max":{"lat":53.6126505,"lng":12.4295953}}},{"code":"NI","country_code":"DE","state_code":"","name":"Niedersachsen","geo":{"center":{"lat":52.6367036,"lng":9.8450765},"min":{"lat":52.6367036,"lng":9.8450765},"max":{"lat":52.6367036,"lng":9.8450765}}},{"code":"NW","country_code":"DE","state_code":"","name":"Nordrhein-Westfalen","geo":{"center":{"lat":51.4332367,"lng":7.6615938},"min":{"lat":51.4332367,"lng":7.6615938},"max":{"lat":51.4332367,"lng":7.6615938}}},{"code":"RP","country_code":"DE","state_code":"","name":"Rheinland-Pfalz","geo":{"center":{"lat":50.118346,"lng":7.3089527},"min":{"lat":50.118346,"lng":7.3089527},"max":{"lat":50.118346,"lng":7.3089527}}},{"code":"SH","country_code":"DE","state_code":"","name":"Schleswig-Holstein","geo":{"center":{"lat":54.2193672,"lng":9.6961167},"min":{"lat":54.2193672,"lng":9.6961167},"max":{"lat":54.2193672,"lng":9.6961167}}},{"code":"SL","country_code":"DE","state_code":"","name":"Saarland","geo":{"center":{"lat":49.3964234,"lng":7.0229607},"min":{"lat":49.3964234,"lng":7.0229607},"max":{"lat":49.3964234,"lng":7.0229607}}},{"code":"SN","country_code":"DE","state_code":"","name":"Sachsen","geo":{"center":{"lat":51.1045407,"lng":13.2017384},"min":{"lat":51.1045407,"lng":13.2017384},"max":{"lat":51.1045407,"lng":13.2017384}}},{"code":"ST","country_code":"DE","state_code":"","name":"Sachsen-Anhalt","geo":{"center":{"lat":51.9502649,"lng":11.6922735},"min":{"lat":51.9502649,"lng":11.6922735},"max":{"lat":51.9502649,"lng":11.6922735}}},{"code":"TH","country_code":"DE","state_code":"","name":"Th\u00fcringen","geo":{"center":{"lat":51.0109892,"lng":10.845346},"min":{"lat":51.0109892,"lng":10.845346},"max":{"lat":51.0109892,"lng":10.845346}}}]