[{"code":"02","country_code":"DM","state_code":"","name":"Saint Andrew","geo":{"center":{"lat":15.5542442,"lng":-61.3501856},"min":{"lat":15.5542442,"lng":-61.3501856},"max":{"lat":15.5542442,"lng":-61.3501856}}},{"code":"03","country_code":"DM","state_code":"","name":"Saint David","geo":{"center":{"lat":15.4081998,"lng":-61.2918618},"min":{"lat":15.4081998,"lng":-61.2918618},"max":{"lat":15.4081998,"lng":-61.2918618}}},{"code":"04","country_code":"DM","state_code":"","name":"Saint George","geo":{"center":{"lat":15.3087847,"lng":-61.3385191},"min":{"lat":15.3087847,"lng":-61.3385191},"max":{"lat":15.3087847,"lng":-61.3385191}}},{"code":"05","country_code":"DM","state_code":"","name":"Saint John","geo":{"center":{"lat":15.5763757,"lng":-61.4318742},"min":{"lat":15.5763757,"lng":-61.4318742},"max":{"lat":15.5763757,"lng":-61.4318742}}},{"code":"06","country_code":"DM","state_code":"","name":"Saint Joseph","geo":{"center":{"lat":15.4335083,"lng":-61.3968598},"min":{"lat":15.4335083,"lng":-61.3968598},"max":{"lat":15.4335083,"lng":-61.3968598}}},{"code":"07","country_code":"DM","state_code":"","name":"Saint Luke","geo":{"center":{"lat":15.254587,"lng":-61.3676868},"min":{"lat":15.254587,"lng":-61.3676868},"max":{"lat":15.254587,"lng":-61.3676868}}},{"code":"08","country_code":"DM","state_code":"","name":"Saint Mark","geo":{"center":{"lat":15.2195922,"lng":-61.3443522},"min":{"lat":15.2195922,"lng":-61.3443522},"max":{"lat":15.2195922,"lng":-61.3443522}}},{"code":"09","country_code":"DM","state_code":"","name":"Saint Patrick","geo":{"center":{"lat":15.2811117,"lng":-61.2918618},"min":{"lat":15.2811117,"lng":-61.2918618},"max":{"lat":15.2811117,"lng":-61.2918618}}},{"code":10,"country_code":"DM","state_code":"","name":"Saint Paul","geo":{"center":{"lat":15.3756073,"lng":-61.3618529},"min":{"lat":15.3756073,"lng":-61.3618529},"max":{"lat":15.3756073,"lng":-61.3618529}}},{"code":11,"country_code":"DM","state_code":"","name":"Saint Peter","geo":{"center":{"lat":15.5098288,"lng":-61.4493842},"min":{"lat":15.5098288,"lng":-61.4493842},"max":{"lat":15.5098288,"lng":-61.4493842}}}]