[{"code":"01","country_code":"DZ","state_code":"","name":"Adrar","geo":{"center":{"lat":27.866667,"lng":-0.283333},"min":{"lat":27.866667,"lng":-0.283333},"max":{"lat":27.866667,"lng":-0.283333}}},{"code":"02","country_code":"DZ","state_code":"","name":"Chlef","geo":{"center":{"lat":36.166667,"lng":1.333333},"min":{"lat":36.166667,"lng":1.333333},"max":{"lat":36.166667,"lng":1.333333}}},{"code":"03","country_code":"DZ","state_code":"","name":"Laghouat","geo":{"center":{"lat":33.7972551,"lng":2.8694065},"min":{"lat":33.7972551,"lng":2.8694065},"max":{"lat":33.7972551,"lng":2.8694065}}},{"code":"04","country_code":"DZ","state_code":"","name":"Oum el Bouaghi","geo":{"center":{"lat":35.7881449,"lng":7.179026},"min":{"lat":35.7881449,"lng":7.179026},"max":{"lat":35.7881449,"lng":7.179026}}},{"code":"05","country_code":"DZ","state_code":"","name":"Batna","geo":{"center":{"lat":35.55,"lng":6.166667},"min":{"lat":35.55,"lng":6.166667},"max":{"lat":35.55,"lng":6.166667}}},{"code":"06","country_code":"DZ","state_code":"","name":"B\u00e9ja\u00efa","geo":{"center":{"lat":36.7508896,"lng":5.0567333},"min":{"lat":36.7508896,"lng":5.0567333},"max":{"lat":36.7508896,"lng":5.0567333}}},{"code":"07","country_code":"DZ","state_code":"","name":"Biskra","geo":{"center":{"lat":34.85,"lng":5.733333},"min":{"lat":34.85,"lng":5.733333},"max":{"lat":34.85,"lng":5.733333}}},{"code":"08","country_code":"DZ","state_code":"","name":"B\u00e9char","geo":{"center":{"lat":31.6182492,"lng":-2.2143231},"min":{"lat":31.6182492,"lng":-2.2143231},"max":{"lat":31.6182492,"lng":-2.2143231}}},{"code":"09","country_code":"DZ","state_code":"","name":"Blida","geo":{"center":{"lat":36.4798683,"lng":2.8005677},"min":{"lat":36.4798683,"lng":2.8005677},"max":{"lat":36.4798683,"lng":2.8005677}}},{"code":10,"country_code":"DZ","state_code":"","name":"Bouira","geo":{"center":{"lat":36.2835299,"lng":3.9878427},"min":{"lat":36.2835299,"lng":3.9878427},"max":{"lat":36.2835299,"lng":3.9878427}}},{"code":11,"country_code":"DZ","state_code":"","name":"Tamanghasset","geo":{"center":{"lat":22.785,"lng":5.522778},"min":{"lat":22.785,"lng":5.522778},"max":{"lat":22.785,"lng":5.522778}}},{"code":12,"country_code":"DZ","state_code":"","name":"T\u00e9bessa","geo":{"center":{"lat":35.4,"lng":8.116667},"min":{"lat":35.4,"lng":8.116667},"max":{"lat":35.4,"lng":8.116667}}},{"code":13,"country_code":"DZ","state_code":"","name":"Tlemcen","geo":{"center":{"lat":34.882776,"lng":-1.31667},"min":{"lat":34.882776,"lng":-1.31667},"max":{"lat":34.882776,"lng":-1.31667}}},{"code":14,"country_code":"DZ","state_code":"","name":"Tiaret","geo":{"center":{"lat":35.3673553,"lng":1.3220322},"min":{"lat":35.3673553,"lng":1.3220322},"max":{"lat":35.3673553,"lng":1.3220322}}},{"code":15,"country_code":"DZ","state_code":"","name":"Tizi Ouzou","geo":{"center":{"lat":36.716667,"lng":4.05},"min":{"lat":36.716667,"lng":4.05},"max":{"lat":36.716667,"lng":4.05}}},{"code":16,"country_code":"DZ","state_code":"","name":"Alger","geo":{"center":{"lat":36.752887,"lng":3.042048},"min":{"lat":36.752887,"lng":3.042048},"max":{"lat":36.752887,"lng":3.042048}}},{"code":17,"country_code":"DZ","state_code":"","name":"Djelfa","geo":{"center":{"lat":34.666667,"lng":3.25},"min":{"lat":34.666667,"lng":3.25},"max":{"lat":34.666667,"lng":3.25}}},{"code":18,"country_code":"DZ","state_code":"","name":"Jijel","geo":{"center":{"lat":36.8167387,"lng":5.7490933},"min":{"lat":36.8167387,"lng":5.7490933},"max":{"lat":36.8167387,"lng":5.7490933}}},{"code":19,"country_code":"DZ","state_code":"","name":"S\u00e9tif","geo":{"center":{"lat":36.1969027,"lng":5.4150871},"min":{"lat":36.1969027,"lng":5.4150871},"max":{"lat":36.1969027,"lng":5.4150871}}},{"code":20,"country_code":"DZ","state_code":"","name":"Sa\u00efda","geo":{"center":{"lat":34.8412014,"lng":0.1484305},"min":{"lat":34.8412014,"lng":0.1484305},"max":{"lat":34.8412014,"lng":0.1484305}}},{"code":21,"country_code":"DZ","state_code":"","name":"Skikda","geo":{"center":{"lat":36.866667,"lng":6.9},"min":{"lat":36.866667,"lng":6.9},"max":{"lat":36.866667,"lng":6.9}}},{"code":22,"country_code":"DZ","state_code":"","name":"Sidi Bel Abb\u00e8s","geo":{"center":{"lat":35.2,"lng":-0.641389},"min":{"lat":35.2,"lng":-0.641389},"max":{"lat":35.2,"lng":-0.641389}}},{"code":23,"country_code":"DZ","state_code":"","name":"Annaba","geo":{"center":{"lat":36.9,"lng":7.766667},"min":{"lat":36.9,"lng":7.766667},"max":{"lat":36.9,"lng":7.766667}}},{"code":24,"country_code":"DZ","state_code":"","name":"Guelma","geo":{"center":{"lat":36.45,"lng":7.433333},"min":{"lat":36.45,"lng":7.433333},"max":{"lat":36.45,"lng":7.433333}}},{"code":25,"country_code":"DZ","state_code":"","name":"Constantine","geo":{"center":{"lat":36.35,"lng":6.6},"min":{"lat":36.35,"lng":6.6},"max":{"lat":36.35,"lng":6.6}}},{"code":26,"country_code":"DZ","state_code":"","name":"M\u00e9d\u00e9a","geo":{"center":{"lat":36.266667,"lng":2.75},"min":{"lat":36.266667,"lng":2.75},"max":{"lat":36.266667,"lng":2.75}}},{"code":27,"country_code":"DZ","state_code":"","name":"Mostaganem","geo":{"center":{"lat":35.933333,"lng":0.083333},"min":{"lat":35.933333,"lng":0.083333},"max":{"lat":35.933333,"lng":0.083333}}},{"code":28,"country_code":"DZ","state_code":"","name":"Msila","geo":{"center":{"lat":35.701944,"lng":4.547222},"min":{"lat":35.701944,"lng":4.547222},"max":{"lat":35.701944,"lng":4.547222}}},{"code":29,"country_code":"DZ","state_code":"","name":"Mascara","geo":{"center":{"lat":35.3904125,"lng":0.1494988},"min":{"lat":35.3904125,"lng":0.1494988},"max":{"lat":35.3904125,"lng":0.1494988}}},{"code":30,"country_code":"DZ","state_code":"","name":"Ouargla","geo":{"center":{"lat":31.95,"lng":5.316667},"min":{"lat":31.95,"lng":5.316667},"max":{"lat":31.95,"lng":5.316667}}},{"code":31,"country_code":"DZ","state_code":"","name":"Oran","geo":{"center":{"lat":35.6976541,"lng":-0.6337376},"min":{"lat":35.6976541,"lng":-0.6337376},"max":{"lat":35.6976541,"lng":-0.6337376}}},{"code":32,"country_code":"DZ","state_code":"","name":"El Bayadh","geo":{"center":{"lat":33.680278,"lng":1.020278},"min":{"lat":33.680278,"lng":1.020278},"max":{"lat":33.680278,"lng":1.020278}}},{"code":33,"country_code":"DZ","state_code":"","name":"Illizi","geo":{"center":{"lat":26.1690005,"lng":8.4842465},"min":{"lat":26.1690005,"lng":8.4842465},"max":{"lat":26.1690005,"lng":8.4842465}}},{"code":34,"country_code":"DZ","state_code":"","name":"Bordj Bou Arr\u00e9ridj","geo":{"center":{"lat":36.0704188,"lng":4.7564046},"min":{"lat":36.0704188,"lng":4.7564046},"max":{"lat":36.0704188,"lng":4.7564046}}},{"code":35,"country_code":"DZ","state_code":"","name":"Boumerd\u00e8s","geo":{"center":{"lat":36.7675962,"lng":3.7029002},"min":{"lat":36.7675962,"lng":3.7029002},"max":{"lat":36.7675962,"lng":3.7029002}}},{"code":36,"country_code":"DZ","state_code":"","name":"El Tarf","geo":{"center":{"lat":36.7558581,"lng":8.2212979},"min":{"lat":36.7558581,"lng":8.2212979},"max":{"lat":36.7558581,"lng":8.2212979}}},{"code":37,"country_code":"DZ","state_code":"","name":"Tindouf","geo":{"center":{"lat":27.6761012,"lng":-8.1276526},"min":{"lat":27.6761012,"lng":-8.1276526},"max":{"lat":27.6761012,"lng":-8.1276526}}},{"code":38,"country_code":"DZ","state_code":"","name":"Tissemsilt","geo":{"center":{"lat":35.607778,"lng":1.811111},"min":{"lat":35.607778,"lng":1.811111},"max":{"lat":35.607778,"lng":1.811111}}},{"code":39,"country_code":"DZ","state_code":"","name":"El Oued","geo":{"center":{"lat":33.3713397,"lng":6.8479682},"min":{"lat":33.3713397,"lng":6.8479682},"max":{"lat":33.3713397,"lng":6.8479682}}},{"code":40,"country_code":"DZ","state_code":"","name":"Khenchela","geo":{"center":{"lat":35.416667,"lng":7.133333},"min":{"lat":35.416667,"lng":7.133333},"max":{"lat":35.416667,"lng":7.133333}}},{"code":41,"country_code":"DZ","state_code":"","name":"Souk Ahras","geo":{"center":{"lat":36.286389,"lng":7.951111},"min":{"lat":36.286389,"lng":7.951111},"max":{"lat":36.286389,"lng":7.951111}}},{"code":42,"country_code":"DZ","state_code":"","name":"Tipaza","geo":{"center":{"lat":36.6178786,"lng":2.3912362},"min":{"lat":36.6178786,"lng":2.3912362},"max":{"lat":36.6178786,"lng":2.3912362}}},{"code":43,"country_code":"DZ","state_code":"","name":"Mila","geo":{"center":{"lat":36.450278,"lng":6.264444},"min":{"lat":36.450278,"lng":6.264444},"max":{"lat":36.450278,"lng":6.264444}}},{"code":44,"country_code":"DZ","state_code":"","name":"A\u00efn Defla","geo":{"center":{"lat":36.0729193,"lng":1.9881527},"min":{"lat":36.0729193,"lng":1.9881527},"max":{"lat":36.0729193,"lng":1.9881527}}},{"code":45,"country_code":"DZ","state_code":"","name":"Naama","geo":{"center":{"lat":33.4350615,"lng":-0.9056623},"min":{"lat":33.4350615,"lng":-0.9056623},"max":{"lat":33.4350615,"lng":-0.9056623}}},{"code":46,"country_code":"DZ","state_code":"","name":"A\u00efn T\u00e9mouchent","geo":{"center":{"lat":35.3072501,"lng":-1.1424514},"min":{"lat":35.3072501,"lng":-1.1424514},"max":{"lat":35.3072501,"lng":-1.1424514}}},{"code":47,"country_code":"DZ","state_code":"","name":"Gharda\u00efa","geo":{"center":{"lat":32.4902246,"lng":3.6738412},"min":{"lat":32.4902246,"lng":3.6738412},"max":{"lat":32.4902246,"lng":3.6738412}}},{"code":48,"country_code":"DZ","state_code":"","name":"Relizane","geo":{"center":{"lat":35.733333,"lng":0.55},"min":{"lat":35.733333,"lng":0.55},"max":{"lat":35.733333,"lng":0.55}}}]