[{"code":"AN","country_code":"ER","state_code":"","name":"Anseba","geo":{"center":{"lat":16.4745531,"lng":37.8087693},"min":{"lat":16.4745531,"lng":37.8087693},"max":{"lat":16.4745531,"lng":37.8087693}}},{"code":"DK","country_code":"ER","state_code":"","name":"Debubawi Keyih Bahri [Debub-Keih-Bahri]","geo":{"center":{"lat":13.5137103,"lng":41.7606472},"min":{"lat":13.5137103,"lng":41.7606472},"max":{"lat":13.5137103,"lng":41.7606472}}},{"code":"DU","country_code":"ER","state_code":"","name":"Debub","geo":{"center":{"lat":14.9478692,"lng":39.1543677},"min":{"lat":14.9478692,"lng":39.1543677},"max":{"lat":14.9478692,"lng":39.1543677}}},{"code":"GB","country_code":"ER","state_code":"","name":"Gash-Barka","geo":{"center":{"lat":15.4068825,"lng":37.6386622},"min":{"lat":15.4068825,"lng":37.6386622},"max":{"lat":15.4068825,"lng":37.6386622}}},{"code":"MA","country_code":"ER","state_code":"","name":"Maakel [Maekel]","geo":{"center":{"lat":15.3551409,"lng":38.8623683},"min":{"lat":15.3551409,"lng":38.8623683},"max":{"lat":15.3551409,"lng":38.8623683}}},{"code":"SK","country_code":"ER","state_code":"","name":"Semenawi Keyih Bahri [Semien-Keih-Bahri]","geo":{"center":{"lat":16.2583997,"lng":38.8205454},"min":{"lat":16.2583997,"lng":38.8205454},"max":{"lat":16.2583997,"lng":38.8205454}}}]