[{"code":"AA","country_code":"ET","state_code":"","name":"Adis Abeba","geo":{"center":{"lat":8.9806034,"lng":38.7577605},"min":{"lat":8.9806034,"lng":38.7577605},"max":{"lat":8.9806034,"lng":38.7577605}}},{"code":"AF","country_code":"ET","state_code":"","name":"Afar","geo":{"center":{"lat":11.7559388,"lng":40.958688},"min":{"lat":11.7559388,"lng":40.958688},"max":{"lat":11.7559388,"lng":40.958688}}},{"code":"AM","country_code":"ET","state_code":"","name":"Amara","geo":{"center":{"lat":11.3494247,"lng":37.9784585},"min":{"lat":11.3494247,"lng":37.9784585},"max":{"lat":11.3494247,"lng":37.9784585}}},{"code":"BE","country_code":"ET","state_code":"","name":"Binshangul Gumuz","geo":{"center":{"lat":10.7802889,"lng":35.5657862},"min":{"lat":10.7802889,"lng":35.5657862},"max":{"lat":10.7802889,"lng":35.5657862}}},{"code":"DD","country_code":"ET","state_code":"","name":"Dire Dawa","geo":{"center":{"lat":9.6008747,"lng":41.850142},"min":{"lat":9.6008747,"lng":41.850142},"max":{"lat":9.6008747,"lng":41.850142}}},{"code":"GA","country_code":"ET","state_code":"","name":"Gambela Hizboch","geo":{"center":{"lat":7.9219687,"lng":34.1531947},"min":{"lat":7.9219687,"lng":34.1531947},"max":{"lat":7.9219687,"lng":34.1531947}}},{"code":"HA","country_code":"ET","state_code":"","name":"Hareri Hizb","geo":{"center":{"lat":9.314866,"lng":42.1967716},"min":{"lat":9.314866,"lng":42.1967716},"max":{"lat":9.314866,"lng":42.1967716}}},{"code":"OR","country_code":"ET","state_code":"","name":"Oromiya","geo":{"center":{"lat":7.5460377,"lng":40.6346851},"min":{"lat":7.5460377,"lng":40.6346851},"max":{"lat":7.5460377,"lng":40.6346851}}},{"code":"SN","country_code":"ET","state_code":"","name":"YeDebub Biheroch Bihereseboch na Hizboch","geo":{"center":{"lat":6.5156911,"lng":36.954107},"min":{"lat":6.5156911,"lng":36.954107},"max":{"lat":6.5156911,"lng":36.954107}}},{"code":"SO","country_code":"ET","state_code":"","name":"Sumale","geo":{"center":{"lat":6.6612293,"lng":43.7908453},"min":{"lat":6.6612293,"lng":43.7908453},"max":{"lat":6.6612293,"lng":43.7908453}}},{"code":"TI","country_code":"ET","state_code":"","name":"Tigray","geo":{"center":{"lat":14.0323336,"lng":38.3165725},"min":{"lat":14.0323336,"lng":38.3165725},"max":{"lat":14.0323336,"lng":38.3165725}}}]