[{"code":"C","country_code":"IE","state_code":"","name":"Cork","geo":{"center":{"lat":51.8968917,"lng":-8.4863157},"min":{"lat":51.8968917,"lng":-8.4863157},"max":{"lat":51.8968917,"lng":-8.4863157}}},{"code":"CE","country_code":"IE","state_code":"","name":"Clare","geo":{"center":{"lat":52.8624528,"lng":-9.0471645},"min":{"lat":52.8624528,"lng":-9.0471645},"max":{"lat":52.8624528,"lng":-9.0471645}}},{"code":"CN","country_code":"IE","state_code":"","name":"Cavan","geo":{"center":{"lat":53.9897186,"lng":-7.3633319},"min":{"lat":53.9897186,"lng":-7.3633319},"max":{"lat":53.9897186,"lng":-7.3633319}}},{"code":"CW","country_code":"IE","state_code":"","name":"Carlow","geo":{"center":{"lat":52.7189747,"lng":-6.8503703},"min":{"lat":52.7189747,"lng":-6.8503703},"max":{"lat":52.7189747,"lng":-6.8503703}}},{"code":"D","country_code":"IE","state_code":"","name":"Dublin","geo":{"center":{"lat":53.3498053,"lng":-6.2603097},"min":{"lat":53.3498053,"lng":-6.2603097},"max":{"lat":53.3498053,"lng":-6.2603097}}},{"code":"DL","country_code":"IE","state_code":"","name":"Donegal","geo":{"center":{"lat":54.6541972,"lng":-8.110546},"min":{"lat":54.6541972,"lng":-8.110546},"max":{"lat":54.6541972,"lng":-8.110546}}},{"code":"G","country_code":"IE","state_code":"","name":"Galway","geo":{"center":{"lat":53.270668,"lng":-9.0567905},"min":{"lat":53.270668,"lng":-9.0567905},"max":{"lat":53.270668,"lng":-9.0567905}}},{"code":"KE","country_code":"IE","state_code":"","name":"Kildare","geo":{"center":{"lat":53.1589342,"lng":-6.9095683},"min":{"lat":53.1589342,"lng":-6.9095683},"max":{"lat":53.1589342,"lng":-6.9095683}}},{"code":"KK","country_code":"IE","state_code":"","name":"Kilkenny","geo":{"center":{"lat":52.6541454,"lng":-7.2447879},"min":{"lat":52.6541454,"lng":-7.2447879},"max":{"lat":52.6541454,"lng":-7.2447879}}},{"code":"KY","country_code":"IE","state_code":"","name":"Kerry","geo":{"center":{"lat":52.1544607,"lng":-9.5668632},"min":{"lat":52.1544607,"lng":-9.5668632},"max":{"lat":52.1544607,"lng":-9.5668632}}},{"code":"LD","country_code":"IE","state_code":"","name":"Longford","geo":{"center":{"lat":53.7275564,"lng":-7.793109},"min":{"lat":53.7275564,"lng":-7.793109},"max":{"lat":53.7275564,"lng":-7.793109}}},{"code":"LH","country_code":"IE","state_code":"","name":"Louth","geo":{"center":{"lat":53.8969758,"lng":-6.4670971},"min":{"lat":53.8969758,"lng":-6.4670971},"max":{"lat":53.8969758,"lng":-6.4670971}}},{"code":"LK","country_code":"IE","state_code":"","name":"Limerick","geo":{"center":{"lat":52.6680204,"lng":-8.6304975},"min":{"lat":52.6680204,"lng":-8.6304975},"max":{"lat":52.6680204,"lng":-8.6304975}}},{"code":"LM","country_code":"IE","state_code":"","name":"Leitrim","geo":{"center":{"lat":53.9926007,"lng":-8.0655852},"min":{"lat":53.9926007,"lng":-8.0655852},"max":{"lat":53.9926007,"lng":-8.0655852}}},{"code":"LS","country_code":"IE","state_code":"","name":"Laois","geo":{"center":{"lat":52.994295,"lng":-7.3323007},"min":{"lat":52.994295,"lng":-7.3323007},"max":{"lat":52.994295,"lng":-7.3323007}}},{"code":"MH","country_code":"IE","state_code":"","name":"Meath","geo":{"center":{"lat":53.605548,"lng":-6.6564169},"min":{"lat":53.605548,"lng":-6.6564169},"max":{"lat":53.605548,"lng":-6.6564169}}},{"code":"MN","country_code":"IE","state_code":"","name":"Monaghan","geo":{"center":{"lat":54.2492046,"lng":-6.9683132},"min":{"lat":54.2492046,"lng":-6.9683132},"max":{"lat":54.2492046,"lng":-6.9683132}}},{"code":"MO","country_code":"IE","state_code":"","name":"Mayo","geo":{"center":{"lat":53.934581,"lng":-9.3516456},"min":{"lat":53.934581,"lng":-9.3516456},"max":{"lat":53.934581,"lng":-9.3516456}}},{"code":"OY","country_code":"IE","state_code":"","name":"Offaly","geo":{"center":{"lat":53.2356871,"lng":-7.7122229},"min":{"lat":53.2356871,"lng":-7.7122229},"max":{"lat":53.2356871,"lng":-7.7122229}}},{"code":"RN","country_code":"IE","state_code":"","name":"Roscommon","geo":{"center":{"lat":53.6275906,"lng":-8.1890955},"min":{"lat":53.6275906,"lng":-8.1890955},"max":{"lat":53.6275906,"lng":-8.1890955}}},{"code":"SO","country_code":"IE","state_code":"","name":"Sligo","geo":{"center":{"lat":54.2766103,"lng":-8.4760888},"min":{"lat":54.2766103,"lng":-8.4760888},"max":{"lat":54.2766103,"lng":-8.4760888}}},{"code":"TA","country_code":"IE","state_code":"","name":"Tipperary","geo":{"center":{"lat":52.4737894,"lng":-8.1618514},"min":{"lat":52.4737894,"lng":-8.1618514},"max":{"lat":52.4737894,"lng":-8.1618514}}},{"code":"WD","country_code":"IE","state_code":"","name":"Waterford","geo":{"center":{"lat":52.256667,"lng":-7.129167},"min":{"lat":52.256667,"lng":-7.129167},"max":{"lat":52.256667,"lng":-7.129167}}},{"code":"WH","country_code":"IE","state_code":"","name":"Westmeath","geo":{"center":{"lat":53.5345308,"lng":-7.4653217},"min":{"lat":53.5345308,"lng":-7.4653217},"max":{"lat":53.5345308,"lng":-7.4653217}}},{"code":"WW","country_code":"IE","state_code":"","name":"Wicklow","geo":{"center":{"lat":52.9808207,"lng":-6.044589},"min":{"lat":52.9808207,"lng":-6.044589},"max":{"lat":52.9808207,"lng":-6.044589}}},{"code":"WX","country_code":"IE","state_code":"","name":"Wexford","geo":{"center":{"lat":52.336916,"lng":-6.4633381},"min":{"lat":52.336916,"lng":-6.4633381},"max":{"lat":52.336916,"lng":-6.4633381}}}]