[{"code":"AJ","country_code":"JO","state_code":"","name":"Ajlun","geo":{"center":{"lat":32.2561926,"lng":35.6969984},"min":{"lat":32.2561926,"lng":35.6969984},"max":{"lat":32.2561926,"lng":35.6969984}}},{"code":"AM","country_code":"JO","state_code":"","name":"Amman","geo":{"center":{"lat":31.9565783,"lng":35.9456951},"min":{"lat":31.9565783,"lng":35.9456951},"max":{"lat":31.9565783,"lng":35.9456951}}},{"code":"AQ","country_code":"JO","state_code":"","name":"Aqaba","geo":{"center":{"lat":29.5319199,"lng":35.0060842},"min":{"lat":29.5319199,"lng":35.0060842},"max":{"lat":29.5319199,"lng":35.0060842}}},{"code":"AT","country_code":"JO","state_code":"","name":"At Tafilah","geo":{"center":{"lat":30.835833,"lng":35.612222},"min":{"lat":30.835833,"lng":35.612222},"max":{"lat":30.835833,"lng":35.612222}}},{"code":"AZ","country_code":"JO","state_code":"","name":"Az Zarqa'","geo":{"center":{"lat":31.7515118,"lng":36.8680791},"min":{"lat":31.7515118,"lng":36.8680791},"max":{"lat":31.7515118,"lng":36.8680791}}},{"code":"BA","country_code":"JO","state_code":"","name":"Al Balqa'","geo":{"center":{"lat":31.9676039,"lng":35.6095474},"min":{"lat":31.9676039,"lng":35.6095474},"max":{"lat":31.9676039,"lng":35.6095474}}},{"code":"IR","country_code":"JO","state_code":"","name":"Irbid","geo":{"center":{"lat":32.5454418,"lng":35.8571532},"min":{"lat":32.5454418,"lng":35.8571532},"max":{"lat":32.5454418,"lng":35.8571532}}},{"code":"JA","country_code":"JO","state_code":"","name":"Jarash","geo":{"center":{"lat":32.2769016,"lng":35.9055502},"min":{"lat":32.2769016,"lng":35.9055502},"max":{"lat":32.2769016,"lng":35.9055502}}},{"code":"KA","country_code":"JO","state_code":"","name":"Al Karak","geo":{"center":{"lat":31.1648059,"lng":35.7618824},"min":{"lat":31.1648059,"lng":35.7618824},"max":{"lat":31.1648059,"lng":35.7618824}}},{"code":"MA","country_code":"JO","state_code":"","name":"Al Mafraq","geo":{"center":{"lat":32.3616821,"lng":36.2193362},"min":{"lat":32.3616821,"lng":36.2193362},"max":{"lat":32.3616821,"lng":36.2193362}}},{"code":"MD","country_code":"JO","state_code":"","name":"Madaba","geo":{"center":{"lat":31.71954,"lng":35.794109},"min":{"lat":31.71954,"lng":35.794109},"max":{"lat":31.71954,"lng":35.794109}}},{"code":"MN","country_code":"JO","state_code":"","name":"Ma`an","geo":{"center":{"lat":30.1949577,"lng":35.7342418},"min":{"lat":30.1949577,"lng":35.7342418},"max":{"lat":30.1949577,"lng":35.7342418}}}]