[{"code":"B","country_code":"KG","state_code":"","name":"Batken","geo":{"center":{"lat":40.066667,"lng":70.833333},"min":{"lat":40.066667,"lng":70.833333},"max":{"lat":40.066667,"lng":70.833333}}},{"code":"C","country_code":"KG","state_code":"","name":"Ch\u00fc","geo":{"center":{"lat":42.5079313,"lng":75.8302566},"min":{"lat":42.5079313,"lng":75.8302566},"max":{"lat":42.5079313,"lng":75.8302566}}},{"code":"GB","country_code":"KG","state_code":"","name":"Bishkek","geo":{"center":{"lat":42.874722,"lng":74.612222},"min":{"lat":42.874722,"lng":74.612222},"max":{"lat":42.874722,"lng":74.612222}}},{"code":"J","country_code":"KG","state_code":"","name":"Jalal-Abad","geo":{"center":{"lat":40.933333,"lng":73},"min":{"lat":40.933333,"lng":73},"max":{"lat":40.933333,"lng":73}}},{"code":"N","country_code":"KG","state_code":"","name":"Naryn","geo":{"center":{"lat":41.433333,"lng":76},"min":{"lat":41.433333,"lng":76},"max":{"lat":41.433333,"lng":76}}},{"code":"O","country_code":"KG","state_code":"","name":"Osh","geo":{"center":{"lat":40.53,"lng":72.8},"min":{"lat":40.53,"lng":72.8},"max":{"lat":40.53,"lng":72.8}}},{"code":"T","country_code":"KG","state_code":"","name":"Talas","geo":{"center":{"lat":42.516667,"lng":72.233333},"min":{"lat":42.516667,"lng":72.233333},"max":{"lat":42.516667,"lng":72.233333}}},{"code":"Y","country_code":"KG","state_code":"","name":"Ysyk-K\u00f6l","geo":{"center":{"lat":42.1859428,"lng":77.5619419},"min":{"lat":42.1859428,"lng":77.5619419},"max":{"lat":42.1859428,"lng":77.5619419}}}]