[{"code":"AT","country_code":"LA","state_code":"","name":"Attapu [Attopeu]","geo":{"center":{"lat":14.8193696,"lng":106.8207875},"min":{"lat":14.8193696,"lng":106.8207875},"max":{"lat":14.8193696,"lng":106.8207875}}},{"code":"BK","country_code":"LA","state_code":"","name":"Bok\u00e8o","geo":{"center":{"lat":20.2872662,"lng":100.7097867},"min":{"lat":20.2872662,"lng":100.7097867},"max":{"lat":20.2872662,"lng":100.7097867}}},{"code":"BL","country_code":"LA","state_code":"","name":"Bolikhamxai [Borikhane]","geo":{"center":{"lat":18.4362924,"lng":104.4723301},"min":{"lat":18.4362924,"lng":104.4723301},"max":{"lat":18.4362924,"lng":104.4723301}}},{"code":"CH","country_code":"LA","state_code":"","name":"Champasak [Champassak]","geo":{"center":{"lat":14.9030362,"lng":105.8642593},"min":{"lat":14.9030362,"lng":105.8642593},"max":{"lat":14.9030362,"lng":105.8642593}}},{"code":"HO","country_code":"LA","state_code":"","name":"Houaphan","geo":{"center":{"lat":20.3254175,"lng":104.1001326},"min":{"lat":20.3254175,"lng":104.1001326},"max":{"lat":20.3254175,"lng":104.1001326}}},{"code":"KH","country_code":"LA","state_code":"","name":"Khammouan","geo":{"center":{"lat":17.6384066,"lng":105.2194808},"min":{"lat":17.6384066,"lng":105.2194808},"max":{"lat":17.6384066,"lng":105.2194808}}},{"code":"LM","country_code":"LA","state_code":"","name":"Louang Namtha","geo":{"center":{"lat":20.95,"lng":101.4},"min":{"lat":20.95,"lng":101.4},"max":{"lat":20.95,"lng":101.4}}},{"code":"LP","country_code":"LA","state_code":"","name":"Louangphabang [Louang Prabang]","geo":{"center":{"lat":19.8833959,"lng":102.1346874},"min":{"lat":19.8833959,"lng":102.1346874},"max":{"lat":19.8833959,"lng":102.1346874}}},{"code":"OU","country_code":"LA","state_code":"","name":"Oud\u00f4mxai [Oudomsai]","geo":{"center":{"lat":20.4921929,"lng":101.8891721},"min":{"lat":20.4921929,"lng":101.8891721},"max":{"lat":20.4921929,"lng":101.8891721}}},{"code":"PH","country_code":"LA","state_code":"","name":"Ph\u00f4ngsali [Phong Saly]","geo":{"center":{"lat":21.683333,"lng":102.1},"min":{"lat":21.683333,"lng":102.1},"max":{"lat":21.683333,"lng":102.1}}},{"code":"SL","country_code":"LA","state_code":"","name":"Salavan [Saravane]","geo":{"center":{"lat":15.716667,"lng":106.416667},"min":{"lat":15.716667,"lng":106.416667},"max":{"lat":15.716667,"lng":106.416667}}},{"code":"SV","country_code":"LA","state_code":"","name":"Savannakh\u00e9t","geo":{"center":{"lat":16.5722464,"lng":104.7705509},"min":{"lat":16.5722464,"lng":104.7705509},"max":{"lat":16.5722464,"lng":104.7705509}}},{"code":"VI","country_code":"LA","state_code":"","name":"Vientiane","geo":{"center":{"lat":17.966667,"lng":102.6},"min":{"lat":17.966667,"lng":102.6},"max":{"lat":17.966667,"lng":102.6}}},{"code":"VT","country_code":"LA","state_code":"","name":"Vientiane Prefecture","geo":{"center":{"lat":18.110541,"lng":102.5298028},"min":{"lat":18.110541,"lng":102.5298028},"max":{"lat":18.110541,"lng":102.5298028}}},{"code":"XA","country_code":"LA","state_code":"","name":"Xaignabouli [Sayaboury]","geo":{"center":{"lat":19.3907886,"lng":101.5248055},"min":{"lat":19.3907886,"lng":101.5248055},"max":{"lat":19.3907886,"lng":101.5248055}}},{"code":"XE","country_code":"LA","state_code":"","name":"X\u00e9kong [S\u00e9kong]","geo":{"center":{"lat":15.344444,"lng":106.7175},"min":{"lat":15.344444,"lng":106.7175},"max":{"lat":15.344444,"lng":106.7175}}},{"code":"XI","country_code":"LA","state_code":"","name":"Xiangkhoang [Xieng Khouang]","geo":{"center":{"lat":19.6093003,"lng":103.7289167},"min":{"lat":19.6093003,"lng":103.7289167},"max":{"lat":19.6093003,"lng":103.7289167}}},{"code":"XN","country_code":"LA","state_code":"","name":"Xais\u00f4mboun","geo":{"center":{"lat":null,"lng":null},"min":{"lat":null,"lng":null},"max":{"lat":null,"lng":null}}}]