[{"code":"01","country_code":"LI","state_code":"","name":"Balzers","geo":{"center":{"lat":47.06887,"lng":9.50704},"min":{"lat":47.06887,"lng":9.50704},"max":{"lat":47.06887,"lng":9.50704}}},{"code":"02","country_code":"LI","state_code":"","name":"Eschen","geo":{"center":{"lat":47.21239,"lng":9.52327},"min":{"lat":47.21239,"lng":9.52327},"max":{"lat":47.21239,"lng":9.52327}}},{"code":"03","country_code":"LI","state_code":"","name":"Gamprin","geo":{"center":{"lat":47.2196376,"lng":9.5129295},"min":{"lat":47.2196376,"lng":9.5129295},"max":{"lat":47.2196376,"lng":9.5129295}}},{"code":"04","country_code":"LI","state_code":"","name":"Mauren","geo":{"center":{"lat":47.21937,"lng":9.54322},"min":{"lat":47.21937,"lng":9.54322},"max":{"lat":47.21937,"lng":9.54322}}},{"code":"05","country_code":"LI","state_code":"","name":"Planken","geo":{"center":{"lat":47.1855315,"lng":9.545365},"min":{"lat":47.1855315,"lng":9.545365},"max":{"lat":47.1855315,"lng":9.545365}}},{"code":"06","country_code":"LI","state_code":"","name":"Ruggell","geo":{"center":{"lat":47.2401202,"lng":9.5262553},"min":{"lat":47.2401202,"lng":9.5262553},"max":{"lat":47.2401202,"lng":9.5262553}}},{"code":"07","country_code":"LI","state_code":"","name":"Schaan","geo":{"center":{"lat":47.1663853,"lng":9.5106746},"min":{"lat":47.1663853,"lng":9.5106746},"max":{"lat":47.1663853,"lng":9.5106746}}},{"code":"08","country_code":"LI","state_code":"","name":"Schellenberg","geo":{"center":{"lat":47.2396844,"lng":9.5511955},"min":{"lat":47.2396844,"lng":9.5511955},"max":{"lat":47.2396844,"lng":9.5511955}}},{"code":"09","country_code":"LI","state_code":"","name":"Triesen","geo":{"center":{"lat":47.1111739,"lng":9.5264091},"min":{"lat":47.1111739,"lng":9.5264091},"max":{"lat":47.1111739,"lng":9.5264091}}},{"code":10,"country_code":"LI","state_code":"","name":"Triesenberg","geo":{"center":{"lat":47.1173252,"lng":9.5441812},"min":{"lat":47.1173252,"lng":9.5441812},"max":{"lat":47.1173252,"lng":9.5441812}}},{"code":11,"country_code":"LI","state_code":"","name":"Vaduz","geo":{"center":{"lat":47.14137,"lng":9.5207},"min":{"lat":47.14137,"lng":9.5207},"max":{"lat":47.14137,"lng":9.5207}}}]