[{"code":"BG","country_code":"LR","state_code":"","name":"Bong","geo":{"center":{"lat":6.8295019,"lng":-9.3673084},"min":{"lat":6.8295019,"lng":-9.3673084},"max":{"lat":6.8295019,"lng":-9.3673084}}},{"code":"BM","country_code":"LR","state_code":"","name":"Bomi","geo":{"center":{"lat":6.7562926,"lng":-10.8451467},"min":{"lat":6.7562926,"lng":-10.8451467},"max":{"lat":6.7562926,"lng":-10.8451467}}},{"code":"CM","country_code":"LR","state_code":"","name":"Grand Cape Mount","geo":{"center":{"lat":7.0467758,"lng":-11.0711758},"min":{"lat":7.0467758,"lng":-11.0711758},"max":{"lat":7.0467758,"lng":-11.0711758}}},{"code":"GB","country_code":"LR","state_code":"","name":"Grand Bassa","geo":{"center":{"lat":6.2308452,"lng":-9.8124935},"min":{"lat":6.2308452,"lng":-9.8124935},"max":{"lat":6.2308452,"lng":-9.8124935}}},{"code":"GG","country_code":"LR","state_code":"","name":"Grand Gedeh","geo":{"center":{"lat":5.9222078,"lng":-8.2212979},"min":{"lat":5.9222078,"lng":-8.2212979},"max":{"lat":5.9222078,"lng":-8.2212979}}},{"code":"GK","country_code":"LR","state_code":"","name":"Grand Kru","geo":{"center":{"lat":4.7613862,"lng":-8.2212979},"min":{"lat":4.7613862,"lng":-8.2212979},"max":{"lat":4.7613862,"lng":-8.2212979}}},{"code":"LO","country_code":"LR","state_code":"","name":"Lofa","geo":{"center":{"lat":8.1911184,"lng":-9.7232673},"min":{"lat":8.1911184,"lng":-9.7232673},"max":{"lat":8.1911184,"lng":-9.7232673}}},{"code":"MG","country_code":"LR","state_code":"","name":"Margibi","geo":{"center":{"lat":6.5151875,"lng":-10.3048897},"min":{"lat":6.5151875,"lng":-10.3048897},"max":{"lat":6.5151875,"lng":-10.3048897}}},{"code":"MO","country_code":"LR","state_code":"","name":"Montserrado","geo":{"center":{"lat":6.5525815,"lng":-10.5296115},"min":{"lat":6.5525815,"lng":-10.5296115},"max":{"lat":6.5525815,"lng":-10.5296115}}},{"code":"MY","country_code":"LR","state_code":"","name":"Maryland","geo":{"center":{"lat":4.7258878,"lng":-7.7416703},"min":{"lat":4.7258878,"lng":-7.7416703},"max":{"lat":4.7258878,"lng":-7.7416703}}},{"code":"NI","country_code":"LR","state_code":"","name":"Nimba","geo":{"center":{"lat":6.8427612,"lng":-8.6600586},"min":{"lat":6.8427612,"lng":-8.6600586},"max":{"lat":6.8427612,"lng":-8.6600586}}},{"code":"RI","country_code":"LR","state_code":"","name":"Rivercess","geo":{"center":{"lat":5.9025328,"lng":-9.456155},"min":{"lat":5.9025328,"lng":-9.456155},"max":{"lat":5.9025328,"lng":-9.456155}}},{"code":"SI","country_code":"LR","state_code":"","name":"Sinoe","geo":{"center":{"lat":5.49871,"lng":-8.6600586},"min":{"lat":5.49871,"lng":-8.6600586},"max":{"lat":5.49871,"lng":-8.6600586}}},{"code":"X1~","country_code":"LR","state_code":"","name":"Gbarpolu","geo":{"center":{"lat":7.4952637,"lng":-10.0807298},"min":{"lat":7.4952637,"lng":-10.0807298},"max":{"lat":7.4952637,"lng":-10.0807298}}},{"code":"X2~","country_code":"LR","state_code":"","name":"River Gee","geo":{"center":{"lat":5.2604894,"lng":-7.87216},"min":{"lat":5.2604894,"lng":-7.87216},"max":{"lat":5.2604894,"lng":-7.87216}}}]