[{"code":"A","country_code":"LS","state_code":"","name":"Maseru","geo":{"center":{"lat":-29.31,"lng":27.48},"min":{"lat":-29.31,"lng":27.48},"max":{"lat":-29.31,"lng":27.48}}},{"code":"B","country_code":"LS","state_code":"","name":"Butha-Buthe","geo":{"center":{"lat":-28.801561,"lng":28.5331038},"min":{"lat":-28.801561,"lng":28.5331038},"max":{"lat":-28.801561,"lng":28.5331038}}},{"code":"C","country_code":"LS","state_code":"","name":"Leribe","geo":{"center":{"lat":-28.873361,"lng":28.041583},"min":{"lat":-28.873361,"lng":28.041583},"max":{"lat":-28.873361,"lng":28.041583}}},{"code":"D","country_code":"LS","state_code":"","name":"Berea","geo":{"center":{"lat":-29.1746723,"lng":27.8311428},"min":{"lat":-29.1746723,"lng":27.8311428},"max":{"lat":-29.1746723,"lng":27.8311428}}},{"code":"E","country_code":"LS","state_code":"","name":"Mafeteng","geo":{"center":{"lat":-29.8224312,"lng":27.2388161},"min":{"lat":-29.8224312,"lng":27.2388161},"max":{"lat":-29.8224312,"lng":27.2388161}}},{"code":"F","country_code":"LS","state_code":"","name":"Mohale's Hoek","geo":{"center":{"lat":-30.15,"lng":27.466667},"min":{"lat":-30.15,"lng":27.466667},"max":{"lat":-30.15,"lng":27.466667}}},{"code":"G","country_code":"LS","state_code":"","name":"Quthing","geo":{"center":{"lat":-30.400111,"lng":27.700194},"min":{"lat":-30.400111,"lng":27.700194},"max":{"lat":-30.400111,"lng":27.700194}}},{"code":"H","country_code":"LS","state_code":"","name":"Qacha's Nek","geo":{"center":{"lat":-30.116667,"lng":28.683333},"min":{"lat":-30.116667,"lng":28.683333},"max":{"lat":-30.116667,"lng":28.683333}}},{"code":"J","country_code":"LS","state_code":"","name":"Mokhotlong","geo":{"center":{"lat":-29.288495,"lng":29.065568},"min":{"lat":-29.288495,"lng":29.065568},"max":{"lat":-29.288495,"lng":29.065568}}},{"code":"K","country_code":"LS","state_code":"","name":"Thaba-Tseka","geo":{"center":{"lat":-29.5157527,"lng":28.5901895},"min":{"lat":-29.5157527,"lng":28.5901895},"max":{"lat":-29.5157527,"lng":28.5901895}}}]