[{"code":"AL","country_code":"LT","state_code":"","name":"Alytaus Apskritis","geo":{"center":{"lat":54.2000214,"lng":24.1512634},"min":{"lat":54.2000214,"lng":24.1512634},"max":{"lat":54.2000214,"lng":24.1512634}}},{"code":"KL","country_code":"LT","state_code":"","name":"Klaipedos Apskritis","geo":{"center":{"lat":55.6686983,"lng":21.4241373},"min":{"lat":55.6686983,"lng":21.4241373},"max":{"lat":55.6686983,"lng":21.4241373}}},{"code":"KU","country_code":"LT","state_code":"","name":"Kauno Apskritis","geo":{"center":{"lat":54.9872863,"lng":23.9525736},"min":{"lat":54.9872863,"lng":23.9525736},"max":{"lat":54.9872863,"lng":23.9525736}}},{"code":"MR","country_code":"LT","state_code":"","name":"Marijampoles Apskritis","geo":{"center":{"lat":54.7819971,"lng":23.1341364},"min":{"lat":54.7819971,"lng":23.1341364},"max":{"lat":54.7819971,"lng":23.1341364}}},{"code":"PN","country_code":"LT","state_code":"","name":"Paneve\u017eio Apskritis","geo":{"center":{"lat":55.9748049,"lng":25.0794767},"min":{"lat":55.9748049,"lng":25.0794767},"max":{"lat":55.9748049,"lng":25.0794767}}},{"code":"SA","country_code":"LT","state_code":"","name":"\u0160iauliu Apskritis","geo":{"center":{"lat":55.9985751,"lng":23.1380051},"min":{"lat":55.9985751,"lng":23.1380051},"max":{"lat":55.9985751,"lng":23.1380051}}},{"code":"TA","country_code":"LT","state_code":"","name":"Taurages Apskritis","geo":{"center":{"lat":55.3072586,"lng":22.357294},"min":{"lat":55.3072586,"lng":22.357294},"max":{"lat":55.3072586,"lng":22.357294}}},{"code":"TE","country_code":"LT","state_code":"","name":"Tel\u0161iu Apskritis","geo":{"center":{"lat":56.1026616,"lng":22.1113916},"min":{"lat":56.1026616,"lng":22.1113916},"max":{"lat":56.1026616,"lng":22.1113916}}},{"code":"UT","country_code":"LT","state_code":"","name":"Utenos Apskritis","geo":{"center":{"lat":55.5318969,"lng":25.7904699},"min":{"lat":55.5318969,"lng":25.7904699},"max":{"lat":55.5318969,"lng":25.7904699}}},{"code":"VL","country_code":"LT","state_code":"","name":"Vilniaus Apskritis","geo":{"center":{"lat":54.8086502,"lng":25.2182138},"min":{"lat":54.8086502,"lng":25.2182138},"max":{"lat":54.8086502,"lng":25.2182138}}}]