[{"code":"AJ","country_code":"LY","state_code":"","name":"Ajdabiya","geo":{"center":{"lat":30.75,"lng":20.216667},"min":{"lat":30.75,"lng":20.216667},"max":{"lat":30.75,"lng":20.216667}}},{"code":"BA","country_code":"LY","state_code":"","name":"Banghazi","geo":{"center":{"lat":32.116667,"lng":20.066667},"min":{"lat":32.116667,"lng":20.066667},"max":{"lat":32.116667,"lng":20.066667}}},{"code":"BU","country_code":"LY","state_code":"","name":"Al Butnan","geo":{"center":{"lat":29.7579854,"lng":23.7632828},"min":{"lat":29.7579854,"lng":23.7632828},"max":{"lat":29.7579854,"lng":23.7632828}}},{"code":"BW","country_code":"LY","state_code":"","name":"Bani Walid","geo":{"center":{"lat":31.766667,"lng":13.983333},"min":{"lat":31.766667,"lng":13.983333},"max":{"lat":31.766667,"lng":13.983333}}},{"code":"DR","country_code":"LY","state_code":"","name":"Darnah","geo":{"center":{"lat":32.766667,"lng":22.633333},"min":{"lat":32.766667,"lng":22.633333},"max":{"lat":32.766667,"lng":22.633333}}},{"code":"GD","country_code":"LY","state_code":"","name":"Ghadamis","geo":{"center":{"lat":30.133333,"lng":9.5},"min":{"lat":30.133333,"lng":9.5},"max":{"lat":30.133333,"lng":9.5}}},{"code":"GR","country_code":"LY","state_code":"","name":"Gharyan","geo":{"center":{"lat":32.169722,"lng":13.016667},"min":{"lat":32.169722,"lng":13.016667},"max":{"lat":32.169722,"lng":13.016667}}},{"code":"GT","country_code":"LY","state_code":"","name":"Ghat","geo":{"center":{"lat":24.9640371,"lng":10.1759285},"min":{"lat":24.9640371,"lng":10.1759285},"max":{"lat":24.9640371,"lng":10.1759285}}},{"code":"HZ","country_code":"LY","state_code":"","name":"Al ?izam al Akh?ar","geo":{"center":{"lat":31.9734119,"lng":20.0269411},"min":{"lat":31.9734119,"lng":20.0269411},"max":{"lat":31.9734119,"lng":20.0269411}}},{"code":"JA","country_code":"LY","state_code":"","name":"Al Jabal al Akh?ar","geo":{"center":{"lat":32.4032332,"lng":21.6660725},"min":{"lat":32.4032332,"lng":21.6660725},"max":{"lat":32.4032332,"lng":21.6660725}}},{"code":"JB","country_code":"LY","state_code":"","name":"Jaghbub","geo":{"center":{"lat":29.7425,"lng":24.516944},"min":{"lat":29.7425,"lng":24.516944},"max":{"lat":29.7425,"lng":24.516944}}},{"code":"JI","country_code":"LY","state_code":"","name":"Al Jifarah","geo":{"center":{"lat":32.4525904,"lng":12.9435536},"min":{"lat":32.4525904,"lng":12.9435536},"max":{"lat":32.4525904,"lng":12.9435536}}},{"code":"JU","country_code":"LY","state_code":"","name":"Al Jufrah","geo":{"center":{"lat":27.9835135,"lng":16.912251},"min":{"lat":27.9835135,"lng":16.912251},"max":{"lat":27.9835135,"lng":16.912251}}},{"code":"KF","country_code":"LY","state_code":"","name":"Al Kufrah","geo":{"center":{"lat":23.3112389,"lng":21.8568586},"min":{"lat":23.3112389,"lng":21.8568586},"max":{"lat":23.3112389,"lng":21.8568586}}},{"code":"MB","country_code":"LY","state_code":"","name":"Al Marqab","geo":{"center":{"lat":32.4599677,"lng":14.1001326},"min":{"lat":32.4599677,"lng":14.1001326},"max":{"lat":32.4599677,"lng":14.1001326}}},{"code":"MI","country_code":"LY","state_code":"","name":"Misratah","geo":{"center":{"lat":32.377533,"lng":15.092017},"min":{"lat":32.377533,"lng":15.092017},"max":{"lat":32.377533,"lng":15.092017}}},{"code":"MJ","country_code":"LY","state_code":"","name":"Al Marj","geo":{"center":{"lat":32.486667,"lng":20.833889},"min":{"lat":32.486667,"lng":20.833889},"max":{"lat":32.486667,"lng":20.833889}}},{"code":"MQ","country_code":"LY","state_code":"","name":"Murzuq","geo":{"center":{"lat":25.9182262,"lng":13.9260001},"min":{"lat":25.9182262,"lng":13.9260001},"max":{"lat":25.9182262,"lng":13.9260001}}},{"code":"MZ","country_code":"LY","state_code":"","name":"Mizdah","geo":{"center":{"lat":31.4478222,"lng":12.9838564},"min":{"lat":31.4478222,"lng":12.9838564},"max":{"lat":31.4478222,"lng":12.9838564}}},{"code":"NL","country_code":"LY","state_code":"","name":"Nalut","geo":{"center":{"lat":31.868333,"lng":10.9825},"min":{"lat":31.868333,"lng":10.9825},"max":{"lat":31.868333,"lng":10.9825}}},{"code":"NQ","country_code":"LY","state_code":"","name":"An Nuqat al Khams","geo":{"center":{"lat":32.6914909,"lng":11.8891721},"min":{"lat":32.6914909,"lng":11.8891721},"max":{"lat":32.6914909,"lng":11.8891721}}},{"code":"QB","country_code":"LY","state_code":"","name":"Al Qubbah","geo":{"center":{"lat":32.766667,"lng":22.25},"min":{"lat":32.766667,"lng":22.25},"max":{"lat":32.766667,"lng":22.25}}},{"code":"QT","country_code":"LY","state_code":"","name":"Al Qatrun","geo":{"center":{"lat":24.933333,"lng":14.633333},"min":{"lat":24.933333,"lng":14.633333},"max":{"lat":24.933333,"lng":14.633333}}},{"code":"SB","country_code":"LY","state_code":"","name":"Sabha","geo":{"center":{"lat":27.038889,"lng":14.426389},"min":{"lat":27.038889,"lng":14.426389},"max":{"lat":27.038889,"lng":14.426389}}},{"code":"SH","country_code":"LY","state_code":"","name":"Ash Shati'","geo":{"center":{"lat":27.7351468,"lng":12.4380581},"min":{"lat":27.7351468,"lng":12.4380581},"max":{"lat":27.7351468,"lng":12.4380581}}},{"code":"SR","country_code":"LY","state_code":"","name":"Surt","geo":{"center":{"lat":31.205314,"lng":16.588936},"min":{"lat":31.205314,"lng":16.588936},"max":{"lat":31.205314,"lng":16.588936}}},{"code":"SS","country_code":"LY","state_code":"","name":"Sabratah Surman","geo":{"center":{"lat":32.787993,"lng":12.3807553},"min":{"lat":32.787993,"lng":12.3807553},"max":{"lat":32.787993,"lng":12.3807553}}},{"code":"TB","country_code":"LY","state_code":"","name":"Tarabulus","geo":{"center":{"lat":32.8829369,"lng":13.1883359},"min":{"lat":32.8829369,"lng":13.1883359},"max":{"lat":32.8829369,"lng":13.1883359}}},{"code":"TM","country_code":"LY","state_code":"","name":"Tarhunah-Masallatah","geo":{"center":{"lat":32.433889,"lng":13.634444},"min":{"lat":32.433889,"lng":13.634444},"max":{"lat":32.433889,"lng":13.634444}}},{"code":"TN","country_code":"LY","state_code":"","name":"Tajura' wa an Nawa?i Arba?","geo":{"center":{"lat":null,"lng":null},"min":{"lat":null,"lng":null},"max":{"lat":null,"lng":null}}},{"code":"WA","country_code":"LY","state_code":"","name":"Al Wa?ah","geo":{"center":{"lat":32.3147011,"lng":14.5032835},"min":{"lat":32.3147011,"lng":14.5032835},"max":{"lat":32.3147011,"lng":14.5032835}}},{"code":"WD","country_code":"LY","state_code":"","name":"Wadi al ?ayat","geo":{"center":{"lat":29.5240753,"lng":31.2912463},"min":{"lat":29.5240753,"lng":31.2912463},"max":{"lat":29.5240753,"lng":31.2912463}}},{"code":"YJ","country_code":"LY","state_code":"","name":"Yafran-Jadu","geo":{"center":{"lat":31.9536097,"lng":12.0285809},"min":{"lat":31.9536097,"lng":12.0285809},"max":{"lat":31.9536097,"lng":12.0285809}}},{"code":"ZA","country_code":"LY","state_code":"","name":"Az Zawiyah","geo":{"center":{"lat":32.5394906,"lng":12.5298028},"min":{"lat":32.5394906,"lng":12.5298028},"max":{"lat":32.5394906,"lng":12.5298028}}}]