[{"code":"AGD","country_code":"MA","state_code":"","name":"Agadir*","geo":{"center":{"lat":30.4277547,"lng":-9.5981072},"min":{"lat":30.4277547,"lng":-9.5981072},"max":{"lat":30.4277547,"lng":-9.5981072}}},{"code":"AOU","country_code":"MA","state_code":"","name":"Aousserd","geo":{"center":{"lat":30.3920338,"lng":-9.5644965},"min":{"lat":30.3920338,"lng":-9.5644965},"max":{"lat":30.3920338,"lng":-9.5644965}}},{"code":"ASZ","country_code":"MA","state_code":"","name":"Assa-Zag","geo":{"center":{"lat":28.1402395,"lng":-9.7232673},"min":{"lat":28.1402395,"lng":-9.7232673},"max":{"lat":28.1402395,"lng":-9.7232673}}},{"code":"AZI","country_code":"MA","state_code":"","name":"Azilal","geo":{"center":{"lat":31.966944,"lng":-6.569444},"min":{"lat":31.966944,"lng":-6.569444},"max":{"lat":31.966944,"lng":-6.569444}}},{"code":"BAH","country_code":"MA","state_code":"","name":"A\u00eft Baha","geo":{"center":{"lat":30.0688758,"lng":-9.152534},"min":{"lat":30.0688758,"lng":-9.152534},"max":{"lat":30.0688758,"lng":-9.152534}}},{"code":"BEM","country_code":"MA","state_code":"","name":"Beni Mellal","geo":{"center":{"lat":32.339444,"lng":-6.360833},"min":{"lat":32.339444,"lng":-6.360833},"max":{"lat":32.339444,"lng":-6.360833}}},{"code":"BER","country_code":"MA","state_code":"","name":"Berkane","geo":{"center":{"lat":34.916667,"lng":-2.316667},"min":{"lat":34.916667,"lng":-2.316667},"max":{"lat":34.916667,"lng":-2.316667}}},{"code":"BES","country_code":"MA","state_code":"","name":"Ben Slimane","geo":{"center":{"lat":33.616667,"lng":-7.116667},"min":{"lat":33.616667,"lng":-7.116667},"max":{"lat":33.616667,"lng":-7.116667}}},{"code":"BOD","country_code":"MA","state_code":"","name":"Boujdour (EH)","geo":{"center":{"lat":27.8521664,"lng":-12.1632718},"min":{"lat":27.8521664,"lng":-12.1632718},"max":{"lat":27.8521664,"lng":-12.1632718}}},{"code":"BOM","country_code":"MA","state_code":"","name":"Boulemane","geo":{"center":{"lat":33.3625159,"lng":-4.7303397},"min":{"lat":33.3625159,"lng":-4.7303397},"max":{"lat":33.3625159,"lng":-4.7303397}}},{"code":"CAS","country_code":"MA","state_code":"","name":"Casablanca [Dar el Be\u00efda]*","geo":{"center":{"lat":33.5731104,"lng":-7.5898434},"min":{"lat":33.5731104,"lng":-7.5898434},"max":{"lat":33.5731104,"lng":-7.5898434}}},{"code":"CHE","country_code":"MA","state_code":"","name":"Chefchaouene","geo":{"center":{"lat":35.171389,"lng":-5.269722},"min":{"lat":35.171389,"lng":-5.269722},"max":{"lat":35.171389,"lng":-5.269722}}},{"code":"CHI","country_code":"MA","state_code":"","name":"Chichaoua","geo":{"center":{"lat":31.533333,"lng":-8.766667},"min":{"lat":31.533333,"lng":-8.766667},"max":{"lat":31.533333,"lng":-8.766667}}},{"code":"CHT","country_code":"MA","state_code":"","name":"Chtouka-Ait Baha","geo":{"center":{"lat":30.0688758,"lng":-9.152534},"min":{"lat":30.0688758,"lng":-9.152534},"max":{"lat":30.0688758,"lng":-9.152534}}},{"code":"ERR","country_code":"MA","state_code":"","name":"Errachidia","geo":{"center":{"lat":31.931944,"lng":-4.424444},"min":{"lat":31.931944,"lng":-4.424444},"max":{"lat":31.931944,"lng":-4.424444}}},{"code":"ESI","country_code":"MA","state_code":"","name":"Essaouira","geo":{"center":{"lat":31.5084926,"lng":-9.7595041},"min":{"lat":31.5084926,"lng":-9.7595041},"max":{"lat":31.5084926,"lng":-9.7595041}}},{"code":"ESM","country_code":"MA","state_code":"","name":"Es Smara (EH)","geo":{"center":{"lat":28.7082053,"lng":-9.5450974},"min":{"lat":28.7082053,"lng":-9.5450974},"max":{"lat":28.7082053,"lng":-9.5450974}}},{"code":"FAH","country_code":"MA","state_code":"","name":"Fahs-Beni Makada","geo":{"center":{"lat":35.757668,"lng":-5.8109107},"min":{"lat":35.757668,"lng":-5.8109107},"max":{"lat":35.757668,"lng":-5.8109107}}},{"code":"FES","country_code":"MA","state_code":"","name":"F\u00e8s*","geo":{"center":{"lat":34.033333,"lng":-5},"min":{"lat":34.033333,"lng":-5},"max":{"lat":34.033333,"lng":-5}}},{"code":"FIG","country_code":"MA","state_code":"","name":"Figuig","geo":{"center":{"lat":32.1092613,"lng":-1.229806},"min":{"lat":32.1092613,"lng":-1.229806},"max":{"lat":32.1092613,"lng":-1.229806}}},{"code":"GUE","country_code":"MA","state_code":"","name":"Guelmim","geo":{"center":{"lat":28.983333,"lng":-10.066667},"min":{"lat":28.983333,"lng":-10.066667},"max":{"lat":28.983333,"lng":-10.066667}}},{"code":"HAJ","country_code":"MA","state_code":"","name":"El Hajeb","geo":{"center":{"lat":33.692778,"lng":-5.371111},"min":{"lat":33.692778,"lng":-5.371111},"max":{"lat":33.692778,"lng":-5.371111}}},{"code":"HAO","country_code":"MA","state_code":"","name":"Al Haouz","geo":{"center":{"lat":31.2956729,"lng":-7.87216},"min":{"lat":31.2956729,"lng":-7.87216},"max":{"lat":31.2956729,"lng":-7.87216}}},{"code":"HOC","country_code":"MA","state_code":"","name":"Al Hoce\u00efma","geo":{"center":{"lat":35.25,"lng":-3.933333},"min":{"lat":35.25,"lng":-3.933333},"max":{"lat":35.25,"lng":-3.933333}}},{"code":"IFR","country_code":"MA","state_code":"","name":"Ifrane","geo":{"center":{"lat":33.5228062,"lng":-5.1109552},"min":{"lat":33.5228062,"lng":-5.1109552},"max":{"lat":33.5228062,"lng":-5.1109552}}},{"code":"JDI","country_code":"MA","state_code":"","name":"El Jadida","geo":{"center":{"lat":33.233333,"lng":-8.5},"min":{"lat":33.233333,"lng":-8.5},"max":{"lat":33.233333,"lng":-8.5}}},{"code":"JRA","country_code":"MA","state_code":"","name":"Jerada","geo":{"center":{"lat":34.311667,"lng":-2.163611},"min":{"lat":34.311667,"lng":-2.163611},"max":{"lat":34.311667,"lng":-2.163611}}},{"code":"KEN","country_code":"MA","state_code":"","name":"K\u00e9nitra","geo":{"center":{"lat":34.25,"lng":-6.583333},"min":{"lat":34.25,"lng":-6.583333},"max":{"lat":34.25,"lng":-6.583333}}},{"code":"KES","country_code":"MA","state_code":"","name":"Kelaat Sraghna","geo":{"center":{"lat":32.048056,"lng":-7.408333},"min":{"lat":32.048056,"lng":-7.408333},"max":{"lat":32.048056,"lng":-7.408333}}},{"code":"KHE","country_code":"MA","state_code":"","name":"Khemisset","geo":{"center":{"lat":33.816667,"lng":-6.066667},"min":{"lat":33.816667,"lng":-6.066667},"max":{"lat":33.816667,"lng":-6.066667}}},{"code":"KHN","country_code":"MA","state_code":"","name":"Khenifra","geo":{"center":{"lat":32.939444,"lng":-5.6675},"min":{"lat":32.939444,"lng":-5.6675},"max":{"lat":32.939444,"lng":-5.6675}}},{"code":"KHO","country_code":"MA","state_code":"","name":"Khouribga","geo":{"center":{"lat":32.886023,"lng":-6.9208655},"min":{"lat":32.886023,"lng":-6.9208655},"max":{"lat":32.886023,"lng":-6.9208655}}},{"code":"LAA","country_code":"MA","state_code":"","name":"La\u00e2youne* (EH)","geo":{"center":{"lat":27.1252867,"lng":-13.1625005},"min":{"lat":27.1252867,"lng":-13.1625005},"max":{"lat":27.1252867,"lng":-13.1625005}}},{"code":"LAR","country_code":"MA","state_code":"","name":"Larache","geo":{"center":{"lat":35.183333,"lng":-6.15},"min":{"lat":35.183333,"lng":-6.15},"max":{"lat":35.183333,"lng":-6.15}}},{"code":"MAR","country_code":"MA","state_code":"","name":"Marrakech*","geo":{"center":{"lat":31.63,"lng":-8.008889},"min":{"lat":31.63,"lng":-8.008889},"max":{"lat":31.63,"lng":-8.008889}}},{"code":"MED","country_code":"MA","state_code":"","name":"M\u00e9diouna","geo":{"center":{"lat":33.4525,"lng":-7.514722},"min":{"lat":33.4525,"lng":-7.514722},"max":{"lat":33.4525,"lng":-7.514722}}},{"code":"MEK","country_code":"MA","state_code":"","name":"Mekn\u00e8s*","geo":{"center":{"lat":33.895,"lng":-5.554722},"min":{"lat":33.895,"lng":-5.554722},"max":{"lat":33.895,"lng":-5.554722}}},{"code":"MEL","country_code":"MA","state_code":"","name":"A\u00eft Melloul","geo":{"center":{"lat":30.334167,"lng":-9.497222},"min":{"lat":30.334167,"lng":-9.497222},"max":{"lat":30.334167,"lng":-9.497222}}},{"code":"MOU","country_code":"MA","state_code":"","name":"Moulay Yacoub","geo":{"center":{"lat":34.0878,"lng":-5.1811},"min":{"lat":34.0878,"lng":-5.1811},"max":{"lat":34.0878,"lng":-5.1811}}},{"code":"NAD","country_code":"MA","state_code":"","name":"Nador","geo":{"center":{"lat":35.166667,"lng":-2.933333},"min":{"lat":35.166667,"lng":-2.933333},"max":{"lat":35.166667,"lng":-2.933333}}},{"code":"NOU","country_code":"MA","state_code":"","name":"Nouaceur","geo":{"center":{"lat":33.3721834,"lng":-7.5470066},"min":{"lat":33.3721834,"lng":-7.5470066},"max":{"lat":33.3721834,"lng":-7.5470066}}},{"code":"OUA","country_code":"MA","state_code":"","name":"Ouarzazate","geo":{"center":{"lat":30.9335436,"lng":-6.937016},"min":{"lat":30.9335436,"lng":-6.937016},"max":{"lat":30.9335436,"lng":-6.937016}}},{"code":"OUD","country_code":"MA","state_code":"","name":"Oued ed Dahab (EH)","geo":{"center":{"lat":21.369212,"lng":-16.9570741},"min":{"lat":21.369212,"lng":-16.9570741},"max":{"lat":21.369212,"lng":-16.9570741}}},{"code":"OUJ","country_code":"MA","state_code":"","name":"Oujda*","geo":{"center":{"lat":34.686667,"lng":-1.911389},"min":{"lat":34.686667,"lng":-1.911389},"max":{"lat":34.686667,"lng":-1.911389}}},{"code":"RBA","country_code":"MA","state_code":"","name":"Rabat-Sal\u00e9*","geo":{"center":{"lat":33.9715904,"lng":-6.8498129},"min":{"lat":33.9715904,"lng":-6.8498129},"max":{"lat":33.9715904,"lng":-6.8498129}}},{"code":"SAF","country_code":"MA","state_code":"","name":"Safi","geo":{"center":{"lat":32.3008151,"lng":-9.2272033},"min":{"lat":32.3008151,"lng":-9.2272033},"max":{"lat":32.3008151,"lng":-9.2272033}}},{"code":"SAL","country_code":"MA","state_code":"","name":"Sal\u00e9","geo":{"center":{"lat":34.0336969,"lng":-6.7708138},"min":{"lat":34.0336969,"lng":-6.7708138},"max":{"lat":34.0336969,"lng":-6.7708138}}},{"code":"SEF","country_code":"MA","state_code":"","name":"Sefrou","geo":{"center":{"lat":33.8305244,"lng":-4.8353154},"min":{"lat":33.8305244,"lng":-4.8353154},"max":{"lat":33.8305244,"lng":-4.8353154}}},{"code":"SET","country_code":"MA","state_code":"","name":"Settat","geo":{"center":{"lat":33,"lng":-7.6167},"min":{"lat":33,"lng":-7.6167},"max":{"lat":33,"lng":-7.6167}}},{"code":"SIK","country_code":"MA","state_code":"","name":"Sidi Kacem","geo":{"center":{"lat":34.216667,"lng":-5.7},"min":{"lat":34.216667,"lng":-5.7},"max":{"lat":34.216667,"lng":-5.7}}},{"code":"SKH","country_code":"MA","state_code":"","name":"Skhirate-T\u00e9mara","geo":{"center":{"lat":33.9278354,"lng":-6.9051819},"min":{"lat":33.9278354,"lng":-6.9051819},"max":{"lat":33.9278354,"lng":-6.9051819}}},{"code":"SYB","country_code":"MA","state_code":"","name":"Sidi Youssef Ben Ali","geo":{"center":{"lat":31.6084373,"lng":-7.9653067},"min":{"lat":31.6084373,"lng":-7.9653067},"max":{"lat":31.6084373,"lng":-7.9653067}}},{"code":"TAI","country_code":"MA","state_code":"","name":"Taourirt","geo":{"center":{"lat":34.3983716,"lng":-2.8935028},"min":{"lat":34.3983716,"lng":-2.8935028},"max":{"lat":34.3983716,"lng":-2.8935028}}},{"code":"TAO","country_code":"MA","state_code":"","name":"Taounate","geo":{"center":{"lat":34.535833,"lng":-4.64},"min":{"lat":34.535833,"lng":-4.64},"max":{"lat":34.535833,"lng":-4.64}}},{"code":"TAR","country_code":"MA","state_code":"","name":"Taroudannt","geo":{"center":{"lat":30.466944,"lng":-8.88},"min":{"lat":30.466944,"lng":-8.88},"max":{"lat":30.466944,"lng":-8.88}}},{"code":"TAT","country_code":"MA","state_code":"","name":"Tata","geo":{"center":{"lat":29.742778,"lng":-7.9725},"min":{"lat":29.742778,"lng":-7.9725},"max":{"lat":29.742778,"lng":-7.9725}}},{"code":"TAZ","country_code":"MA","state_code":"","name":"Taza","geo":{"center":{"lat":34.216667,"lng":-4.016667},"min":{"lat":34.216667,"lng":-4.016667},"max":{"lat":34.216667,"lng":-4.016667}}},{"code":"TET","country_code":"MA","state_code":"","name":"T\u00e9touan*","geo":{"center":{"lat":35.566667,"lng":-5.366667},"min":{"lat":35.566667,"lng":-5.366667},"max":{"lat":35.566667,"lng":-5.366667}}},{"code":"TIZ","country_code":"MA","state_code":"","name":"Tiznit","geo":{"center":{"lat":29.693392,"lng":-9.732157},"min":{"lat":29.693392,"lng":-9.732157},"max":{"lat":29.693392,"lng":-9.732157}}},{"code":"TNG","country_code":"MA","state_code":"","name":"Tanger","geo":{"center":{"lat":35.7594651,"lng":-5.8339543},"min":{"lat":35.7594651,"lng":-5.8339543},"max":{"lat":35.7594651,"lng":-5.8339543}}},{"code":"TNT","country_code":"MA","state_code":"","name":"Tan-Tan","geo":{"center":{"lat":28.4380408,"lng":-11.0987374},"min":{"lat":28.4380408,"lng":-11.0987374},"max":{"lat":28.4380408,"lng":-11.0987374}}},{"code":"X1~","country_code":"MA","state_code":"","name":"Laayoune-Boujdour-Sakia El Hamra","geo":{"center":{"lat":27.8521664,"lng":-12.1632718},"min":{"lat":27.8521664,"lng":-12.1632718},"max":{"lat":27.8521664,"lng":-12.1632718}}},{"code":"ZAG","country_code":"MA","state_code":"","name":"Zagora","geo":{"center":{"lat":30.330556,"lng":-5.838056},"min":{"lat":30.330556,"lng":-5.838056},"max":{"lat":30.330556,"lng":-5.838056}}}]