[{"code":"01","country_code":"ME","state_code":"","name":"Andrijevica","geo":{"center":{"lat":42.739722,"lng":19.785833},"min":{"lat":42.739722,"lng":19.785833},"max":{"lat":42.739722,"lng":19.785833}}},{"code":"02","country_code":"ME","state_code":"","name":"Bar","geo":{"center":{"lat":42.2040425,"lng":19.140438},"min":{"lat":42.2040425,"lng":19.140438},"max":{"lat":42.2040425,"lng":19.140438}}},{"code":"03","country_code":"ME","state_code":"","name":"Berane","geo":{"center":{"lat":42.84,"lng":19.86},"min":{"lat":42.84,"lng":19.86},"max":{"lat":42.84,"lng":19.86}}},{"code":"04","country_code":"ME","state_code":"","name":"Bijelo Polje","geo":{"center":{"lat":43.04,"lng":19.75},"min":{"lat":43.04,"lng":19.75},"max":{"lat":43.04,"lng":19.75}}},{"code":"05","country_code":"ME","state_code":"","name":"Budva","geo":{"center":{"lat":42.288056,"lng":18.8425},"min":{"lat":42.288056,"lng":18.8425},"max":{"lat":42.288056,"lng":18.8425}}},{"code":"06","country_code":"ME","state_code":"","name":"Cetinje","geo":{"center":{"lat":42.38,"lng":18.92},"min":{"lat":42.38,"lng":18.92},"max":{"lat":42.38,"lng":18.92}}},{"code":"07","country_code":"ME","state_code":"","name":"Danilovgrad","geo":{"center":{"lat":42.5537532,"lng":19.1077389},"min":{"lat":42.5537532,"lng":19.1077389},"max":{"lat":42.5537532,"lng":19.1077389}}},{"code":"08","country_code":"ME","state_code":"","name":"Herceg-Novi","geo":{"center":{"lat":42.4572478,"lng":18.5314753},"min":{"lat":42.4572478,"lng":18.5314753},"max":{"lat":42.4572478,"lng":18.5314753}}},{"code":"09","country_code":"ME","state_code":"","name":"Kola\u0161in","geo":{"center":{"lat":42.823611,"lng":19.5225},"min":{"lat":42.823611,"lng":19.5225},"max":{"lat":42.823611,"lng":19.5225}}},{"code":10,"country_code":"ME","state_code":"","name":"Kotor","geo":{"center":{"lat":42.424662,"lng":18.771234},"min":{"lat":42.424662,"lng":18.771234},"max":{"lat":42.424662,"lng":18.771234}}},{"code":11,"country_code":"ME","state_code":"","name":"Mojkovac","geo":{"center":{"lat":42.96,"lng":19.58},"min":{"lat":42.96,"lng":19.58},"max":{"lat":42.96,"lng":19.58}}},{"code":12,"country_code":"ME","state_code":"","name":"Nik\u0161ic\u00b4","geo":{"center":{"lat":42.78,"lng":18.94},"min":{"lat":42.78,"lng":18.94},"max":{"lat":42.78,"lng":18.94}}},{"code":13,"country_code":"ME","state_code":"","name":"Plav","geo":{"center":{"lat":42.6001337,"lng":19.9407541},"min":{"lat":42.6001337,"lng":19.9407541},"max":{"lat":42.6001337,"lng":19.9407541}}},{"code":14,"country_code":"ME","state_code":"","name":"Pljevlja","geo":{"center":{"lat":43.36,"lng":19.36},"min":{"lat":43.36,"lng":19.36},"max":{"lat":43.36,"lng":19.36}}},{"code":15,"country_code":"ME","state_code":"","name":"Plu\u017eine","geo":{"center":{"lat":43.1541366,"lng":18.8410376},"min":{"lat":43.1541366,"lng":18.8410376},"max":{"lat":43.1541366,"lng":18.8410376}}},{"code":16,"country_code":"ME","state_code":"","name":"Podgorica","geo":{"center":{"lat":42.441286,"lng":19.262892},"min":{"lat":42.441286,"lng":19.262892},"max":{"lat":42.441286,"lng":19.262892}}},{"code":17,"country_code":"ME","state_code":"","name":"Ro\u017eaje","geo":{"center":{"lat":42.8333,"lng":20.1667},"min":{"lat":42.8333,"lng":20.1667},"max":{"lat":42.8333,"lng":20.1667}}},{"code":18,"country_code":"ME","state_code":"","name":"\u0160avnik","geo":{"center":{"lat":42.9577803,"lng":19.0943627},"min":{"lat":42.9577803,"lng":19.0943627},"max":{"lat":42.9577803,"lng":19.0943627}}},{"code":19,"country_code":"ME","state_code":"","name":"Tivat","geo":{"center":{"lat":42.43,"lng":18.7},"min":{"lat":42.43,"lng":18.7},"max":{"lat":42.43,"lng":18.7}}},{"code":20,"country_code":"ME","state_code":"","name":"Ulcinj","geo":{"center":{"lat":41.9310884,"lng":19.2147632},"min":{"lat":41.9310884,"lng":19.2147632},"max":{"lat":41.9310884,"lng":19.2147632}}},{"code":21,"country_code":"ME","state_code":"","name":"\u017dabljak","geo":{"center":{"lat":43.1555152,"lng":19.1226018},"min":{"lat":43.1555152,"lng":19.1226018},"max":{"lat":43.1555152,"lng":19.1226018}}}]