[{"code":"ALK","country_code":"MH","state_code":"","name":"Ailuk","geo":{"center":{"lat":10.304809,"lng":169.9416549},"min":{"lat":10.304809,"lng":169.9416549},"max":{"lat":10.304809,"lng":169.9416549}}},{"code":"ALL","country_code":"MH","state_code":"","name":"Ailinglapalap","geo":{"center":{"lat":7.2833333,"lng":168.7833333},"min":{"lat":7.2833333,"lng":168.7833333},"max":{"lat":7.2833333,"lng":168.7833333}}},{"code":"ARN","country_code":"MH","state_code":"","name":"Arno","geo":{"center":{"lat":7.0638889,"lng":171.5583332},"min":{"lat":7.0638889,"lng":171.5583332},"max":{"lat":7.0638889,"lng":171.5583332}}},{"code":"AUR","country_code":"MH","state_code":"","name":"Aur","geo":{"center":{"lat":8.2750905,"lng":171.0975397},"min":{"lat":8.2750905,"lng":171.0975397},"max":{"lat":8.2750905,"lng":171.0975397}}},{"code":"EBO","country_code":"MH","state_code":"","name":"Ebon","geo":{"center":{"lat":4.6166113,"lng":168.7249469},"min":{"lat":4.6166113,"lng":168.7249469},"max":{"lat":4.6166113,"lng":168.7249469}}},{"code":"ENI","country_code":"MH","state_code":"","name":"Eniwetok","geo":{"center":{"lat":11.3415658,"lng":162.3266731},"min":{"lat":11.3415658,"lng":162.3266731},"max":{"lat":11.3415658,"lng":162.3266731}}},{"code":"JAB","country_code":"MH","state_code":"","name":"Jabat","geo":{"center":{"lat":7.7517,"lng":168.9767},"min":{"lat":7.7517,"lng":168.9767},"max":{"lat":7.7517,"lng":168.9767}}},{"code":"JAL","country_code":"MH","state_code":"","name":"Jaluit","geo":{"center":{"lat":5.9092582,"lng":169.6372575},"min":{"lat":5.9092582,"lng":169.6372575},"max":{"lat":5.9092582,"lng":169.6372575}}},{"code":"KIL","country_code":"MH","state_code":"","name":"Kili","geo":{"center":{"lat":5.6405493,"lng":169.1181599},"min":{"lat":5.6405493,"lng":169.1181599},"max":{"lat":5.6405493,"lng":169.1181599}}},{"code":"KWA","country_code":"MH","state_code":"","name":"Kwajalein","geo":{"center":{"lat":9.1898235,"lng":167.4242972},"min":{"lat":9.1898235,"lng":167.4242972},"max":{"lat":9.1898235,"lng":167.4242972}}},{"code":"LAE","country_code":"MH","state_code":"","name":"Lae","geo":{"center":{"lat":8.9411081,"lng":166.2363248},"min":{"lat":8.9411081,"lng":166.2363248},"max":{"lat":8.9411081,"lng":166.2363248}}},{"code":"LIB","country_code":"MH","state_code":"","name":"Lib","geo":{"center":{"lat":8.3131833,"lng":167.3758673},"min":{"lat":8.3131833,"lng":167.3758673},"max":{"lat":8.3131833,"lng":167.3758673}}},{"code":"LIK","country_code":"MH","state_code":"","name":"Likiep","geo":{"center":{"lat":9.8169444,"lng":169.3052778},"min":{"lat":9.8169444,"lng":169.3052778},"max":{"lat":9.8169444,"lng":169.3052778}}},{"code":"MAJ","country_code":"MH","state_code":"","name":"Majuro","geo":{"center":{"lat":7.1164214,"lng":171.1857736},"min":{"lat":7.1164214,"lng":171.1857736},"max":{"lat":7.1164214,"lng":171.1857736}}},{"code":"MAL","country_code":"MH","state_code":"","name":"Maloelap","geo":{"center":{"lat":8.7735171,"lng":171.0312989},"min":{"lat":8.7735171,"lng":171.0312989},"max":{"lat":8.7735171,"lng":171.0312989}}},{"code":"MEJ","country_code":"MH","state_code":"","name":"Mejit","geo":{"center":{"lat":10.2936198,"lng":170.8709872},"min":{"lat":10.2936198,"lng":170.8709872},"max":{"lat":10.2936198,"lng":170.8709872}}},{"code":"MIL","country_code":"MH","state_code":"","name":"Mili","geo":{"center":{"lat":6.1339492,"lng":171.909826},"min":{"lat":6.1339492,"lng":171.909826},"max":{"lat":6.1339492,"lng":171.909826}}},{"code":"NMK","country_code":"MH","state_code":"","name":"Namorik","geo":{"center":{"lat":5.6172553,"lng":168.1293615},"min":{"lat":5.6172553,"lng":168.1293615},"max":{"lat":5.6172553,"lng":168.1293615}}},{"code":"NMU","country_code":"MH","state_code":"","name":"Namu","geo":{"center":{"lat":7.9007188,"lng":168.2248291},"min":{"lat":7.9007188,"lng":168.2248291},"max":{"lat":7.9007188,"lng":168.2248291}}},{"code":"RON","country_code":"MH","state_code":"","name":"Rongelap","geo":{"center":{"lat":11.3603915,"lng":166.7798172},"min":{"lat":11.3603915,"lng":166.7798172},"max":{"lat":11.3603915,"lng":166.7798172}}},{"code":"UJA","country_code":"MH","state_code":"","name":"Ujae","geo":{"center":{"lat":9.0582174,"lng":165.6440842},"min":{"lat":9.0582174,"lng":165.6440842},"max":{"lat":9.0582174,"lng":165.6440842}}},{"code":"UJL","country_code":"MH","state_code":"","name":"Ujelang","geo":{"center":{"lat":9.77,"lng":160.9752777},"min":{"lat":9.77,"lng":160.9752777},"max":{"lat":9.77,"lng":160.9752777}}},{"code":"UTI","country_code":"MH","state_code":"","name":"Utirik","geo":{"center":{"lat":11.2226114,"lng":169.8544701},"min":{"lat":11.2226114,"lng":169.8544701},"max":{"lat":11.2226114,"lng":169.8544701}}},{"code":"WTH","country_code":"MH","state_code":"","name":"Wotho","geo":{"center":{"lat":10.1024946,"lng":165.9811564},"min":{"lat":10.1024946,"lng":165.9811564},"max":{"lat":10.1024946,"lng":165.9811564}}},{"code":"WTJ","country_code":"MH","state_code":"","name":"Wotje","geo":{"center":{"lat":9.452367,"lng":170.237213},"min":{"lat":9.452367,"lng":170.237213},"max":{"lat":9.452367,"lng":170.237213}}}]