[{"code":"AD","country_code":"MK","state_code":"","name":"Aerodrom *","geo":{"center":{"lat":41.9464363,"lng":21.4931713},"min":{"lat":41.9464363,"lng":21.4931713},"max":{"lat":41.9464363,"lng":21.4931713}}},{"code":"AJ","country_code":"MK","state_code":"","name":"Saraj *","geo":{"center":{"lat":41.477778,"lng":22.7025},"min":{"lat":41.477778,"lng":22.7025},"max":{"lat":41.477778,"lng":22.7025}}},{"code":"AR","country_code":"MK","state_code":"","name":"Aracinovo","geo":{"center":{"lat":42.0247381,"lng":21.5766407},"min":{"lat":42.0247381,"lng":21.5766407},"max":{"lat":42.0247381,"lng":21.5766407}}},{"code":"AV","country_code":"MK","state_code":"","name":"Kavadarci","geo":{"center":{"lat":41.4329364,"lng":22.0088861},"min":{"lat":41.4329364,"lng":22.0088861},"max":{"lat":41.4329364,"lng":22.0088861}}},{"code":"BG","country_code":"MK","state_code":"","name":"Bogdanci","geo":{"center":{"lat":41.203138,"lng":22.5754421},"min":{"lat":41.203138,"lng":22.5754421},"max":{"lat":41.203138,"lng":22.5754421}}},{"code":"BN","country_code":"MK","state_code":"","name":"Brvenica","geo":{"center":{"lat":41.9672,"lng":20.9808},"min":{"lat":41.9672,"lng":20.9808},"max":{"lat":41.9672,"lng":20.9808}}},{"code":"BR","country_code":"MK","state_code":"","name":"Berovo","geo":{"center":{"lat":41.71,"lng":22.85},"min":{"lat":41.71,"lng":22.85},"max":{"lat":41.71,"lng":22.85}}},{"code":"BS","country_code":"MK","state_code":"","name":"Bosilovo","geo":{"center":{"lat":41.4406,"lng":22.7278},"min":{"lat":41.4406,"lng":22.7278},"max":{"lat":41.4406,"lng":22.7278}}},{"code":"BU","country_code":"MK","state_code":"","name":"Butel *","geo":{"center":{"lat":42.0895068,"lng":21.463361},"min":{"lat":42.0895068,"lng":21.463361},"max":{"lat":42.0895068,"lng":21.463361}}},{"code":"CA","country_code":"MK","state_code":"","name":"Ca\u0161ka","geo":{"center":{"lat":41.647438,"lng":21.6914115},"min":{"lat":41.647438,"lng":21.6914115},"max":{"lat":41.647438,"lng":21.6914115}}},{"code":"CE","country_code":"MK","state_code":"","name":"Centar *","geo":{"center":{"lat":41.9953628,"lng":21.4246078},"min":{"lat":41.9953628,"lng":21.4246078},"max":{"lat":41.9953628,"lng":21.4246078}}},{"code":"CH","country_code":"MK","state_code":"","name":"Ce\u0161inovo-Oble\u0161evo","geo":{"center":{"lat":41.8639316,"lng":22.262246},"min":{"lat":41.8639316,"lng":22.262246},"max":{"lat":41.8639316,"lng":22.262246}}},{"code":"CI","country_code":"MK","state_code":"","name":"Cair *","geo":{"center":{"lat":41.9930355,"lng":21.4365318},"min":{"lat":41.9930355,"lng":21.4365318},"max":{"lat":41.9930355,"lng":21.4365318}}},{"code":"CS","country_code":"MK","state_code":"","name":"Cucer Sandevo","geo":{"center":{"lat":42.0974773,"lng":21.3877179},"min":{"lat":42.0974773,"lng":21.3877179},"max":{"lat":42.0974773,"lng":21.3877179}}},{"code":"CZ","country_code":"MK","state_code":"","name":"Centar \u017dupa","geo":{"center":{"lat":41.4785278,"lng":20.5602793},"min":{"lat":41.4785278,"lng":20.5602793},"max":{"lat":41.4785278,"lng":20.5602793}}},{"code":"DA","country_code":"MK","state_code":"","name":"Debarca","geo":{"center":{"lat":42.0010109,"lng":21.4201574},"min":{"lat":42.0010109,"lng":21.4201574},"max":{"lat":42.0010109,"lng":21.4201574}}},{"code":"DB","country_code":"MK","state_code":"","name":"Debar","geo":{"center":{"lat":41.5266768,"lng":20.5239064},"min":{"lat":41.5266768,"lng":20.5239064},"max":{"lat":41.5266768,"lng":20.5239064}}},{"code":"DE","country_code":"MK","state_code":"","name":"Dolneni","geo":{"center":{"lat":41.425278,"lng":21.454444},"min":{"lat":41.425278,"lng":21.454444},"max":{"lat":41.425278,"lng":21.454444}}},{"code":"DK","country_code":"MK","state_code":"","name":"Demir Kapija","geo":{"center":{"lat":41.411389,"lng":22.242222},"min":{"lat":41.411389,"lng":22.242222},"max":{"lat":41.411389,"lng":22.242222}}},{"code":"DL","country_code":"MK","state_code":"","name":"Delcevo","geo":{"center":{"lat":41.9764,"lng":22.7674},"min":{"lat":41.9764,"lng":22.7674},"max":{"lat":41.9764,"lng":22.7674}}},{"code":"DM","country_code":"MK","state_code":"","name":"Demir Hisar","geo":{"center":{"lat":41.2213604,"lng":21.2025287},"min":{"lat":41.2213604,"lng":21.2025287},"max":{"lat":41.2213604,"lng":21.2025287}}},{"code":"DR","country_code":"MK","state_code":"","name":"Drugovo","geo":{"center":{"lat":41.4408153,"lng":20.9268201},"min":{"lat":41.4408153,"lng":20.9268201},"max":{"lat":41.4408153,"lng":20.9268201}}},{"code":"ET","country_code":"MK","state_code":"","name":"Tetovo","geo":{"center":{"lat":42,"lng":20.966667},"min":{"lat":42,"lng":20.966667},"max":{"lat":42,"lng":20.966667}}},{"code":"GB","country_code":"MK","state_code":"","name":"Gazi Baba *","geo":{"center":{"lat":42.0162961,"lng":21.4991334},"min":{"lat":42.0162961,"lng":21.4991334},"max":{"lat":42.0162961,"lng":21.4991334}}},{"code":"GP","country_code":"MK","state_code":"","name":"Gjorce Petrov *","geo":{"center":{"lat":42.0606374,"lng":21.3202736},"min":{"lat":42.0606374,"lng":21.3202736},"max":{"lat":42.0606374,"lng":21.3202736}}},{"code":"GR","country_code":"MK","state_code":"","name":"Gradsko","geo":{"center":{"lat":41.5750625,"lng":21.9494531},"min":{"lat":41.5750625,"lng":21.9494531},"max":{"lat":41.5750625,"lng":21.9494531}}},{"code":"GT","country_code":"MK","state_code":"","name":"Gostivar","geo":{"center":{"lat":41.8,"lng":20.916667},"min":{"lat":41.8,"lng":20.916667},"max":{"lat":41.8,"lng":20.916667}}},{"code":"GV","country_code":"MK","state_code":"","name":"Gevgelija","geo":{"center":{"lat":41.140278,"lng":22.502778},"min":{"lat":41.140278,"lng":22.502778},"max":{"lat":41.140278,"lng":22.502778}}},{"code":"IL","country_code":"MK","state_code":"","name":"Ilinden","geo":{"center":{"lat":41.99,"lng":21.58},"min":{"lat":41.99,"lng":21.58},"max":{"lat":41.99,"lng":21.58}}},{"code":"JG","country_code":"MK","state_code":"","name":"Jegunovce","geo":{"center":{"lat":42.074072,"lng":21.1220478},"min":{"lat":42.074072,"lng":21.1220478},"max":{"lat":42.074072,"lng":21.1220478}}},{"code":"KB","country_code":"MK","state_code":"","name":"Karbinci","geo":{"center":{"lat":41.8180159,"lng":22.2324758},"min":{"lat":41.8180159,"lng":22.2324758},"max":{"lat":41.8180159,"lng":22.2324758}}},{"code":"KG","country_code":"MK","state_code":"","name":"Krivoga\u0161tani","geo":{"center":{"lat":41.3082306,"lng":21.3679689},"min":{"lat":41.3082306,"lng":21.3679689},"max":{"lat":41.3082306,"lng":21.3679689}}},{"code":"KH","country_code":"MK","state_code":"","name":"Kicevo","geo":{"center":{"lat":41.5158412,"lng":20.9586619},"min":{"lat":41.5158412,"lng":20.9586619},"max":{"lat":41.5158412,"lng":20.9586619}}},{"code":"KN","country_code":"MK","state_code":"","name":"Konce","geo":{"center":{"lat":41.4965779,"lng":22.3829526},"min":{"lat":41.4965779,"lng":22.3829526},"max":{"lat":41.4965779,"lng":22.3829526}}},{"code":"KS","country_code":"MK","state_code":"","name":"Kru\u0161evo","geo":{"center":{"lat":41.3801216,"lng":21.2435597},"min":{"lat":41.3801216,"lng":21.2435597},"max":{"lat":41.3801216,"lng":21.2435597}}},{"code":"KX","country_code":"MK","state_code":"","name":"Karpo\u0161 *","geo":{"center":{"lat":42.156389,"lng":21.741111},"min":{"lat":42.156389,"lng":21.741111},"max":{"lat":42.156389,"lng":21.741111}}},{"code":"KY","country_code":"MK","state_code":"","name":"Kratovo","geo":{"center":{"lat":42.0800379,"lng":22.1802799},"min":{"lat":42.0800379,"lng":22.1802799},"max":{"lat":42.0800379,"lng":22.1802799}}},{"code":"KZ","country_code":"MK","state_code":"","name":"Kriva Palanka","geo":{"center":{"lat":42.2058454,"lng":22.3307965},"min":{"lat":42.2058454,"lng":22.3307965},"max":{"lat":42.2058454,"lng":22.3307965}}},{"code":"LI","country_code":"MK","state_code":"","name":"Lipkovo","geo":{"center":{"lat":42.1561352,"lng":21.5870744},"min":{"lat":42.1561352,"lng":21.5870744},"max":{"lat":42.1561352,"lng":21.5870744}}},{"code":"LO","country_code":"MK","state_code":"","name":"Lozovo","geo":{"center":{"lat":41.780833,"lng":21.901111},"min":{"lat":41.780833,"lng":21.901111},"max":{"lat":41.780833,"lng":21.901111}}},{"code":"MD","country_code":"MK","state_code":"","name":"Makedonski Brod","geo":{"center":{"lat":41.5133088,"lng":21.2174329},"min":{"lat":41.5133088,"lng":21.2174329},"max":{"lat":41.5133088,"lng":21.2174329}}},{"code":"MG","country_code":"MK","state_code":"","name":"Mogila","geo":{"center":{"lat":41.108056,"lng":21.378333},"min":{"lat":41.108056,"lng":21.378333},"max":{"lat":41.108056,"lng":21.378333}}},{"code":"MK","country_code":"MK","state_code":"","name":"Makedonska Kamenica","geo":{"center":{"lat":42.019722,"lng":22.591667},"min":{"lat":42.019722,"lng":22.591667},"max":{"lat":42.019722,"lng":22.591667}}},{"code":"MR","country_code":"MK","state_code":"","name":"Mavrovo-i-Rostu\u0161a","geo":{"center":{"lat":41.65,"lng":20.733333},"min":{"lat":41.65,"lng":20.733333},"max":{"lat":41.65,"lng":20.733333}}},{"code":"NA","country_code":"MK","state_code":"","name":"Staro Nagoricane","geo":{"center":{"lat":42.2,"lng":21.833333},"min":{"lat":42.2,"lng":21.833333},"max":{"lat":42.2,"lng":21.833333}}},{"code":"NG","country_code":"MK","state_code":"","name":"Negotino","geo":{"center":{"lat":41.4989985,"lng":22.0953297},"min":{"lat":41.4989985,"lng":22.0953297},"max":{"lat":41.4989985,"lng":22.0953297}}},{"code":"NI","country_code":"MK","state_code":"","name":"Vinica","geo":{"center":{"lat":49.233083,"lng":28.468217},"min":{"lat":49.233083,"lng":28.468217},"max":{"lat":49.233083,"lng":28.468217}}},{"code":"NS","country_code":"MK","state_code":"","name":"Novo Selo","geo":{"center":{"lat":41.413889,"lng":22.880833},"min":{"lat":41.413889,"lng":22.880833},"max":{"lat":41.413889,"lng":22.880833}}},{"code":"NV","country_code":"MK","state_code":"","name":"Novaci","geo":{"center":{"lat":45.18,"lng":23.67},"min":{"lat":45.18,"lng":23.67},"max":{"lat":45.18,"lng":23.67}}},{"code":"OC","country_code":"MK","state_code":"","name":"Kocani","geo":{"center":{"lat":41.9168048,"lng":22.4082849},"min":{"lat":41.9168048,"lng":22.4082849},"max":{"lat":41.9168048,"lng":22.4082849}}},{"code":"OD","country_code":"MK","state_code":"","name":"Ohrid","geo":{"center":{"lat":41.1230977,"lng":20.8016481},"min":{"lat":41.1230977,"lng":20.8016481},"max":{"lat":41.1230977,"lng":20.8016481}}},{"code":"OS","country_code":"MK","state_code":"","name":"Oslomej","geo":{"center":{"lat":41.5758391,"lng":21.022196},"min":{"lat":41.5758391,"lng":21.022196},"max":{"lat":41.5758391,"lng":21.022196}}},{"code":"PE","country_code":"MK","state_code":"","name":"Petrovec","geo":{"center":{"lat":41.933333,"lng":21.616667},"min":{"lat":41.933333,"lng":21.616667},"max":{"lat":41.933333,"lng":21.616667}}},{"code":"PH","country_code":"MK","state_code":"","name":"Pehcevo","geo":{"center":{"lat":41.76,"lng":22.88},"min":{"lat":41.76,"lng":22.88},"max":{"lat":41.76,"lng":22.88}}},{"code":"PN","country_code":"MK","state_code":"","name":"Plasnica","geo":{"center":{"lat":41.4546349,"lng":21.1056539},"min":{"lat":41.4546349,"lng":21.1056539},"max":{"lat":41.4546349,"lng":21.1056539}}},{"code":"PP","country_code":"MK","state_code":"","name":"Prilep","geo":{"center":{"lat":41.344444,"lng":21.552778},"min":{"lat":41.344444,"lng":21.552778},"max":{"lat":41.344444,"lng":21.552778}}},{"code":"PT","country_code":"MK","state_code":"","name":"Probi\u0161tip","geo":{"center":{"lat":41.9948176,"lng":22.1877315},"min":{"lat":41.9948176,"lng":22.1877315},"max":{"lat":41.9948176,"lng":22.1877315}}},{"code":"RE","country_code":"MK","state_code":"","name":"Resen","geo":{"center":{"lat":41.0889,"lng":21.0122},"min":{"lat":41.0889,"lng":21.0122},"max":{"lat":41.0889,"lng":21.0122}}},{"code":"RM","country_code":"MK","state_code":"","name":"Rosoman","geo":{"center":{"lat":41.4848006,"lng":21.8807064},"min":{"lat":41.4848006,"lng":21.8807064},"max":{"lat":41.4848006,"lng":21.8807064}}},{"code":"RN","country_code":"MK","state_code":"","name":"Rankovce","geo":{"center":{"lat":42.1695387,"lng":22.116195},"min":{"lat":42.1695387,"lng":22.116195},"max":{"lat":42.1695387,"lng":22.116195}}},{"code":"RU","country_code":"MK","state_code":"","name":"Strumica","geo":{"center":{"lat":41.4378004,"lng":22.6427428},"min":{"lat":41.4378004,"lng":22.6427428},"max":{"lat":41.4378004,"lng":22.6427428}}},{"code":"RV","country_code":"MK","state_code":"","name":"Radovi\u0161","geo":{"center":{"lat":41.636111,"lng":22.466667},"min":{"lat":41.636111,"lng":22.466667},"max":{"lat":41.636111,"lng":22.466667}}},{"code":"SD","country_code":"MK","state_code":"","name":"Dojran","geo":{"center":{"lat":41.2436672,"lng":22.6913764},"min":{"lat":41.2436672,"lng":22.6913764},"max":{"lat":41.2436672,"lng":22.6913764}}},{"code":"SL","country_code":"MK","state_code":"","name":"Sveti Nikole","geo":{"center":{"lat":41.866667,"lng":21.95},"min":{"lat":41.866667,"lng":21.95},"max":{"lat":41.866667,"lng":21.95}}},{"code":"SO","country_code":"MK","state_code":"","name":"\u0160uto Orizari *","geo":{"center":{"lat":42.0290416,"lng":21.4097027},"min":{"lat":42.0290416,"lng":21.4097027},"max":{"lat":42.0290416,"lng":21.4097027}}},{"code":"SS","country_code":"MK","state_code":"","name":"Sopi\u0161te","geo":{"center":{"lat":41.9500453,"lng":21.4201362},"min":{"lat":41.9500453,"lng":21.4201362},"max":{"lat":41.9500453,"lng":21.4201362}}},{"code":"ST","country_code":"MK","state_code":"","name":"\u0160tip","geo":{"center":{"lat":41.737503,"lng":22.193558},"min":{"lat":41.737503,"lng":22.193558},"max":{"lat":41.737503,"lng":22.193558}}},{"code":"SU","country_code":"MK","state_code":"","name":"Studenicani","geo":{"center":{"lat":41.9225639,"lng":21.5363965},"min":{"lat":41.9225639,"lng":21.5363965},"max":{"lat":41.9225639,"lng":21.5363965}}},{"code":"TL","country_code":"MK","state_code":"","name":"Bitola","geo":{"center":{"lat":41.031944,"lng":21.334722},"min":{"lat":41.031944,"lng":21.334722},"max":{"lat":41.031944,"lng":21.334722}}},{"code":"TR","country_code":"MK","state_code":"","name":"Tearce","geo":{"center":{"lat":42.0777511,"lng":21.0534923},"min":{"lat":42.0777511,"lng":21.0534923},"max":{"lat":42.0777511,"lng":21.0534923}}},{"code":"UG","country_code":"MK","state_code":"","name":"Struga","geo":{"center":{"lat":41.1778353,"lng":20.6783258},"min":{"lat":41.1778353,"lng":20.6783258},"max":{"lat":41.1778353,"lng":20.6783258}}},{"code":"UM","country_code":"MK","state_code":"","name":"Kumanovo","geo":{"center":{"lat":42.135833,"lng":21.718056},"min":{"lat":42.135833,"lng":21.718056},"max":{"lat":42.135833,"lng":21.718056}}},{"code":"VA","country_code":"MK","state_code":"","name":"Valandovo","geo":{"center":{"lat":41.316944,"lng":22.561111},"min":{"lat":41.316944,"lng":22.561111},"max":{"lat":41.316944,"lng":22.561111}}},{"code":"VC","country_code":"MK","state_code":"","name":"Vrane\u0161tica","geo":{"center":{"lat":41.4453257,"lng":21.0259217},"min":{"lat":41.4453257,"lng":21.0259217},"max":{"lat":41.4453257,"lng":21.0259217}}},{"code":"VD","country_code":"MK","state_code":"","name":"Kisela Voda *","geo":{"center":{"lat":41.92748,"lng":21.4931713},"min":{"lat":41.92748,"lng":21.4931713},"max":{"lat":41.92748,"lng":21.4931713}}},{"code":"VE","country_code":"MK","state_code":"","name":"Veles","geo":{"center":{"lat":41.7138462,"lng":21.7704092},"min":{"lat":41.7138462,"lng":21.7704092},"max":{"lat":41.7138462,"lng":21.7704092}}},{"code":"VH","country_code":"MK","state_code":"","name":"Vrapci\u0161te","geo":{"center":{"lat":41.8384178,"lng":20.8858003},"min":{"lat":41.8384178,"lng":20.8858003},"max":{"lat":41.8384178,"lng":20.8858003}}},{"code":"VJ","country_code":"MK","state_code":"","name":"Bogovinje","geo":{"center":{"lat":41.9236371,"lng":20.9163887},"min":{"lat":41.9236371,"lng":20.9163887},"max":{"lat":41.9236371,"lng":20.9163887}}},{"code":"VL","country_code":"MK","state_code":"","name":"Vasilevo","geo":{"center":{"lat":41.5201985,"lng":22.6437026},"min":{"lat":41.5201985,"lng":22.6437026},"max":{"lat":41.5201985,"lng":22.6437026}}},{"code":"VV","country_code":"MK","state_code":"","name":"Vevcani","geo":{"center":{"lat":41.2403,"lng":20.5931},"min":{"lat":41.2403,"lng":20.5931},"max":{"lat":41.2403,"lng":20.5931}}},{"code":"X1~","country_code":"MK","state_code":"","name":"Skopje","geo":{"center":{"lat":41.9973462,"lng":21.4279956},"min":{"lat":41.9973462,"lng":21.4279956},"max":{"lat":41.9973462,"lng":21.4279956}}},{"code":"ZA","country_code":"MK","state_code":"","name":"Zajas","geo":{"center":{"lat":41.6030328,"lng":20.8791343},"min":{"lat":41.6030328,"lng":20.8791343},"max":{"lat":41.6030328,"lng":20.8791343}}},{"code":"ZE","country_code":"MK","state_code":"","name":"\u017delino","geo":{"center":{"lat":41.9803419,"lng":21.0609438},"min":{"lat":41.9803419,"lng":21.0609438},"max":{"lat":41.9803419,"lng":21.0609438}}},{"code":"ZK","country_code":"MK","state_code":"","name":"Zelenikovo","geo":{"center":{"lat":41.8733812,"lng":21.602725},"min":{"lat":41.8733812,"lng":21.602725},"max":{"lat":41.8733812,"lng":21.602725}}},{"code":"ZR","country_code":"MK","state_code":"","name":"Zrnovci","geo":{"center":{"lat":41.8228221,"lng":22.4172256},"min":{"lat":41.8228221,"lng":22.4172256},"max":{"lat":41.8228221,"lng":22.4172256}}}]