[{"code":1,"country_code":"ML","state_code":"","name":"Kayes","geo":{"center":{"lat":14.4367876,"lng":-11.4452717},"min":{"lat":14.4367876,"lng":-11.4452717},"max":{"lat":14.4367876,"lng":-11.4452717}}},{"code":2,"country_code":"ML","state_code":"","name":"Koulikoro","geo":{"center":{"lat":12.861111,"lng":-7.558333},"min":{"lat":12.861111,"lng":-7.558333},"max":{"lat":12.861111,"lng":-7.558333}}},{"code":3,"country_code":"ML","state_code":"","name":"Sikasso","geo":{"center":{"lat":11.316667,"lng":-5.666667},"min":{"lat":11.316667,"lng":-5.666667},"max":{"lat":11.316667,"lng":-5.666667}}},{"code":4,"country_code":"ML","state_code":"","name":"S\u00e9gou","geo":{"center":{"lat":13.45,"lng":-6.266667},"min":{"lat":13.45,"lng":-6.266667},"max":{"lat":13.45,"lng":-6.266667}}},{"code":5,"country_code":"ML","state_code":"","name":"Mopti","geo":{"center":{"lat":14.495833,"lng":-4.198611},"min":{"lat":14.495833,"lng":-4.198611},"max":{"lat":14.495833,"lng":-4.198611}}},{"code":6,"country_code":"ML","state_code":"","name":"Tombouctou","geo":{"center":{"lat":16.7665887,"lng":-3.0025615},"min":{"lat":16.7665887,"lng":-3.0025615},"max":{"lat":16.7665887,"lng":-3.0025615}}},{"code":7,"country_code":"ML","state_code":"","name":"Gao","geo":{"center":{"lat":16.2639807,"lng":-0.0279867},"min":{"lat":16.2639807,"lng":-0.0279867},"max":{"lat":16.2639807,"lng":-0.0279867}}},{"code":8,"country_code":"ML","state_code":"","name":"Kidal","geo":{"center":{"lat":18.438889,"lng":1.408333},"min":{"lat":18.438889,"lng":1.408333},"max":{"lat":18.438889,"lng":1.408333}}},{"code":"BKO","country_code":"ML","state_code":"","name":"Bamako","geo":{"center":{"lat":12.65,"lng":-8},"min":{"lat":12.65,"lng":-8},"max":{"lat":12.65,"lng":-8}}}]