[{"code":"01","country_code":"MT","state_code":"","name":"Attard","geo":{"center":{"lat":35.892778,"lng":14.438333},"min":{"lat":35.892778,"lng":14.438333},"max":{"lat":35.892778,"lng":14.438333}}},{"code":"02","country_code":"MT","state_code":"","name":"Balzan","geo":{"center":{"lat":35.898056,"lng":14.453333},"min":{"lat":35.898056,"lng":14.453333},"max":{"lat":35.898056,"lng":14.453333}}},{"code":"03","country_code":"MT","state_code":"","name":"Birgu","geo":{"center":{"lat":35.888056,"lng":14.5225},"min":{"lat":35.888056,"lng":14.5225},"max":{"lat":35.888056,"lng":14.5225}}},{"code":"04","country_code":"MT","state_code":"","name":"Birkirkara","geo":{"center":{"lat":35.896667,"lng":14.4625},"min":{"lat":35.896667,"lng":14.4625},"max":{"lat":35.896667,"lng":14.4625}}},{"code":"05","country_code":"MT","state_code":"","name":"Bir\u017cebbu\u0121a","geo":{"center":{"lat":35.825556,"lng":14.528056},"min":{"lat":35.825556,"lng":14.528056},"max":{"lat":35.825556,"lng":14.528056}}},{"code":"06","country_code":"MT","state_code":"","name":"Bormla","geo":{"center":{"lat":35.882222,"lng":14.522222},"min":{"lat":35.882222,"lng":14.522222},"max":{"lat":35.882222,"lng":14.522222}}},{"code":"07","country_code":"MT","state_code":"","name":"Dingli","geo":{"center":{"lat":35.860278,"lng":14.381389},"min":{"lat":35.860278,"lng":14.381389},"max":{"lat":35.860278,"lng":14.381389}}},{"code":"08","country_code":"MT","state_code":"","name":"Fgura","geo":{"center":{"lat":35.8725,"lng":14.522778},"min":{"lat":35.8725,"lng":14.522778},"max":{"lat":35.8725,"lng":14.522778}}},{"code":"09","country_code":"MT","state_code":"","name":"Floriana","geo":{"center":{"lat":35.893333,"lng":14.505833},"min":{"lat":35.893333,"lng":14.505833},"max":{"lat":35.893333,"lng":14.505833}}},{"code":10,"country_code":"MT","state_code":"","name":"Fontana","geo":{"center":{"lat":36.0369053,"lng":14.2352339},"min":{"lat":36.0369053,"lng":14.2352339},"max":{"lat":36.0369053,"lng":14.2352339}}},{"code":11,"country_code":"MT","state_code":"","name":"Gudja","geo":{"center":{"lat":35.848333,"lng":14.5025},"min":{"lat":35.848333,"lng":14.5025},"max":{"lat":35.848333,"lng":14.5025}}},{"code":12,"country_code":"MT","state_code":"","name":"G\u017cira","geo":{"center":{"lat":35.905897,"lng":14.4953338},"min":{"lat":35.905897,"lng":14.4953338},"max":{"lat":35.905897,"lng":14.4953338}}},{"code":13,"country_code":"MT","state_code":"","name":"G\u0127ajnsielem","geo":{"center":{"lat":36.026944,"lng":14.290278},"min":{"lat":36.026944,"lng":14.290278},"max":{"lat":36.026944,"lng":14.290278}}},{"code":14,"country_code":"MT","state_code":"","name":"G\u0127arb","geo":{"center":{"lat":36.061111,"lng":14.209167},"min":{"lat":36.061111,"lng":14.209167},"max":{"lat":36.061111,"lng":14.209167}}},{"code":15,"country_code":"MT","state_code":"","name":"G\u0127arg\u0127ur","geo":{"center":{"lat":35.924069,"lng":14.453372},"min":{"lat":35.924069,"lng":14.453372},"max":{"lat":35.924069,"lng":14.453372}}},{"code":16,"country_code":"MT","state_code":"","name":"G\u0127asri","geo":{"center":{"lat":36.058333,"lng":14.227778},"min":{"lat":36.058333,"lng":14.227778},"max":{"lat":36.058333,"lng":14.227778}}},{"code":17,"country_code":"MT","state_code":"","name":"G\u0127axaq","geo":{"center":{"lat":35.848333,"lng":14.517222},"min":{"lat":35.848333,"lng":14.517222},"max":{"lat":35.848333,"lng":14.517222}}},{"code":18,"country_code":"MT","state_code":"","name":"\u0126amrun","geo":{"center":{"lat":35.886111,"lng":14.489444},"min":{"lat":35.886111,"lng":14.489444},"max":{"lat":35.886111,"lng":14.489444}}},{"code":19,"country_code":"MT","state_code":"","name":"Iklin","geo":{"center":{"lat":35.904167,"lng":14.454444},"min":{"lat":35.904167,"lng":14.454444},"max":{"lat":35.904167,"lng":14.454444}}},{"code":20,"country_code":"MT","state_code":"","name":"Isla","geo":{"center":{"lat":35.887778,"lng":14.516944},"min":{"lat":35.887778,"lng":14.516944},"max":{"lat":35.887778,"lng":14.516944}}},{"code":21,"country_code":"MT","state_code":"","name":"Kalkara","geo":{"center":{"lat":35.889167,"lng":14.529444},"min":{"lat":35.889167,"lng":14.529444},"max":{"lat":35.889167,"lng":14.529444}}},{"code":22,"country_code":"MT","state_code":"","name":"Ker\u010bem","geo":{"center":{"lat":36.040556,"lng":14.229722},"min":{"lat":36.040556,"lng":14.229722},"max":{"lat":36.040556,"lng":14.229722}}},{"code":23,"country_code":"MT","state_code":"","name":"Kirkop","geo":{"center":{"lat":35.840854,"lng":14.484347},"min":{"lat":35.840854,"lng":14.484347},"max":{"lat":35.840854,"lng":14.484347}}},{"code":24,"country_code":"MT","state_code":"","name":"Lija","geo":{"center":{"lat":35.901389,"lng":14.447222},"min":{"lat":35.901389,"lng":14.447222},"max":{"lat":35.901389,"lng":14.447222}}},{"code":25,"country_code":"MT","state_code":"","name":"Luqa","geo":{"center":{"lat":35.859722,"lng":14.489167},"min":{"lat":35.859722,"lng":14.489167},"max":{"lat":35.859722,"lng":14.489167}}},{"code":26,"country_code":"MT","state_code":"","name":"Marsa","geo":{"center":{"lat":35.883333,"lng":14.494722},"min":{"lat":35.883333,"lng":14.494722},"max":{"lat":35.883333,"lng":14.494722}}},{"code":27,"country_code":"MT","state_code":"","name":"Marsaskala","geo":{"center":{"lat":35.8625,"lng":14.5675},"min":{"lat":35.8625,"lng":14.5675},"max":{"lat":35.8625,"lng":14.5675}}},{"code":28,"country_code":"MT","state_code":"","name":"Marsaxlokk","geo":{"center":{"lat":35.841667,"lng":14.544722},"min":{"lat":35.841667,"lng":14.544722},"max":{"lat":35.841667,"lng":14.544722}}},{"code":29,"country_code":"MT","state_code":"","name":"Mdina","geo":{"center":{"lat":35.885833,"lng":14.403056},"min":{"lat":35.885833,"lng":14.403056},"max":{"lat":35.885833,"lng":14.403056}}},{"code":30,"country_code":"MT","state_code":"","name":"Mellie\u0127a","geo":{"center":{"lat":35.956389,"lng":14.366389},"min":{"lat":35.956389,"lng":14.366389},"max":{"lat":35.956389,"lng":14.366389}}},{"code":31,"country_code":"MT","state_code":"","name":"M\u0121arr","geo":{"center":{"lat":35.919722,"lng":14.366389},"min":{"lat":35.919722,"lng":14.366389},"max":{"lat":35.919722,"lng":14.366389}}},{"code":32,"country_code":"MT","state_code":"","name":"Mosta","geo":{"center":{"lat":35.909722,"lng":14.426111},"min":{"lat":35.909722,"lng":14.426111},"max":{"lat":35.909722,"lng":14.426111}}},{"code":33,"country_code":"MT","state_code":"","name":"Mqabba","geo":{"center":{"lat":35.844167,"lng":14.466944},"min":{"lat":35.844167,"lng":14.466944},"max":{"lat":35.844167,"lng":14.466944}}},{"code":34,"country_code":"MT","state_code":"","name":"Msida","geo":{"center":{"lat":35.897778,"lng":14.489444},"min":{"lat":35.897778,"lng":14.489444},"max":{"lat":35.897778,"lng":14.489444}}},{"code":35,"country_code":"MT","state_code":"","name":"Mtarfa","geo":{"center":{"lat":35.890833,"lng":14.396944},"min":{"lat":35.890833,"lng":14.396944},"max":{"lat":35.890833,"lng":14.396944}}},{"code":36,"country_code":"MT","state_code":"","name":"Munxar","geo":{"center":{"lat":36.030278,"lng":14.235278},"min":{"lat":36.030278,"lng":14.235278},"max":{"lat":36.030278,"lng":14.235278}}},{"code":37,"country_code":"MT","state_code":"","name":"Nadur","geo":{"center":{"lat":36.038056,"lng":14.295},"min":{"lat":36.038056,"lng":14.295},"max":{"lat":36.038056,"lng":14.295}}},{"code":38,"country_code":"MT","state_code":"","name":"Naxxar","geo":{"center":{"lat":35.915,"lng":14.444722},"min":{"lat":35.915,"lng":14.444722},"max":{"lat":35.915,"lng":14.444722}}},{"code":39,"country_code":"MT","state_code":"","name":"Paola","geo":{"center":{"lat":35.872778,"lng":14.5075},"min":{"lat":35.872778,"lng":14.5075},"max":{"lat":35.872778,"lng":14.5075}}},{"code":40,"country_code":"MT","state_code":"","name":"Pembroke","geo":{"center":{"lat":35.926389,"lng":14.480833},"min":{"lat":35.926389,"lng":14.480833},"max":{"lat":35.926389,"lng":14.480833}}},{"code":41,"country_code":"MT","state_code":"","name":"Piet\u00e0","geo":{"center":{"lat":35.893056,"lng":14.493611},"min":{"lat":35.893056,"lng":14.493611},"max":{"lat":35.893056,"lng":14.493611}}},{"code":42,"country_code":"MT","state_code":"","name":"Qala","geo":{"center":{"lat":36.035278,"lng":14.310278},"min":{"lat":36.035278,"lng":14.310278},"max":{"lat":36.035278,"lng":14.310278}}},{"code":43,"country_code":"MT","state_code":"","name":"Qormi","geo":{"center":{"lat":35.879444,"lng":14.472222},"min":{"lat":35.879444,"lng":14.472222},"max":{"lat":35.879444,"lng":14.472222}}},{"code":44,"country_code":"MT","state_code":"","name":"Qrendi","geo":{"center":{"lat":35.834167,"lng":14.458889},"min":{"lat":35.834167,"lng":14.458889},"max":{"lat":35.834167,"lng":14.458889}}},{"code":45,"country_code":"MT","state_code":"","name":"Rabat Gozo","geo":{"center":{"lat":36.043611,"lng":14.243056},"min":{"lat":36.043611,"lng":14.243056},"max":{"lat":36.043611,"lng":14.243056}}},{"code":46,"country_code":"MT","state_code":"","name":"Rabat Malta","geo":{"center":{"lat":35.881667,"lng":14.398889},"min":{"lat":35.881667,"lng":14.398889},"max":{"lat":35.881667,"lng":14.398889}}},{"code":47,"country_code":"MT","state_code":"","name":"Safi","geo":{"center":{"lat":35.833333,"lng":14.485},"min":{"lat":35.833333,"lng":14.485},"max":{"lat":35.833333,"lng":14.485}}},{"code":48,"country_code":"MT","state_code":"","name":"Saint Julian's","geo":{"center":{"lat":35.9181297,"lng":14.4883442},"min":{"lat":35.9181297,"lng":14.4883442},"max":{"lat":35.9181297,"lng":14.4883442}}},{"code":49,"country_code":"MT","state_code":"","name":"Saint John","geo":{"center":{"lat":35.9155231,"lng":14.5008608},"min":{"lat":35.9155231,"lng":14.5008608},"max":{"lat":35.9155231,"lng":14.5008608}}},{"code":50,"country_code":"MT","state_code":"","name":"Saint Lawrence","geo":{"center":{"lat":36.055,"lng":14.204167},"min":{"lat":36.055,"lng":14.204167},"max":{"lat":36.055,"lng":14.204167}}},{"code":51,"country_code":"MT","state_code":"","name":"Saint Paul's Bay","geo":{"center":{"lat":35.948333,"lng":14.401667},"min":{"lat":35.948333,"lng":14.401667},"max":{"lat":35.948333,"lng":14.401667}}},{"code":52,"country_code":"MT","state_code":"","name":"Sannat","geo":{"center":{"lat":36.024444,"lng":14.245833},"min":{"lat":36.024444,"lng":14.245833},"max":{"lat":36.024444,"lng":14.245833}}},{"code":53,"country_code":"MT","state_code":"","name":"Saint Lucia's","geo":{"center":{"lat":35.8982574,"lng":14.5126109},"min":{"lat":35.8982574,"lng":14.5126109},"max":{"lat":35.8982574,"lng":14.5126109}}},{"code":54,"country_code":"MT","state_code":"","name":"Santa Venera","geo":{"center":{"lat":35.889722,"lng":14.477778},"min":{"lat":35.889722,"lng":14.477778},"max":{"lat":35.889722,"lng":14.477778}}},{"code":55,"country_code":"MT","state_code":"","name":"Si\u0121\u0121iewi","geo":{"center":{"lat":35.854167,"lng":14.438333},"min":{"lat":35.854167,"lng":14.438333},"max":{"lat":35.854167,"lng":14.438333}}},{"code":56,"country_code":"MT","state_code":"","name":"Sliema","geo":{"center":{"lat":35.912222,"lng":14.504167},"min":{"lat":35.912222,"lng":14.504167},"max":{"lat":35.912222,"lng":14.504167}}},{"code":57,"country_code":"MT","state_code":"","name":"Swieqi","geo":{"center":{"lat":35.920833,"lng":14.48},"min":{"lat":35.920833,"lng":14.48},"max":{"lat":35.920833,"lng":14.48}}},{"code":58,"country_code":"MT","state_code":"","name":"Ta' Xbiex","geo":{"center":{"lat":35.899167,"lng":14.498056},"min":{"lat":35.899167,"lng":14.498056},"max":{"lat":35.899167,"lng":14.498056}}},{"code":59,"country_code":"MT","state_code":"","name":"Tarxien","geo":{"center":{"lat":35.865833,"lng":14.511944},"min":{"lat":35.865833,"lng":14.511944},"max":{"lat":35.865833,"lng":14.511944}}},{"code":60,"country_code":"MT","state_code":"","name":"Valletta","geo":{"center":{"lat":35.8989085,"lng":14.5145528},"min":{"lat":35.8989085,"lng":14.5145528},"max":{"lat":35.8989085,"lng":14.5145528}}},{"code":61,"country_code":"MT","state_code":"","name":"Xag\u0127ra","geo":{"center":{"lat":36.050278,"lng":14.2675},"min":{"lat":36.050278,"lng":14.2675},"max":{"lat":36.050278,"lng":14.2675}}},{"code":62,"country_code":"MT","state_code":"","name":"Xewkija","geo":{"center":{"lat":36.033009,"lng":14.26234},"min":{"lat":36.033009,"lng":14.26234},"max":{"lat":36.033009,"lng":14.26234}}},{"code":63,"country_code":"MT","state_code":"","name":"Xg\u0127ajra","geo":{"center":{"lat":35.8868282,"lng":14.5472391},"min":{"lat":35.8868282,"lng":14.5472391},"max":{"lat":35.8868282,"lng":14.5472391}}},{"code":64,"country_code":"MT","state_code":"","name":"\u017babbar","geo":{"center":{"lat":35.877222,"lng":14.538056},"min":{"lat":35.877222,"lng":14.538056},"max":{"lat":35.877222,"lng":14.538056}}},{"code":65,"country_code":"MT","state_code":"","name":"\u017bebbu\u0121 Gozo","geo":{"center":{"lat":36.070833,"lng":14.236944},"min":{"lat":36.070833,"lng":14.236944},"max":{"lat":36.070833,"lng":14.236944}}},{"code":66,"country_code":"MT","state_code":"","name":"\u017bebbu\u0121 Malta","geo":{"center":{"lat":35.873056,"lng":14.441944},"min":{"lat":35.873056,"lng":14.441944},"max":{"lat":35.873056,"lng":14.441944}}},{"code":67,"country_code":"MT","state_code":"","name":"\u017bejtun","geo":{"center":{"lat":35.855556,"lng":14.533333},"min":{"lat":35.855556,"lng":14.533333},"max":{"lat":35.855556,"lng":14.533333}}},{"code":68,"country_code":"MT","state_code":"","name":"\u017burrieq","geo":{"center":{"lat":35.829167,"lng":14.475833},"min":{"lat":35.829167,"lng":14.475833},"max":{"lat":35.829167,"lng":14.475833}}}]