[{"code":"AG","country_code":"MU","state_code":"","name":"Agalega Islands","geo":{"center":{"lat":-10.4681988,"lng":56.690672},"min":{"lat":-10.4681988,"lng":56.690672},"max":{"lat":-10.4681988,"lng":56.690672}}},{"code":"BL","country_code":"MU","state_code":"","name":"Black River","geo":{"center":{"lat":-20.34756,"lng":57.3651898},"min":{"lat":-20.34756,"lng":57.3651898},"max":{"lat":-20.34756,"lng":57.3651898}}},{"code":"BR","country_code":"MU","state_code":"","name":"Beau Bassin-Rose Hill","geo":{"center":{"lat":-20.239806,"lng":57.471694},"min":{"lat":-20.239806,"lng":57.471694},"max":{"lat":-20.239806,"lng":57.471694}}},{"code":"CC","country_code":"MU","state_code":"","name":"Cargados Carajos Shoals [Saint Brandon Islands]","geo":{"center":{"lat":-16.6333333,"lng":59.6333333},"min":{"lat":-16.6333333,"lng":59.6333333},"max":{"lat":-16.6333333,"lng":59.6333333}}},{"code":"CU","country_code":"MU","state_code":"","name":"Curepipe","geo":{"center":{"lat":-20.3170872,"lng":57.5265289},"min":{"lat":-20.3170872,"lng":57.5265289},"max":{"lat":-20.3170872,"lng":57.5265289}}},{"code":"FL","country_code":"MU","state_code":"","name":"Flacq","geo":{"center":{"lat":-20.2257836,"lng":57.7119274},"min":{"lat":-20.2257836,"lng":57.7119274},"max":{"lat":-20.2257836,"lng":57.7119274}}},{"code":"GP","country_code":"MU","state_code":"","name":"Grand Port","geo":{"center":{"lat":-20.3851546,"lng":57.6665742},"min":{"lat":-20.3851546,"lng":57.6665742},"max":{"lat":-20.3851546,"lng":57.6665742}}},{"code":"MO","country_code":"MU","state_code":"","name":"Moka","geo":{"center":{"lat":-20.219,"lng":57.496},"min":{"lat":-20.219,"lng":57.496},"max":{"lat":-20.219,"lng":57.496}}},{"code":"PA","country_code":"MU","state_code":"","name":"Pamplemousses","geo":{"center":{"lat":-20.116667,"lng":57.583333},"min":{"lat":-20.116667,"lng":57.583333},"max":{"lat":-20.116667,"lng":57.583333}}},{"code":"PL","country_code":"MU","state_code":"","name":"Port Louis City","geo":{"center":{"lat":-20.166667,"lng":57.516667},"min":{"lat":-20.166667,"lng":57.516667},"max":{"lat":-20.166667,"lng":57.516667}}},{"code":"PU","country_code":"MU","state_code":"","name":"Port Louis District","geo":{"center":{"lat":-20.166667,"lng":57.516667},"min":{"lat":-20.166667,"lng":57.516667},"max":{"lat":-20.166667,"lng":57.516667}}},{"code":"PW","country_code":"MU","state_code":"","name":"Plaines Wilhems","geo":{"center":{"lat":-20.3054872,"lng":57.4853561},"min":{"lat":-20.3054872,"lng":57.4853561},"max":{"lat":-20.3054872,"lng":57.4853561}}},{"code":"QB","country_code":"MU","state_code":"","name":"Quatre Bornes","geo":{"center":{"lat":-20.265358,"lng":57.479053},"min":{"lat":-20.265358,"lng":57.479053},"max":{"lat":-20.265358,"lng":57.479053}}},{"code":"RO","country_code":"MU","state_code":"","name":"Rodrigues Island","geo":{"center":{"lat":-19.7245385,"lng":63.4272185},"min":{"lat":-19.7245385,"lng":63.4272185},"max":{"lat":-19.7245385,"lng":63.4272185}}},{"code":"RR","country_code":"MU","state_code":"","name":"Rivi\u00e8re du Rempart","geo":{"center":{"lat":-20.0905351,"lng":57.6949177},"min":{"lat":-20.0905351,"lng":57.6949177},"max":{"lat":-20.0905351,"lng":57.6949177}}},{"code":"SA","country_code":"MU","state_code":"","name":"Savanne","geo":{"center":{"lat":-20.473953,"lng":57.4853561},"min":{"lat":-20.473953,"lng":57.4853561},"max":{"lat":-20.473953,"lng":57.4853561}}},{"code":"VP","country_code":"MU","state_code":"","name":"Vacoas-Phoenix","geo":{"center":{"lat":-20.300047,"lng":57.474508},"min":{"lat":-20.300047,"lng":57.474508},"max":{"lat":-20.300047,"lng":57.474508}}}]