[{"code":"01","country_code":"MV","state_code":"","name":"Seenu","geo":{"center":{"lat":-0.6413,"lng":73.158},"min":{"lat":-0.6413,"lng":73.158},"max":{"lat":-0.6413,"lng":73.158}}},{"code":"02","country_code":"MV","state_code":"","name":"Alif","geo":{"center":{"lat":6.8974984,"lng":73.2285119},"min":{"lat":6.8974984,"lng":73.2285119},"max":{"lat":6.8974984,"lng":73.2285119}}},{"code":"03","country_code":"MV","state_code":"","name":"Lhaviyani","geo":{"center":{"lat":5.4039702,"lng":73.6444762},"min":{"lat":5.4039702,"lng":73.6444762},"max":{"lat":5.4039702,"lng":73.6444762}}},{"code":"04","country_code":"MV","state_code":"","name":"Vaavu","geo":{"center":{"lat":3.6846389,"lng":73.4002915},"min":{"lat":3.6846389,"lng":73.4002915},"max":{"lat":3.6846389,"lng":73.4002915}}},{"code":"05","country_code":"MV","state_code":"","name":"Laamu","geo":{"center":{"lat":1.9772276,"lng":73.536101},"min":{"lat":1.9772276,"lng":73.536101},"max":{"lat":1.9772276,"lng":73.536101}}},{"code":"07","country_code":"MV","state_code":"","name":"Haa Alif","geo":{"center":{"lat":6.8974984,"lng":73.2285119},"min":{"lat":6.8974984,"lng":73.2285119},"max":{"lat":6.8974984,"lng":73.2285119}}},{"code":"08","country_code":"MV","state_code":"","name":"Thaa","geo":{"center":{"lat":2.209209,"lng":73.1494617},"min":{"lat":2.209209,"lng":73.1494617},"max":{"lat":2.209209,"lng":73.1494617}}},{"code":12,"country_code":"MV","state_code":"","name":"Meemu","geo":{"center":{"lat":2.7854064,"lng":73.4262142},"min":{"lat":2.7854064,"lng":73.4262142},"max":{"lat":2.7854064,"lng":73.4262142}}},{"code":13,"country_code":"MV","state_code":"","name":"Raa","geo":{"center":{"lat":5.4633655,"lng":73.0347272},"min":{"lat":5.4633655,"lng":73.0347272},"max":{"lat":5.4633655,"lng":73.0347272}}},{"code":14,"country_code":"MV","state_code":"","name":"Faafu","geo":{"center":{"lat":3.0558963,"lng":72.8889301},"min":{"lat":3.0558963,"lng":72.8889301},"max":{"lat":3.0558963,"lng":72.8889301}}},{"code":17,"country_code":"MV","state_code":"","name":"Dhaalu","geo":{"center":{"lat":2.6965009,"lng":72.8630855},"min":{"lat":2.6965009,"lng":72.8630855},"max":{"lat":2.6965009,"lng":72.8630855}}},{"code":20,"country_code":"MV","state_code":"","name":"Baa","geo":{"center":{"lat":4.8709599,"lng":72.9998211},"min":{"lat":4.8709599,"lng":72.9998211},"max":{"lat":4.8709599,"lng":72.9998211}}},{"code":23,"country_code":"MV","state_code":"","name":"Haa Dhaalu","geo":{"center":{"lat":6.7513737,"lng":73.1660834},"min":{"lat":6.7513737,"lng":73.1660834},"max":{"lat":6.7513737,"lng":73.1660834}}},{"code":24,"country_code":"MV","state_code":"","name":"Shaviyani","geo":{"center":{"lat":6.2869456,"lng":73.2445073},"min":{"lat":6.2869456,"lng":73.2445073},"max":{"lat":6.2869456,"lng":73.2445073}}},{"code":25,"country_code":"MV","state_code":"","name":"Noonu","geo":{"center":{"lat":5.9523854,"lng":73.4151346},"min":{"lat":5.9523854,"lng":73.4151346},"max":{"lat":5.9523854,"lng":73.4151346}}},{"code":26,"country_code":"MV","state_code":"","name":"Kaafu","geo":{"center":{"lat":4.9570016,"lng":73.4595787},"min":{"lat":4.9570016,"lng":73.4595787},"max":{"lat":4.9570016,"lng":73.4595787}}},{"code":27,"country_code":"MV","state_code":"","name":"Gaaf Alif","geo":{"center":{"lat":0.7593605,"lng":73.4330865},"min":{"lat":0.7593605,"lng":73.4330865},"max":{"lat":0.7593605,"lng":73.4330865}}},{"code":28,"country_code":"MV","state_code":"","name":"Gaafu Dhaalu","geo":{"center":{"lat":0.2751533,"lng":73.435831},"min":{"lat":0.2751533,"lng":73.435831},"max":{"lat":0.2751533,"lng":73.435831}}},{"code":29,"country_code":"MV","state_code":"","name":"Gnaviyani","geo":{"center":{"lat":-0.3006425,"lng":73.4239143},"min":{"lat":-0.3006425,"lng":73.4239143},"max":{"lat":-0.3006425,"lng":73.4239143}}},{"code":"MLE","country_code":"MV","state_code":"","name":"Male","geo":{"center":{"lat":4.1754959,"lng":73.5093474},"min":{"lat":4.1754959,"lng":73.5093474},"max":{"lat":4.1754959,"lng":73.5093474}}},{"code":"X1~","country_code":"MV","state_code":"","name":"Alif Dhaal","geo":{"center":{"lat":3.7575044,"lng":72.9669099},"min":{"lat":3.7575044,"lng":72.9669099},"max":{"lat":3.7575044,"lng":72.9669099}}}]