[{"code":"BA","country_code":"MW","state_code":"","name":"Balaka","geo":{"center":{"lat":-14.9876054,"lng":34.9561748},"min":{"lat":-14.9876054,"lng":34.9561748},"max":{"lat":-14.9876054,"lng":34.9561748}}},{"code":"BL","country_code":"MW","state_code":"","name":"Blantyre","geo":{"center":{"lat":-15.786111,"lng":35.005833},"min":{"lat":-15.786111,"lng":35.005833},"max":{"lat":-15.786111,"lng":35.005833}}},{"code":"CK","country_code":"MW","state_code":"","name":"Chikwawa","geo":{"center":{"lat":-16.035,"lng":34.801},"min":{"lat":-16.035,"lng":34.801},"max":{"lat":-16.035,"lng":34.801}}},{"code":"CR","country_code":"MW","state_code":"","name":"Chiradzulu","geo":{"center":{"lat":-15.6759485,"lng":35.1406293},"min":{"lat":-15.6759485,"lng":35.1406293},"max":{"lat":-15.6759485,"lng":35.1406293}}},{"code":"CT","country_code":"MW","state_code":"","name":"Chitipa","geo":{"center":{"lat":-9.7037655,"lng":33.2700253},"min":{"lat":-9.7037655,"lng":33.2700253},"max":{"lat":-9.7037655,"lng":33.2700253}}},{"code":"DE","country_code":"MW","state_code":"","name":"Dedza","geo":{"center":{"lat":-14.3816618,"lng":34.3254842},"min":{"lat":-14.3816618,"lng":34.3254842},"max":{"lat":-14.3816618,"lng":34.3254842}}},{"code":"DO","country_code":"MW","state_code":"","name":"Dowa","geo":{"center":{"lat":-13.6514687,"lng":33.9359756},"min":{"lat":-13.6514687,"lng":33.9359756},"max":{"lat":-13.6514687,"lng":33.9359756}}},{"code":"KR","country_code":"MW","state_code":"","name":"Karonga","geo":{"center":{"lat":-9.933333,"lng":33.933333},"min":{"lat":-9.933333,"lng":33.933333},"max":{"lat":-9.933333,"lng":33.933333}}},{"code":"KS","country_code":"MW","state_code":"","name":"Kasungu","geo":{"center":{"lat":-13.033333,"lng":33.483333},"min":{"lat":-13.033333,"lng":33.483333},"max":{"lat":-13.033333,"lng":33.483333}}},{"code":"LI","country_code":"MW","state_code":"","name":"Lilongwe","geo":{"center":{"lat":-13.983333,"lng":33.783333},"min":{"lat":-13.983333,"lng":33.783333},"max":{"lat":-13.983333,"lng":33.783333}}},{"code":"LK","country_code":"MW","state_code":"","name":"Likoma Island","geo":{"center":{"lat":-12.0584005,"lng":34.7354031},"min":{"lat":-12.0584005,"lng":34.7354031},"max":{"lat":-12.0584005,"lng":34.7354031}}},{"code":"MC","country_code":"MW","state_code":"","name":"Mchinji","geo":{"center":{"lat":-13.8000058,"lng":32.8930441},"min":{"lat":-13.8000058,"lng":32.8930441},"max":{"lat":-13.8000058,"lng":32.8930441}}},{"code":"MG","country_code":"MW","state_code":"","name":"Mangochi","geo":{"center":{"lat":-14.4861733,"lng":35.253304},"min":{"lat":-14.4861733,"lng":35.253304},"max":{"lat":-14.4861733,"lng":35.253304}}},{"code":"MH","country_code":"MW","state_code":"","name":"Machinga","geo":{"center":{"lat":-15.1699934,"lng":35.2999779},"min":{"lat":-15.1699934,"lng":35.2999779},"max":{"lat":-15.1699934,"lng":35.2999779}}},{"code":"MU","country_code":"MW","state_code":"","name":"Mulanje","geo":{"center":{"lat":-16.033333,"lng":35.5},"min":{"lat":-16.033333,"lng":35.5},"max":{"lat":-16.033333,"lng":35.5}}},{"code":"MW","country_code":"MW","state_code":"","name":"Mwanza","geo":{"center":{"lat":-15.609722,"lng":34.5225},"min":{"lat":-15.609722,"lng":34.5225},"max":{"lat":-15.609722,"lng":34.5225}}},{"code":"MZ","country_code":"MW","state_code":"","name":"Mzimba","geo":{"center":{"lat":-11.9,"lng":33.6},"min":{"lat":-11.9,"lng":33.6},"max":{"lat":-11.9,"lng":33.6}}},{"code":"NB","country_code":"MW","state_code":"","name":"Nkhata Bay","geo":{"center":{"lat":-11.6085556,"lng":34.2949409},"min":{"lat":-11.6085556,"lng":34.2949409},"max":{"lat":-11.6085556,"lng":34.2949409}}},{"code":"NI","country_code":"MW","state_code":"","name":"Ntchisi","geo":{"center":{"lat":-13.2841992,"lng":33.8857747},"min":{"lat":-13.2841992,"lng":33.8857747},"max":{"lat":-13.2841992,"lng":33.8857747}}},{"code":"NK","country_code":"MW","state_code":"","name":"Nkhotakota","geo":{"center":{"lat":-12.9316863,"lng":34.2810541},"min":{"lat":-12.9316863,"lng":34.2810541},"max":{"lat":-12.9316863,"lng":34.2810541}}},{"code":"NS","country_code":"MW","state_code":"","name":"Nsanje","geo":{"center":{"lat":-16.916667,"lng":35.266667},"min":{"lat":-16.916667,"lng":35.266667},"max":{"lat":-16.916667,"lng":35.266667}}},{"code":"NU","country_code":"MW","state_code":"","name":"Ntcheu","geo":{"center":{"lat":-14.8219765,"lng":34.6358702},"min":{"lat":-14.8219765,"lng":34.6358702},"max":{"lat":-14.8219765,"lng":34.6358702}}},{"code":"PH","country_code":"MW","state_code":"","name":"Phalombe","geo":{"center":{"lat":-15.7633303,"lng":35.6587503},"min":{"lat":-15.7633303,"lng":35.6587503},"max":{"lat":-15.7633303,"lng":35.6587503}}},{"code":"RU","country_code":"MW","state_code":"","name":"Rumphi","geo":{"center":{"lat":-11.016667,"lng":33.866667},"min":{"lat":-11.016667,"lng":33.866667},"max":{"lat":-11.016667,"lng":33.866667}}},{"code":"SA","country_code":"MW","state_code":"","name":"Salima","geo":{"center":{"lat":-13.7795533,"lng":34.458641},"min":{"lat":-13.7795533,"lng":34.458641},"max":{"lat":-13.7795533,"lng":34.458641}}},{"code":"TH","country_code":"MW","state_code":"","name":"Thyolo","geo":{"center":{"lat":-16.066667,"lng":35.133333},"min":{"lat":-16.066667,"lng":35.133333},"max":{"lat":-16.066667,"lng":35.133333}}},{"code":"ZO","country_code":"MW","state_code":"","name":"Zomba","geo":{"center":{"lat":-15.383333,"lng":35.333333},"min":{"lat":-15.383333,"lng":35.333333},"max":{"lat":-15.383333,"lng":35.333333}}}]