[{"code":"AGU","country_code":"MX","state_code":"","name":"Aguascalientes","geo":{"center":{"lat":21.8852562,"lng":-102.2915677},"min":{"lat":21.8852562,"lng":-102.2915677},"max":{"lat":21.8852562,"lng":-102.2915677}}},{"code":"BCN","country_code":"MX","state_code":"","name":"Baja California","geo":{"center":{"lat":30.8406338,"lng":-115.2837585},"min":{"lat":30.8406338,"lng":-115.2837585},"max":{"lat":30.8406338,"lng":-115.2837585}}},{"code":"BCS","country_code":"MX","state_code":"","name":"Baja California Sur","geo":{"center":{"lat":26.0444446,"lng":-111.6660725},"min":{"lat":26.0444446,"lng":-111.6660725},"max":{"lat":26.0444446,"lng":-111.6660725}}},{"code":"CAM","country_code":"MX","state_code":"","name":"Campeche","geo":{"center":{"lat":19.8301251,"lng":-90.5349087},"min":{"lat":19.8301251,"lng":-90.5349087},"max":{"lat":19.8301251,"lng":-90.5349087}}},{"code":"CHH","country_code":"MX","state_code":"","name":"Chihuahua","geo":{"center":{"lat":28.6329957,"lng":-106.0691004},"min":{"lat":28.6329957,"lng":-106.0691004},"max":{"lat":28.6329957,"lng":-106.0691004}}},{"code":"CHP","country_code":"MX","state_code":"","name":"Chiapas","geo":{"center":{"lat":16.7569318,"lng":-93.1292353},"min":{"lat":16.7569318,"lng":-93.1292353},"max":{"lat":16.7569318,"lng":-93.1292353}}},{"code":"COA","country_code":"MX","state_code":"","name":"Coahuila","geo":{"center":{"lat":27.058676,"lng":-101.7068294},"min":{"lat":27.058676,"lng":-101.7068294},"max":{"lat":27.058676,"lng":-101.7068294}}},{"code":"COL","country_code":"MX","state_code":"","name":"Colima","geo":{"center":{"lat":19.2452342,"lng":-103.7240868},"min":{"lat":19.2452342,"lng":-103.7240868},"max":{"lat":19.2452342,"lng":-103.7240868}}},{"code":"DIF","country_code":"MX","state_code":"","name":"Ciudad de M\u00e9xico","geo":{"center":{"lat":19.2464696,"lng":-99.1013498},"min":{"lat":19.2464696,"lng":-99.1013498},"max":{"lat":19.2464696,"lng":-99.1013498}}},{"code":"DUR","country_code":"MX","state_code":"","name":"Durango","geo":{"center":{"lat":24.0277202,"lng":-104.6531759},"min":{"lat":24.0277202,"lng":-104.6531759},"max":{"lat":24.0277202,"lng":-104.6531759}}},{"code":"GRO","country_code":"MX","state_code":"","name":"Guerrero","geo":{"center":{"lat":17.4391926,"lng":-99.5450974},"min":{"lat":17.4391926,"lng":-99.5450974},"max":{"lat":17.4391926,"lng":-99.5450974}}},{"code":"GUA","country_code":"MX","state_code":"","name":"Guanajuato","geo":{"center":{"lat":21.0190145,"lng":-101.2573586},"min":{"lat":21.0190145,"lng":-101.2573586},"max":{"lat":21.0190145,"lng":-101.2573586}}},{"code":"HID","country_code":"MX","state_code":"","name":"Hidalgo","geo":{"center":{"lat":20.0910963,"lng":-98.7623874},"min":{"lat":20.0910963,"lng":-98.7623874},"max":{"lat":20.0910963,"lng":-98.7623874}}},{"code":"JAL","country_code":"MX","state_code":"","name":"Jalisco","geo":{"center":{"lat":20.6595382,"lng":-103.3494376},"min":{"lat":20.6595382,"lng":-103.3494376},"max":{"lat":20.6595382,"lng":-103.3494376}}},{"code":"MEX","country_code":"MX","state_code":"","name":"M\u00e9xico","geo":{"center":{"lat":19.4326077,"lng":-99.133208},"min":{"lat":19.4326077,"lng":-99.133208},"max":{"lat":19.4326077,"lng":-99.133208}}},{"code":"MIC","country_code":"MX","state_code":"","name":"Michoac\u00e1n","geo":{"center":{"lat":19.5665192,"lng":-101.7068294},"min":{"lat":19.5665192,"lng":-101.7068294},"max":{"lat":19.5665192,"lng":-101.7068294}}},{"code":"MOR","country_code":"MX","state_code":"","name":"Morelos","geo":{"center":{"lat":18.6813049,"lng":-99.1013498},"min":{"lat":18.6813049,"lng":-99.1013498},"max":{"lat":18.6813049,"lng":-99.1013498}}},{"code":"NAY","country_code":"MX","state_code":"","name":"Nayarit","geo":{"center":{"lat":21.7513844,"lng":-104.8454619},"min":{"lat":21.7513844,"lng":-104.8454619},"max":{"lat":21.7513844,"lng":-104.8454619}}},{"code":"NLE","country_code":"MX","state_code":"","name":"Nuevo Le\u00f3n","geo":{"center":{"lat":25.592172,"lng":-99.9961947},"min":{"lat":25.592172,"lng":-99.9961947},"max":{"lat":25.592172,"lng":-99.9961947}}},{"code":"OAX","country_code":"MX","state_code":"","name":"Oaxaca","geo":{"center":{"lat":17.0594169,"lng":-96.7216219},"min":{"lat":17.0594169,"lng":-96.7216219},"max":{"lat":17.0594169,"lng":-96.7216219}}},{"code":"PUE","country_code":"MX","state_code":"","name":"Puebla","geo":{"center":{"lat":19.0412967,"lng":-98.2061996},"min":{"lat":19.0412967,"lng":-98.2061996},"max":{"lat":19.0412967,"lng":-98.2061996}}},{"code":"QUE","country_code":"MX","state_code":"","name":"Quer\u00e9taro","geo":{"center":{"lat":20.5887932,"lng":-100.3898881},"min":{"lat":20.5887932,"lng":-100.3898881},"max":{"lat":20.5887932,"lng":-100.3898881}}},{"code":"ROO","country_code":"MX","state_code":"","name":"Quintana Roo","geo":{"center":{"lat":19.1817393,"lng":-88.4791376},"min":{"lat":19.1817393,"lng":-88.4791376},"max":{"lat":19.1817393,"lng":-88.4791376}}},{"code":"SIN","country_code":"MX","state_code":"","name":"Sinaloa","geo":{"center":{"lat":25.825701,"lng":-108.214302},"min":{"lat":25.825701,"lng":-108.214302},"max":{"lat":25.825701,"lng":-108.214302}}},{"code":"SLP","country_code":"MX","state_code":"","name":"San Luis Potos\u00ed","geo":{"center":{"lat":22.1564699,"lng":-100.9855409},"min":{"lat":22.1564699,"lng":-100.9855409},"max":{"lat":22.1564699,"lng":-100.9855409}}},{"code":"SON","country_code":"MX","state_code":"","name":"Sonora","geo":{"center":{"lat":29.2972247,"lng":-110.3308814},"min":{"lat":29.2972247,"lng":-110.3308814},"max":{"lat":29.2972247,"lng":-110.3308814}}},{"code":"TAB","country_code":"MX","state_code":"","name":"Tabasco","geo":{"center":{"lat":17.8409173,"lng":-92.6189273},"min":{"lat":17.8409173,"lng":-92.6189273},"max":{"lat":17.8409173,"lng":-92.6189273}}},{"code":"TAM","country_code":"MX","state_code":"","name":"Tamaulipas","geo":{"center":{"lat":24.26694,"lng":-98.8362755},"min":{"lat":24.26694,"lng":-98.8362755},"max":{"lat":24.26694,"lng":-98.8362755}}},{"code":"TLA","country_code":"MX","state_code":"","name":"Tlaxcala","geo":{"center":{"lat":19.3181521,"lng":-98.2375146},"min":{"lat":19.3181521,"lng":-98.2375146},"max":{"lat":19.3181521,"lng":-98.2375146}}},{"code":"VER","country_code":"MX","state_code":"","name":"Veracruz","geo":{"center":{"lat":19.173773,"lng":-96.1342241},"min":{"lat":19.173773,"lng":-96.1342241},"max":{"lat":19.173773,"lng":-96.1342241}}},{"code":"YUC","country_code":"MX","state_code":"","name":"Yucat\u00e1n","geo":{"center":{"lat":20.7098786,"lng":-89.0943377},"min":{"lat":20.7098786,"lng":-89.0943377},"max":{"lat":20.7098786,"lng":-89.0943377}}},{"code":"ZAC","country_code":"MX","state_code":"","name":"Zacatecas","geo":{"center":{"lat":22.7709249,"lng":-102.5832539},"min":{"lat":22.7709249,"lng":-102.5832539},"max":{"lat":22.7709249,"lng":-102.5832539}}}]