[{"code":1,"country_code":"NE","state_code":"","name":"Agadez","geo":{"center":{"lat":16.966667,"lng":7.983333},"min":{"lat":16.966667,"lng":7.983333},"max":{"lat":16.966667,"lng":7.983333}}},{"code":2,"country_code":"NE","state_code":"","name":"Diffa","geo":{"center":{"lat":13.316667,"lng":12.616667},"min":{"lat":13.316667,"lng":12.616667},"max":{"lat":13.316667,"lng":12.616667}}},{"code":3,"country_code":"NE","state_code":"","name":"Dosso","geo":{"center":{"lat":13.05,"lng":3.2},"min":{"lat":13.05,"lng":3.2},"max":{"lat":13.05,"lng":3.2}}},{"code":4,"country_code":"NE","state_code":"","name":"Maradi","geo":{"center":{"lat":13.483333,"lng":7.1},"min":{"lat":13.483333,"lng":7.1},"max":{"lat":13.483333,"lng":7.1}}},{"code":5,"country_code":"NE","state_code":"","name":"Tahoua","geo":{"center":{"lat":14.883333,"lng":5.266667},"min":{"lat":14.883333,"lng":5.266667},"max":{"lat":14.883333,"lng":5.266667}}},{"code":6,"country_code":"NE","state_code":"","name":"Tillab\u00e9ri","geo":{"center":{"lat":14.6489525,"lng":2.1450245},"min":{"lat":14.6489525,"lng":2.1450245},"max":{"lat":14.6489525,"lng":2.1450245}}},{"code":7,"country_code":"NE","state_code":"","name":"Zinder","geo":{"center":{"lat":13.805278,"lng":8.988333},"min":{"lat":13.805278,"lng":8.988333},"max":{"lat":13.805278,"lng":8.988333}}},{"code":8,"country_code":"NE","state_code":"","name":"Niamey","geo":{"center":{"lat":13.521389,"lng":2.105278},"min":{"lat":13.521389,"lng":2.105278},"max":{"lat":13.521389,"lng":2.105278}}}]