[{"code":"CPK","country_code":"PG","state_code":"","name":"Chimbu","geo":{"center":{"lat":-6.3087682,"lng":144.8731219},"min":{"lat":-6.3087682,"lng":144.8731219},"max":{"lat":-6.3087682,"lng":144.8731219}}},{"code":"CPM","country_code":"PG","state_code":"","name":"Central","geo":{"center":{"lat":-9.1360187,"lng":147.4627259},"min":{"lat":-9.1360187,"lng":147.4627259},"max":{"lat":-9.1360187,"lng":147.4627259}}},{"code":"EBR","country_code":"PG","state_code":"","name":"East New Britain","geo":{"center":{"lat":-4.6128943,"lng":151.8877321},"min":{"lat":-4.6128943,"lng":151.8877321},"max":{"lat":-4.6128943,"lng":151.8877321}}},{"code":"EHG","country_code":"PG","state_code":"","name":"Eastern Highlands","geo":{"center":{"lat":-6.5861674,"lng":145.6689636},"min":{"lat":-6.5861674,"lng":145.6689636},"max":{"lat":-6.5861674,"lng":145.6689636}}},{"code":"EPW","country_code":"PG","state_code":"","name":"Enga","geo":{"center":{"lat":-5.3005849,"lng":143.5635637},"min":{"lat":-5.3005849,"lng":143.5635637},"max":{"lat":-5.3005849,"lng":143.5635637}}},{"code":"ESW","country_code":"PG","state_code":"","name":"East Sepik","geo":{"center":{"lat":-4.3150058,"lng":143.045893},"min":{"lat":-4.3150058,"lng":143.045893},"max":{"lat":-4.3150058,"lng":143.045893}}},{"code":"GPK","country_code":"PG","state_code":"","name":"Gulf","geo":{"center":{"lat":-7.2691821,"lng":145.1375834},"min":{"lat":-7.2691821,"lng":145.1375834},"max":{"lat":-7.2691821,"lng":145.1375834}}},{"code":"MBA","country_code":"PG","state_code":"","name":"Milne Bay","geo":{"center":{"lat":-10.4460842,"lng":150.7214362},"min":{"lat":-10.4460842,"lng":150.7214362},"max":{"lat":-10.4460842,"lng":150.7214362}}},{"code":"MPL","country_code":"PG","state_code":"","name":"Morobe","geo":{"center":{"lat":-6.8013737,"lng":146.561647},"min":{"lat":-6.8013737,"lng":146.561647},"max":{"lat":-6.8013737,"lng":146.561647}}},{"code":"MPM","country_code":"PG","state_code":"","name":"Madang","geo":{"center":{"lat":-5.216667,"lng":145.8},"min":{"lat":-5.216667,"lng":145.8},"max":{"lat":-5.216667,"lng":145.8}}},{"code":"MRL","country_code":"PG","state_code":"","name":"Manus","geo":{"center":{"lat":-2.0941169,"lng":146.8760951},"min":{"lat":-2.0941169,"lng":146.8760951},"max":{"lat":-2.0941169,"lng":146.8760951}}},{"code":"NCD","country_code":"PG","state_code":"","name":"National Capital District (Port Moresby)","geo":{"center":{"lat":-9.4438004,"lng":147.1802671},"min":{"lat":-9.4438004,"lng":147.1802671},"max":{"lat":-9.4438004,"lng":147.1802671}}},{"code":"NIK","country_code":"PG","state_code":"","name":"New Ireland","geo":{"center":{"lat":-4.2853256,"lng":152.9205918},"min":{"lat":-4.2853256,"lng":152.9205918},"max":{"lat":-4.2853256,"lng":152.9205918}}},{"code":"NPP","country_code":"PG","state_code":"","name":"Northern","geo":{"center":{"lat":-8.8988063,"lng":148.1892921},"min":{"lat":-8.8988063,"lng":148.1892921},"max":{"lat":-8.8988063,"lng":148.1892921}}},{"code":"NSA","country_code":"PG","state_code":"","name":"North Solomons","geo":{"center":{"lat":-6.053602,"lng":155.1907309},"min":{"lat":-6.053602,"lng":155.1907309},"max":{"lat":-6.053602,"lng":155.1907309}}},{"code":"SAN","country_code":"PG","state_code":"","name":"Sandaun [West Sepik]","geo":{"center":{"lat":-3.7126179,"lng":141.6834275},"min":{"lat":-3.7126179,"lng":141.6834275},"max":{"lat":-3.7126179,"lng":141.6834275}}},{"code":"SHM","country_code":"PG","state_code":"","name":"Southern Highlands","geo":{"center":{"lat":-6.5156911,"lng":143.045893},"min":{"lat":-6.5156911,"lng":143.045893},"max":{"lat":-6.5156911,"lng":143.045893}}},{"code":"WBK","country_code":"PG","state_code":"","name":"West New Britain","geo":{"center":{"lat":-5.7047432,"lng":150.0259466},"min":{"lat":-5.7047432,"lng":150.0259466},"max":{"lat":-5.7047432,"lng":150.0259466}}},{"code":"WHM","country_code":"PG","state_code":"","name":"Western Highlands","geo":{"center":{"lat":-5.6268128,"lng":144.2593118},"min":{"lat":-5.6268128,"lng":144.2593118},"max":{"lat":-5.6268128,"lng":144.2593118}}},{"code":"WPD","country_code":"PG","state_code":"","name":"Western","geo":{"center":{"lat":-7.584644,"lng":142.3613378},"min":{"lat":-7.584644,"lng":142.3613378},"max":{"lat":-7.584644,"lng":142.3613378}}}]