[{"code":"AD","country_code":"RU","state_code":"","name":"Adygeya, Respublika","geo":{"center":{"lat":44.8229155,"lng":40.1754463},"min":{"lat":44.8229155,"lng":40.1754463},"max":{"lat":44.8229155,"lng":40.1754463}}},{"code":"AL","country_code":"RU","state_code":"","name":"Altay, Respublika","geo":{"center":{"lat":55.7671943,"lng":37.606158},"min":{"lat":55.7671943,"lng":37.606158},"max":{"lat":55.7671943,"lng":37.606158}}},{"code":"ALT","country_code":"RU","state_code":"","name":"Altayskiy kray","geo":{"center":{"lat":51.7936298,"lng":82.6758596},"min":{"lat":51.7936298,"lng":82.6758596},"max":{"lat":51.7936298,"lng":82.6758596}}},{"code":"AMU","country_code":"RU","state_code":"","name":"Amurskaya oblast'","geo":{"center":{"lat":54.6035065,"lng":127.4801721},"min":{"lat":54.6035065,"lng":127.4801721},"max":{"lat":54.6035065,"lng":127.4801721}}},{"code":"ARK","country_code":"RU","state_code":"","name":"Arkhangel'skaya oblast'","geo":{"center":{"lat":63.2852803,"lng":42.5884191},"min":{"lat":63.2852803,"lng":42.5884191},"max":{"lat":63.2852803,"lng":42.5884191}}},{"code":"AST","country_code":"RU","state_code":"","name":"Astrakhanskaya oblast'","geo":{"center":{"lat":46.1321166,"lng":48.0610115},"min":{"lat":46.1321166,"lng":48.0610115},"max":{"lat":46.1321166,"lng":48.0610115}}},{"code":"BA","country_code":"RU","state_code":"","name":"Bashkortostan, Respublika","geo":{"center":{"lat":54.2312172,"lng":56.1645257},"min":{"lat":54.2312172,"lng":56.1645257},"max":{"lat":54.2312172,"lng":56.1645257}}},{"code":"BEL","country_code":"RU","state_code":"","name":"Belgorodskaya oblast'","geo":{"center":{"lat":50.7106926,"lng":37.7533377},"min":{"lat":50.7106926,"lng":37.7533377},"max":{"lat":50.7106926,"lng":37.7533377}}},{"code":"BRY","country_code":"RU","state_code":"","name":"Bryanskaya oblast'","geo":{"center":{"lat":53.0408599,"lng":33.2690899},"min":{"lat":53.0408599,"lng":33.2690899},"max":{"lat":53.0408599,"lng":33.2690899}}},{"code":"BU","country_code":"RU","state_code":"","name":"Buryatiya, Respublika","geo":{"center":{"lat":55.7685161,"lng":37.6425744},"min":{"lat":55.7685161,"lng":37.6425744},"max":{"lat":55.7685161,"lng":37.6425744}}},{"code":"CE","country_code":"RU","state_code":"","name":"Chechenskaya Respublika","geo":{"center":{"lat":55.7521689,"lng":37.5886438},"min":{"lat":55.7521689,"lng":37.5886438},"max":{"lat":55.7521689,"lng":37.5886438}}},{"code":"CHE","country_code":"RU","state_code":"","name":"Chelyabinskaya oblast'","geo":{"center":{"lat":54.4319422,"lng":60.8788963},"min":{"lat":54.4319422,"lng":60.8788963},"max":{"lat":54.4319422,"lng":60.8788963}}},{"code":"CHU","country_code":"RU","state_code":"","name":"Chukotskiy avtonomnyy okrug","geo":{"center":{"lat":65.6298355,"lng":171.6952159},"min":{"lat":65.6298355,"lng":171.6952159},"max":{"lat":65.6298355,"lng":171.6952159}}},{"code":"CU","country_code":"RU","state_code":"","name":"Chuvashskaya Respublika","geo":{"center":{"lat":55.5595992,"lng":46.9283536},"min":{"lat":55.5595992,"lng":46.9283536},"max":{"lat":55.5595992,"lng":46.9283536}}},{"code":"DA","country_code":"RU","state_code":"","name":"Dagestan, Respublika","geo":{"center":{"lat":55.7599606,"lng":37.6504362},"min":{"lat":55.7599606,"lng":37.6504362},"max":{"lat":55.7599606,"lng":37.6504362}}},{"code":"IN","country_code":"RU","state_code":"","name":"Ingushskaya Respublika [Respublika Ingushetiya]","geo":{"center":{"lat":43.4051698,"lng":44.8202999},"min":{"lat":43.4051698,"lng":44.8202999},"max":{"lat":43.4051698,"lng":44.8202999}}},{"code":"IRK","country_code":"RU","state_code":"","name":"Irkutskaya oblast'","geo":{"center":{"lat":56.132142,"lng":103.948625},"min":{"lat":56.132142,"lng":103.948625},"max":{"lat":56.132142,"lng":103.948625}}},{"code":"IVA","country_code":"RU","state_code":"","name":"Ivanovskaya oblast'","geo":{"center":{"lat":57.1056854,"lng":41.4830084},"min":{"lat":57.1056854,"lng":41.4830084},"max":{"lat":57.1056854,"lng":41.4830084}}},{"code":"KAM","country_code":"RU","state_code":"","name":"Kamchatskaya oblast'","geo":{"center":{"lat":55.743583,"lng":37.5880195},"min":{"lat":55.743583,"lng":37.5880195},"max":{"lat":55.743583,"lng":37.5880195}}},{"code":"KB","country_code":"RU","state_code":"","name":"Kabardino-Balkarskaya Respublika","geo":{"center":{"lat":43.3932469,"lng":43.5628498},"min":{"lat":43.3932469,"lng":43.5628498},"max":{"lat":43.3932469,"lng":43.5628498}}},{"code":"KC","country_code":"RU","state_code":"","name":"Karachayevo-Cherkesskaya Respublika","geo":{"center":{"lat":43.8845143,"lng":41.730394},"min":{"lat":43.8845143,"lng":41.730394},"max":{"lat":43.8845143,"lng":41.730394}}},{"code":"KDA","country_code":"RU","state_code":"","name":"Krasnodarskiy kray","geo":{"center":{"lat":45.6415289,"lng":39.7055977},"min":{"lat":45.6415289,"lng":39.7055977},"max":{"lat":45.6415289,"lng":39.7055977}}},{"code":"KEM","country_code":"RU","state_code":"","name":"Kemerovskaya oblast'","geo":{"center":{"lat":54.7574648,"lng":87.4055288},"min":{"lat":54.7574648,"lng":87.4055288},"max":{"lat":54.7574648,"lng":87.4055288}}},{"code":"KGD","country_code":"RU","state_code":"","name":"Kaliningradskaya oblast'","geo":{"center":{"lat":54.8235292,"lng":21.4816163},"min":{"lat":54.8235292,"lng":21.4816163},"max":{"lat":54.8235292,"lng":21.4816163}}},{"code":"KGN","country_code":"RU","state_code":"","name":"Kurganskaya oblast'","geo":{"center":{"lat":55.4481548,"lng":65.1180975},"min":{"lat":55.4481548,"lng":65.1180975},"max":{"lat":55.4481548,"lng":65.1180975}}},{"code":"KHA","country_code":"RU","state_code":"","name":"Khabarovskiy kray","geo":{"center":{"lat":50.5888431,"lng":135},"min":{"lat":50.5888431,"lng":135},"max":{"lat":50.5888431,"lng":135}}},{"code":"KHM","country_code":"RU","state_code":"","name":"Khanty-Mansiyskiy avtonomnyy okrug [Yugra]","geo":{"center":{"lat":62.2287062,"lng":70.6410058},"min":{"lat":62.2287062,"lng":70.6410058},"max":{"lat":62.2287062,"lng":70.6410058}}},{"code":"KIR","country_code":"RU","state_code":"","name":"Kirovskaya oblast'","geo":{"center":{"lat":58.4198529,"lng":50.2097248},"min":{"lat":58.4198529,"lng":50.2097248},"max":{"lat":58.4198529,"lng":50.2097248}}},{"code":"KK","country_code":"RU","state_code":"","name":"Khakasiya, Respublika","geo":{"center":{"lat":53.0452281,"lng":90.3982145},"min":{"lat":53.0452281,"lng":90.3982145},"max":{"lat":53.0452281,"lng":90.3982145}}},{"code":"KL","country_code":"RU","state_code":"","name":"Kalmykiya, Respublika","geo":{"center":{"lat":46.5676845,"lng":45.7731614},"min":{"lat":46.5676845,"lng":45.7731614},"max":{"lat":46.5676845,"lng":45.7731614}}},{"code":"KLU","country_code":"RU","state_code":"","name":"Kaluzhskaya oblast'","geo":{"center":{"lat":54.3872666,"lng":35.1889094},"min":{"lat":54.3872666,"lng":35.1889094},"max":{"lat":54.3872666,"lng":35.1889094}}},{"code":"KO","country_code":"RU","state_code":"","name":"Komi, Respublika","geo":{"center":{"lat":63.8630539,"lng":54.8312689},"min":{"lat":63.8630539,"lng":54.8312689},"max":{"lat":63.8630539,"lng":54.8312689}}},{"code":"KOS","country_code":"RU","state_code":"","name":"Kostromskaya oblast'","geo":{"center":{"lat":58.5501069,"lng":43.9541103},"min":{"lat":58.5501069,"lng":43.9541103},"max":{"lat":58.5501069,"lng":43.9541103}}},{"code":"KR","country_code":"RU","state_code":"","name":"Kareliya, Respublika","geo":{"center":{"lat":63.1558702,"lng":32.9905552},"min":{"lat":63.1558702,"lng":32.9905552},"max":{"lat":63.1558702,"lng":32.9905552}}},{"code":"KRS","country_code":"RU","state_code":"","name":"Kurskaya oblast'","geo":{"center":{"lat":51.7634026,"lng":35.3811812},"min":{"lat":51.7634026,"lng":35.3811812},"max":{"lat":51.7634026,"lng":35.3811812}}},{"code":"KYA","country_code":"RU","state_code":"","name":"Krasnoyarskiy kray","geo":{"center":{"lat":64.2479758,"lng":95.1104176},"min":{"lat":64.2479758,"lng":95.1104176},"max":{"lat":64.2479758,"lng":95.1104176}}},{"code":"LEN","country_code":"RU","state_code":"","name":"Leningradskaya oblast'","geo":{"center":{"lat":60.0793208,"lng":31.8926644},"min":{"lat":60.0793208,"lng":31.8926644},"max":{"lat":60.0793208,"lng":31.8926644}}},{"code":"LIP","country_code":"RU","state_code":"","name":"Lipetskaya oblast'","geo":{"center":{"lat":52.5264702,"lng":39.2032269},"min":{"lat":52.5264702,"lng":39.2032269},"max":{"lat":52.5264702,"lng":39.2032269}}},{"code":"MAG","country_code":"RU","state_code":"","name":"Magadanskaya oblast'","geo":{"center":{"lat":62.6643417,"lng":153.9149909},"min":{"lat":62.6643417,"lng":153.9149909},"max":{"lat":62.6643417,"lng":153.9149909}}},{"code":"ME","country_code":"RU","state_code":"","name":"Mariy El, Respublika","geo":{"center":{"lat":56.438457,"lng":47.9607757},"min":{"lat":56.438457,"lng":47.9607757},"max":{"lat":56.438457,"lng":47.9607757}}},{"code":"MO","country_code":"RU","state_code":"","name":"Mordoviya, Respublika","geo":{"center":{"lat":54.2369441,"lng":44.0683969},"min":{"lat":54.2369441,"lng":44.0683969},"max":{"lat":54.2369441,"lng":44.0683969}}},{"code":"MOS","country_code":"RU","state_code":"","name":"Moskovskaya oblast'","geo":{"center":{"lat":55.340396,"lng":38.2917651},"min":{"lat":55.340396,"lng":38.2917651},"max":{"lat":55.340396,"lng":38.2917651}}},{"code":"MOW","country_code":"RU","state_code":"","name":"Moskva","geo":{"center":{"lat":55.755826,"lng":37.6173},"min":{"lat":55.755826,"lng":37.6173},"max":{"lat":55.755826,"lng":37.6173}}},{"code":"MUR","country_code":"RU","state_code":"","name":"Murmanskaya oblast'","geo":{"center":{"lat":67.8442674,"lng":35.0884101},"min":{"lat":67.8442674,"lng":35.0884101},"max":{"lat":67.8442674,"lng":35.0884101}}},{"code":"NEN","country_code":"RU","state_code":"","name":"Nenetskiy avtonomnyy okrug","geo":{"center":{"lat":67.6078337,"lng":57.6338331},"min":{"lat":67.6078337,"lng":57.6338331},"max":{"lat":67.6078337,"lng":57.6338331}}},{"code":"NGR","country_code":"RU","state_code":"","name":"Novgorodskaya oblast'","geo":{"center":{"lat":58.2427552,"lng":32.5665191},"min":{"lat":58.2427552,"lng":32.5665191},"max":{"lat":58.2427552,"lng":32.5665191}}},{"code":"NIZ","country_code":"RU","state_code":"","name":"Nizhegorodskaya oblast'","geo":{"center":{"lat":55.7995159,"lng":44.0296769},"min":{"lat":55.7995159,"lng":44.0296769},"max":{"lat":55.7995159,"lng":44.0296769}}},{"code":"NVS","country_code":"RU","state_code":"","name":"Novosibirskaya oblast'","geo":{"center":{"lat":55.4467133,"lng":80.1043924},"min":{"lat":55.4467133,"lng":80.1043924},"max":{"lat":55.4467133,"lng":80.1043924}}},{"code":"OMS","country_code":"RU","state_code":"","name":"Omskaya oblast'","geo":{"center":{"lat":55.0554669,"lng":73.3167343},"min":{"lat":55.0554669,"lng":73.3167343},"max":{"lat":55.0554669,"lng":73.3167343}}},{"code":"ORE","country_code":"RU","state_code":"","name":"Orenburgskaya oblast'","geo":{"center":{"lat":51.7634026,"lng":54.6188188},"min":{"lat":51.7634026,"lng":54.6188188},"max":{"lat":51.7634026,"lng":54.6188188}}},{"code":"ORL","country_code":"RU","state_code":"","name":"Orlovskaya oblast'","geo":{"center":{"lat":52.7450189,"lng":36.4849627},"min":{"lat":52.7450189,"lng":36.4849627},"max":{"lat":52.7450189,"lng":36.4849627}}},{"code":"PER","country_code":"RU","state_code":"","name":"Perm","geo":{"center":{"lat":58,"lng":56.316667},"min":{"lat":58,"lng":56.316667},"max":{"lat":58,"lng":56.316667}}},{"code":"PNZ","country_code":"RU","state_code":"","name":"Penzenskaya oblast'","geo":{"center":{"lat":53.1412105,"lng":44.0940048},"min":{"lat":53.1412105,"lng":44.0940048},"max":{"lat":53.1412105,"lng":44.0940048}}},{"code":"PRI","country_code":"RU","state_code":"","name":"Primorskiy kray","geo":{"center":{"lat":45.0525641,"lng":135},"min":{"lat":45.0525641,"lng":135},"max":{"lat":45.0525641,"lng":135}}},{"code":"PSK","country_code":"RU","state_code":"","name":"Pskovskaya oblast'","geo":{"center":{"lat":56.7708599,"lng":29.094009},"min":{"lat":56.7708599,"lng":29.094009},"max":{"lat":56.7708599,"lng":29.094009}}},{"code":"ROS","country_code":"RU","state_code":"","name":"Rostovskaya oblast'","geo":{"center":{"lat":47.6853247,"lng":41.8258952},"min":{"lat":47.6853247,"lng":41.8258952},"max":{"lat":47.6853247,"lng":41.8258952}}},{"code":"RYA","country_code":"RU","state_code":"","name":"Ryazanskaya oblast'","geo":{"center":{"lat":54.3875964,"lng":41.259566},"min":{"lat":54.3875964,"lng":41.259566},"max":{"lat":54.3875964,"lng":41.259566}}},{"code":"SA","country_code":"RU","state_code":"","name":"Sakha, Respublika [Yakutiya]","geo":{"center":{"lat":66.7613451,"lng":124.1237531},"min":{"lat":66.7613451,"lng":124.1237531},"max":{"lat":66.7613451,"lng":124.1237531}}},{"code":"SAK","country_code":"RU","state_code":"","name":"Sakhalinskaya oblast'","geo":{"center":{"lat":49.9807847,"lng":143.3738129},"min":{"lat":49.9807847,"lng":143.3738129},"max":{"lat":49.9807847,"lng":143.3738129}}},{"code":"SAM","country_code":"RU","state_code":"","name":"Samarskaya oblast'","geo":{"center":{"lat":53.4183839,"lng":50.4725528},"min":{"lat":53.4183839,"lng":50.4725528},"max":{"lat":53.4183839,"lng":50.4725528}}},{"code":"SAR","country_code":"RU","state_code":"","name":"Saratovskaya oblast'","geo":{"center":{"lat":51.8369263,"lng":46.7539397},"min":{"lat":51.8369263,"lng":46.7539397},"max":{"lat":51.8369263,"lng":46.7539397}}},{"code":"SE","country_code":"RU","state_code":"","name":"Severnaya Osetiya, Respublika [Alaniya] [Respublika Severnaya Osetiya-Alaniya]","geo":{"center":{"lat":43.0451302,"lng":44.2870972},"min":{"lat":43.0451302,"lng":44.2870972},"max":{"lat":43.0451302,"lng":44.2870972}}},{"code":"SMO","country_code":"RU","state_code":"","name":"Smolenskaya oblast'","geo":{"center":{"lat":54.9882994,"lng":32.6677378},"min":{"lat":54.9882994,"lng":32.6677378},"max":{"lat":54.9882994,"lng":32.6677378}}},{"code":"SPE","country_code":"RU","state_code":"","name":"Sankt-Peterburg","geo":{"center":{"lat":59.9342802,"lng":30.3350986},"min":{"lat":59.9342802,"lng":30.3350986},"max":{"lat":59.9342802,"lng":30.3350986}}},{"code":"STA","country_code":"RU","state_code":"","name":"Stavropol'skiy kray","geo":{"center":{"lat":44.6680993,"lng":43.520214},"min":{"lat":44.6680993,"lng":43.520214},"max":{"lat":44.6680993,"lng":43.520214}}},{"code":"SVE","country_code":"RU","state_code":"","name":"Sverdlovskaya oblast'","geo":{"center":{"lat":59.007735,"lng":61.9316226},"min":{"lat":59.007735,"lng":61.9316226},"max":{"lat":59.007735,"lng":61.9316226}}},{"code":"TA","country_code":"RU","state_code":"","name":"Tatarstan, Respublika","geo":{"center":{"lat":55.1802364,"lng":50.7263945},"min":{"lat":55.1802364,"lng":50.7263945},"max":{"lat":55.1802364,"lng":50.7263945}}},{"code":"TAM","country_code":"RU","state_code":"","name":"Tambovskaya oblast'","geo":{"center":{"lat":52.6416589,"lng":41.4216451},"min":{"lat":52.6416589,"lng":41.4216451},"max":{"lat":52.6416589,"lng":41.4216451}}},{"code":"TOM","country_code":"RU","state_code":"","name":"Tomskaya oblast'","geo":{"center":{"lat":58.8969882,"lng":82.67655},"min":{"lat":58.8969882,"lng":82.67655},"max":{"lat":58.8969882,"lng":82.67655}}},{"code":"TUL","country_code":"RU","state_code":"","name":"Tul'skaya oblast'","geo":{"center":{"lat":54.163768,"lng":37.5649507},"min":{"lat":54.163768,"lng":37.5649507},"max":{"lat":54.163768,"lng":37.5649507}}},{"code":"TVE","country_code":"RU","state_code":"","name":"Tverskaya oblast'","geo":{"center":{"lat":57.0021654,"lng":33.9853142},"min":{"lat":57.0021654,"lng":33.9853142},"max":{"lat":57.0021654,"lng":33.9853142}}},{"code":"TY","country_code":"RU","state_code":"","name":"Tyva, Respublika [Tuva]","geo":{"center":{"lat":51.8872669,"lng":95.6260172},"min":{"lat":51.8872669,"lng":95.6260172},"max":{"lat":51.8872669,"lng":95.6260172}}},{"code":"TYU","country_code":"RU","state_code":"","name":"Tyumenskaya oblast'","geo":{"center":{"lat":56.9634387,"lng":66.948278},"min":{"lat":56.9634387,"lng":66.948278},"max":{"lat":56.9634387,"lng":66.948278}}},{"code":"UD","country_code":"RU","state_code":"","name":"Udmurtskaya Respublika","geo":{"center":{"lat":57.0670218,"lng":53.0277948},"min":{"lat":57.0670218,"lng":53.0277948},"max":{"lat":57.0670218,"lng":53.0277948}}},{"code":"ULY","country_code":"RU","state_code":"","name":"Ul'yanovskaya oblast'","geo":{"center":{"lat":53.9793357,"lng":47.7762426},"min":{"lat":53.9793357,"lng":47.7762426},"max":{"lat":53.9793357,"lng":47.7762426}}},{"code":"VGG","country_code":"RU","state_code":"","name":"Volgogradskaya oblast'","geo":{"center":{"lat":49.7604522,"lng":45},"min":{"lat":49.7604522,"lng":45},"max":{"lat":49.7604522,"lng":45}}},{"code":"VLA","country_code":"RU","state_code":"","name":"Vladimirskaya oblast'","geo":{"center":{"lat":56.1553465,"lng":40.5926685},"min":{"lat":56.1553465,"lng":40.5926685},"max":{"lat":56.1553465,"lng":40.5926685}}},{"code":"VLG","country_code":"RU","state_code":"","name":"Vologodskaya oblast'","geo":{"center":{"lat":59.8706711,"lng":40.6555411},"min":{"lat":59.8706711,"lng":40.6555411},"max":{"lat":59.8706711,"lng":40.6555411}}},{"code":"VOR","country_code":"RU","state_code":"","name":"Voronezhskaya oblast'","geo":{"center":{"lat":50.8589713,"lng":39.8644375},"min":{"lat":50.8589713,"lng":39.8644375},"max":{"lat":50.8589713,"lng":39.8644375}}},{"code":"YAN","country_code":"RU","state_code":"","name":"Yamalo-Nenetskiy avtonomnyy okrug","geo":{"center":{"lat":66.0653057,"lng":76.9345194},"min":{"lat":66.0653057,"lng":76.9345194},"max":{"lat":66.0653057,"lng":76.9345194}}},{"code":"YAR","country_code":"RU","state_code":"","name":"Yaroslavskaya oblast'","geo":{"center":{"lat":57.8991523,"lng":38.8388633},"min":{"lat":57.8991523,"lng":38.8388633},"max":{"lat":57.8991523,"lng":38.8388633}}},{"code":"YEV","country_code":"RU","state_code":"","name":"Yevreyskaya avtonomnaya oblast'","geo":{"center":{"lat":48.4808147,"lng":131.7657367},"min":{"lat":48.4808147,"lng":131.7657367},"max":{"lat":48.4808147,"lng":131.7657367}}},{"code":"ZAB","country_code":"RU","state_code":"","name":"Zabaykal'skij kray","geo":{"center":{"lat":53.0928771,"lng":116.967656},"min":{"lat":53.0928771,"lng":116.967656},"max":{"lat":53.0928771,"lng":116.967656}}}]