[{"code":"01","country_code":"SC","state_code":"","name":"Anse aux Pins","geo":{"center":{"lat":-4.6900443,"lng":55.5150289},"min":{"lat":-4.6900443,"lng":55.5150289},"max":{"lat":-4.6900443,"lng":55.5150289}}},{"code":"02","country_code":"SC","state_code":"","name":"Anse Boileau","geo":{"center":{"lat":-4.7047268,"lng":55.4859363},"min":{"lat":-4.7047268,"lng":55.4859363},"max":{"lat":-4.7047268,"lng":55.4859363}}},{"code":"03","country_code":"SC","state_code":"","name":"Anse \u00c9toile","geo":{"center":{"lat":-4.5962834,"lng":55.4499303},"min":{"lat":-4.5962834,"lng":55.4499303},"max":{"lat":-4.5962834,"lng":55.4499303}}},{"code":"04","country_code":"SC","state_code":"","name":"Anse Louis","geo":{"center":{"lat":-4.7189825,"lng":55.4783184},"min":{"lat":-4.7189825,"lng":55.4783184},"max":{"lat":-4.7189825,"lng":55.4783184}}},{"code":"05","country_code":"SC","state_code":"","name":"Anse Royale","geo":{"center":{"lat":-4.733333,"lng":55.516667},"min":{"lat":-4.733333,"lng":55.516667},"max":{"lat":-4.733333,"lng":55.516667}}},{"code":"06","country_code":"SC","state_code":"","name":"Baie Lazare","geo":{"center":{"lat":-4.7482525,"lng":55.4859363},"min":{"lat":-4.7482525,"lng":55.4859363},"max":{"lat":-4.7482525,"lng":55.4859363}}},{"code":"07","country_code":"SC","state_code":"","name":"Baie Sainte Anne","geo":{"center":{"lat":-4.3193277,"lng":55.7411692},"min":{"lat":-4.3193277,"lng":55.7411692},"max":{"lat":-4.3193277,"lng":55.7411692}}},{"code":"08","country_code":"SC","state_code":"","name":"Beau Vallon","geo":{"center":{"lat":-4.6210967,"lng":55.4277802},"min":{"lat":-4.6210967,"lng":55.4277802},"max":{"lat":-4.6210967,"lng":55.4277802}}},{"code":"09","country_code":"SC","state_code":"","name":"Bel Air","geo":{"center":{"lat":-4.6440325,"lng":55.4499303},"min":{"lat":-4.6440325,"lng":55.4499303},"max":{"lat":-4.6440325,"lng":55.4499303}}},{"code":10,"country_code":"SC","state_code":"","name":"Bel Ombre","geo":{"center":{"lat":-4.6204838,"lng":55.4167072},"min":{"lat":-4.6204838,"lng":55.4167072},"max":{"lat":-4.6204838,"lng":55.4167072}}},{"code":11,"country_code":"SC","state_code":"","name":"Cascade","geo":{"center":{"lat":-4.6705541,"lng":55.4970181},"min":{"lat":-4.6705541,"lng":55.4970181},"max":{"lat":-4.6705541,"lng":55.4970181}}},{"code":12,"country_code":"SC","state_code":"","name":"Glacis","geo":{"center":{"lat":-4.5719729,"lng":55.4416234},"min":{"lat":-4.5719729,"lng":55.4416234},"max":{"lat":-4.5719729,"lng":55.4416234}}},{"code":13,"country_code":"SC","state_code":"","name":"Grand' Anse (Mah\u00e9)","geo":{"center":{"lat":-4.677392,"lng":55.463777},"min":{"lat":-4.677392,"lng":55.463777},"max":{"lat":-4.677392,"lng":55.463777}}},{"code":14,"country_code":"SC","state_code":"","name":"Grand' Anse (Praslin)","geo":{"center":{"lat":-4.3176219,"lng":55.7078363},"min":{"lat":-4.3176219,"lng":55.7078363},"max":{"lat":-4.3176219,"lng":55.7078363}}},{"code":15,"country_code":"SC","state_code":"","name":"La Digue","geo":{"center":{"lat":-4.3590972,"lng":55.8412424},"min":{"lat":-4.3590972,"lng":55.8412424},"max":{"lat":-4.3590972,"lng":55.8412424}}},{"code":16,"country_code":"SC","state_code":"","name":"La Rivi\u00e8re Anglaise","geo":{"center":{"lat":-4.6149553,"lng":55.4540841},"min":{"lat":-4.6149553,"lng":55.4540841},"max":{"lat":-4.6149553,"lng":55.4540841}}},{"code":17,"country_code":"SC","state_code":"","name":"Mont Buxton","geo":{"center":{"lat":-4.6166667,"lng":55.4457768},"min":{"lat":-4.6166667,"lng":55.4457768},"max":{"lat":-4.6166667,"lng":55.4457768}}},{"code":18,"country_code":"SC","state_code":"","name":"Mont Fleuri","geo":{"center":{"lat":-4.6356543,"lng":55.4554688},"min":{"lat":-4.6356543,"lng":55.4554688},"max":{"lat":-4.6356543,"lng":55.4554688}}},{"code":19,"country_code":"SC","state_code":"","name":"Plaisance","geo":{"center":{"lat":-4.6489918,"lng":55.4610075},"min":{"lat":-4.6489918,"lng":55.4610075},"max":{"lat":-4.6489918,"lng":55.4610075}}},{"code":20,"country_code":"SC","state_code":"","name":"Pointe La Rue","geo":{"center":{"lat":-4.680489,"lng":55.5191857},"min":{"lat":-4.680489,"lng":55.5191857},"max":{"lat":-4.680489,"lng":55.5191857}}},{"code":21,"country_code":"SC","state_code":"","name":"Port Glaud","geo":{"center":{"lat":-4.6488523,"lng":55.4194753},"min":{"lat":-4.6488523,"lng":55.4194753},"max":{"lat":-4.6488523,"lng":55.4194753}}},{"code":22,"country_code":"SC","state_code":"","name":"Saint Louis","geo":{"center":{"lat":-4.6251949,"lng":55.4430078},"min":{"lat":-4.6251949,"lng":55.4430078},"max":{"lat":-4.6251949,"lng":55.4430078}}},{"code":23,"country_code":"SC","state_code":"","name":"Takamaka","geo":{"center":{"lat":-4.7843688,"lng":55.5081012},"min":{"lat":-4.7843688,"lng":55.5081012},"max":{"lat":-4.7843688,"lng":55.5081012}}}]