[{"code":"BR","country_code":"SR","state_code":"","name":"Brokopondo","geo":{"center":{"lat":4.7710247,"lng":-55.0493375},"min":{"lat":4.7710247,"lng":-55.0493375},"max":{"lat":4.7710247,"lng":-55.0493375}}},{"code":"CM","country_code":"SR","state_code":"","name":"Commewijne","geo":{"center":{"lat":5.740211,"lng":-54.8731219},"min":{"lat":5.740211,"lng":-54.8731219},"max":{"lat":5.740211,"lng":-54.8731219}}},{"code":"CR","country_code":"SR","state_code":"","name":"Coronie","geo":{"center":{"lat":5.6943271,"lng":-56.2929381},"min":{"lat":5.6943271,"lng":-56.2929381},"max":{"lat":5.6943271,"lng":-56.2929381}}},{"code":"MA","country_code":"SR","state_code":"","name":"Marowijne","geo":{"center":{"lat":5.6268128,"lng":-54.2593118},"min":{"lat":5.6268128,"lng":-54.2593118},"max":{"lat":5.6268128,"lng":-54.2593118}}},{"code":"NI","country_code":"SR","state_code":"","name":"Nickerie","geo":{"center":{"lat":5.5855469,"lng":-56.8311117},"min":{"lat":5.5855469,"lng":-56.8311117},"max":{"lat":5.5855469,"lng":-56.8311117}}},{"code":"PM","country_code":"SR","state_code":"","name":"Paramaribo","geo":{"center":{"lat":5.8520355,"lng":-55.2038278},"min":{"lat":5.8520355,"lng":-55.2038278},"max":{"lat":5.8520355,"lng":-55.2038278}}},{"code":"PR","country_code":"SR","state_code":"","name":"Para","geo":{"center":{"lat":5.4817318,"lng":-55.2259207},"min":{"lat":5.4817318,"lng":-55.2259207},"max":{"lat":5.4817318,"lng":-55.2259207}}},{"code":"SA","country_code":"SR","state_code":"","name":"Saramacca","geo":{"center":{"lat":5.7240813,"lng":-55.6689636},"min":{"lat":5.7240813,"lng":-55.6689636},"max":{"lat":5.7240813,"lng":-55.6689636}}},{"code":"SI","country_code":"SR","state_code":"","name":"Sipaliwini","geo":{"center":{"lat":2.0331027,"lng":-56.1337552},"min":{"lat":2.0331027,"lng":-56.1337552},"max":{"lat":2.0331027,"lng":-56.1337552}}},{"code":"WA","country_code":"SR","state_code":"","name":"Wanica","geo":{"center":{"lat":5.7323762,"lng":-55.2701235},"min":{"lat":5.7323762,"lng":-55.2701235},"max":{"lat":5.7323762,"lng":-55.2701235}}}]