[{"code":"BA","country_code":"TD","state_code":"","name":"Batha","geo":{"center":{"lat":13.9371775,"lng":18.4276047},"min":{"lat":13.9371775,"lng":18.4276047},"max":{"lat":13.9371775,"lng":18.4276047}}},{"code":"BET","country_code":"TD","state_code":"","name":"Borkou-Ennedi-Tibesti","geo":{"center":{"lat":17.8688845,"lng":18.8076195},"min":{"lat":17.8688845,"lng":18.8076195},"max":{"lat":17.8688845,"lng":18.8076195}}},{"code":"CB","country_code":"TD","state_code":"","name":"Chari-Baguirmi","geo":{"center":{"lat":11.2564207,"lng":16.1580937},"min":{"lat":11.2564207,"lng":16.1580937},"max":{"lat":11.2564207,"lng":16.1580937}}},{"code":"GR","country_code":"TD","state_code":"","name":"Gu\u00e9ra","geo":{"center":{"lat":11.1219015,"lng":18.4276047},"min":{"lat":11.1219015,"lng":18.4276047},"max":{"lat":11.1219015,"lng":18.4276047}}},{"code":"HL","country_code":"TD","state_code":"","name":"Hadjer Lamis","geo":{"center":{"lat":12.4577273,"lng":16.7234639},"min":{"lat":12.4577273,"lng":16.7234639},"max":{"lat":12.4577273,"lng":16.7234639}}},{"code":"KA","country_code":"TD","state_code":"","name":"Kanem","geo":{"center":{"lat":14.8781262,"lng":15.4068079},"min":{"lat":14.8781262,"lng":15.4068079},"max":{"lat":14.8781262,"lng":15.4068079}}},{"code":"LC","country_code":"TD","state_code":"","name":"Lac","geo":{"center":{"lat":13.6915377,"lng":14.1001326},"min":{"lat":13.6915377,"lng":14.1001326},"max":{"lat":13.6915377,"lng":14.1001326}}},{"code":"LO","country_code":"TD","state_code":"","name":"Logone-Occidental","geo":{"center":{"lat":8.759676,"lng":15.876004},"min":{"lat":8.759676,"lng":15.876004},"max":{"lat":8.759676,"lng":15.876004}}},{"code":"LR","country_code":"TD","state_code":"","name":"Logone-Oriental","geo":{"center":{"lat":8.3149949,"lng":16.3463791},"min":{"lat":8.3149949,"lng":16.3463791},"max":{"lat":8.3149949,"lng":16.3463791}}},{"code":"MA","country_code":"TD","state_code":"","name":"Mandoul","geo":{"center":{"lat":8.603091,"lng":17.4795173},"min":{"lat":8.603091,"lng":17.4795173},"max":{"lat":8.603091,"lng":17.4795173}}},{"code":"MC","country_code":"TD","state_code":"","name":"Moyen-Chari","geo":{"center":{"lat":9.0639998,"lng":18.4276047},"min":{"lat":9.0639998,"lng":18.4276047},"max":{"lat":9.0639998,"lng":18.4276047}}},{"code":"ME","country_code":"TD","state_code":"","name":"Mayo-K\u00e9bbi-Est","geo":{"center":{"lat":9.4046039,"lng":14.8454619},"min":{"lat":9.4046039,"lng":14.8454619},"max":{"lat":9.4046039,"lng":14.8454619}}},{"code":"MO","country_code":"TD","state_code":"","name":"Mayo-K\u00e9bbi-Ouest","geo":{"center":{"lat":10.4113014,"lng":15.5943388},"min":{"lat":10.4113014,"lng":15.5943388},"max":{"lat":10.4113014,"lng":15.5943388}}},{"code":"ND","country_code":"TD","state_code":"","name":"Ndjamena","geo":{"center":{"lat":12.113056,"lng":15.049167},"min":{"lat":12.113056,"lng":15.049167},"max":{"lat":12.113056,"lng":15.049167}}},{"code":"OD","country_code":"TD","state_code":"","name":"Ouadda\u00ef","geo":{"center":{"lat":13.748476,"lng":20.7122465},"min":{"lat":13.748476,"lng":20.7122465},"max":{"lat":13.748476,"lng":20.7122465}}},{"code":"SA","country_code":"TD","state_code":"","name":"Salamat","geo":{"center":{"lat":10.9691601,"lng":20.7122465},"min":{"lat":10.9691601,"lng":20.7122465},"max":{"lat":10.9691601,"lng":20.7122465}}},{"code":"TA","country_code":"TD","state_code":"","name":"Tandjil\u00e9","geo":{"center":{"lat":9.6625729,"lng":16.7234639},"min":{"lat":9.6625729,"lng":16.7234639},"max":{"lat":9.6625729,"lng":16.7234639}}},{"code":"WF","country_code":"TD","state_code":"","name":"Wadi Fira","geo":{"center":{"lat":15.0892416,"lng":21.4752851},"min":{"lat":15.0892416,"lng":21.4752851},"max":{"lat":15.0892416,"lng":21.4752851}}}]