[{"code":10,"country_code":"TH","state_code":"","name":"Krung Thep Maha Nakhon [Bangkok]","geo":{"center":{"lat":13.7563309,"lng":100.5017651},"min":{"lat":13.7563309,"lng":100.5017651},"max":{"lat":13.7563309,"lng":100.5017651}}},{"code":11,"country_code":"TH","state_code":"","name":"Samut Prakan","geo":{"center":{"lat":13.5990961,"lng":100.5998319},"min":{"lat":13.5990961,"lng":100.5998319},"max":{"lat":13.5990961,"lng":100.5998319}}},{"code":12,"country_code":"TH","state_code":"","name":"Nonthaburi","geo":{"center":{"lat":13.8621125,"lng":100.5143528},"min":{"lat":13.8621125,"lng":100.5143528},"max":{"lat":13.8621125,"lng":100.5143528}}},{"code":13,"country_code":"TH","state_code":"","name":"Pathum Thani","geo":{"center":{"lat":14.0208391,"lng":100.5250276},"min":{"lat":14.0208391,"lng":100.5250276},"max":{"lat":14.0208391,"lng":100.5250276}}},{"code":14,"country_code":"TH","state_code":"","name":"Phra Nakhon Si Ayutthaya","geo":{"center":{"lat":14.3532128,"lng":100.5689599},"min":{"lat":14.3532128,"lng":100.5689599},"max":{"lat":14.3532128,"lng":100.5689599}}},{"code":15,"country_code":"TH","state_code":"","name":"Ang Thong","geo":{"center":{"lat":14.5896054,"lng":100.455052},"min":{"lat":14.5896054,"lng":100.455052},"max":{"lat":14.5896054,"lng":100.455052}}},{"code":16,"country_code":"TH","state_code":"","name":"Lop Buri","geo":{"center":{"lat":14.7995081,"lng":100.6533706},"min":{"lat":14.7995081,"lng":100.6533706},"max":{"lat":14.7995081,"lng":100.6533706}}},{"code":17,"country_code":"TH","state_code":"","name":"Sing Buri","geo":{"center":{"lat":14.8936253,"lng":100.3967314},"min":{"lat":14.8936253,"lng":100.3967314},"max":{"lat":14.8936253,"lng":100.3967314}}},{"code":18,"country_code":"TH","state_code":"","name":"Chai Nat","geo":{"center":{"lat":15.1252422,"lng":100.1423172},"min":{"lat":15.1252422,"lng":100.1423172},"max":{"lat":15.1252422,"lng":100.1423172}}},{"code":19,"country_code":"TH","state_code":"","name":"Saraburi","geo":{"center":{"lat":14.5289154,"lng":100.9101421},"min":{"lat":14.5289154,"lng":100.9101421},"max":{"lat":14.5289154,"lng":100.9101421}}},{"code":20,"country_code":"TH","state_code":"","name":"Chon Buri","geo":{"center":{"lat":13.3611431,"lng":100.9846717},"min":{"lat":13.3611431,"lng":100.9846717},"max":{"lat":13.3611431,"lng":100.9846717}}},{"code":21,"country_code":"TH","state_code":"","name":"Rayong","geo":{"center":{"lat":12.707434,"lng":101.1473517},"min":{"lat":12.707434,"lng":101.1473517},"max":{"lat":12.707434,"lng":101.1473517}}},{"code":22,"country_code":"TH","state_code":"","name":"Chanthaburi","geo":{"center":{"lat":12.6112485,"lng":102.1037806},"min":{"lat":12.6112485,"lng":102.1037806},"max":{"lat":12.6112485,"lng":102.1037806}}},{"code":23,"country_code":"TH","state_code":"","name":"Trat","geo":{"center":{"lat":12.2427563,"lng":102.5174734},"min":{"lat":12.2427563,"lng":102.5174734},"max":{"lat":12.2427563,"lng":102.5174734}}},{"code":24,"country_code":"TH","state_code":"","name":"Chachoengsao","geo":{"center":{"lat":13.6904194,"lng":101.0779596},"min":{"lat":13.6904194,"lng":101.0779596},"max":{"lat":13.6904194,"lng":101.0779596}}},{"code":25,"country_code":"TH","state_code":"","name":"Prachin Buri","geo":{"center":{"lat":14.0420699,"lng":101.6600874},"min":{"lat":14.0420699,"lng":101.6600874},"max":{"lat":14.0420699,"lng":101.6600874}}},{"code":26,"country_code":"TH","state_code":"","name":"Nakhon Nayok","geo":{"center":{"lat":14.2038387,"lng":101.2268773},"min":{"lat":14.2038387,"lng":101.2268773},"max":{"lat":14.2038387,"lng":101.2268773}}},{"code":27,"country_code":"TH","state_code":"","name":"Sa Kaeo","geo":{"center":{"lat":13.8240407,"lng":102.0645821},"min":{"lat":13.8240407,"lng":102.0645821},"max":{"lat":13.8240407,"lng":102.0645821}}},{"code":30,"country_code":"TH","state_code":"","name":"Nakhon Ratchasima","geo":{"center":{"lat":14.9798997,"lng":102.0977693},"min":{"lat":14.9798997,"lng":102.0977693},"max":{"lat":14.9798997,"lng":102.0977693}}},{"code":31,"country_code":"TH","state_code":"","name":"Buri Ram","geo":{"center":{"lat":14.9930017,"lng":103.1029191},"min":{"lat":14.9930017,"lng":103.1029191},"max":{"lat":14.9930017,"lng":103.1029191}}},{"code":32,"country_code":"TH","state_code":"","name":"Surin","geo":{"center":{"lat":14.882905,"lng":103.4937107},"min":{"lat":14.882905,"lng":103.4937107},"max":{"lat":14.882905,"lng":103.4937107}}},{"code":33,"country_code":"TH","state_code":"","name":"Si Sa Ket","geo":{"center":{"lat":15.1186009,"lng":104.3220095},"min":{"lat":15.1186009,"lng":104.3220095},"max":{"lat":15.1186009,"lng":104.3220095}}},{"code":34,"country_code":"TH","state_code":"","name":"Ubon Ratchathani","geo":{"center":{"lat":15.2286861,"lng":104.8564217},"min":{"lat":15.2286861,"lng":104.8564217},"max":{"lat":15.2286861,"lng":104.8564217}}},{"code":35,"country_code":"TH","state_code":"","name":"Yasothon","geo":{"center":{"lat":15.792641,"lng":104.1452827},"min":{"lat":15.792641,"lng":104.1452827},"max":{"lat":15.792641,"lng":104.1452827}}},{"code":36,"country_code":"TH","state_code":"","name":"Chaiyaphum","geo":{"center":{"lat":15.8068173,"lng":102.0315027},"min":{"lat":15.8068173,"lng":102.0315027},"max":{"lat":15.8068173,"lng":102.0315027}}},{"code":37,"country_code":"TH","state_code":"","name":"Amnat Charoen","geo":{"center":{"lat":15.8656783,"lng":104.6257774},"min":{"lat":15.8656783,"lng":104.6257774},"max":{"lat":15.8656783,"lng":104.6257774}}},{"code":39,"country_code":"TH","state_code":"","name":"Nong Bua Lam Phu","geo":{"center":{"lat":17.2218247,"lng":102.4260368},"min":{"lat":17.2218247,"lng":102.4260368},"max":{"lat":17.2218247,"lng":102.4260368}}},{"code":40,"country_code":"TH","state_code":"","name":"Khon Kaen","geo":{"center":{"lat":16.4419355,"lng":102.8359921},"min":{"lat":16.4419355,"lng":102.8359921},"max":{"lat":16.4419355,"lng":102.8359921}}},{"code":41,"country_code":"TH","state_code":"","name":"Udon Thani","geo":{"center":{"lat":17.4138413,"lng":102.7872325},"min":{"lat":17.4138413,"lng":102.7872325},"max":{"lat":17.4138413,"lng":102.7872325}}},{"code":42,"country_code":"TH","state_code":"","name":"Loei","geo":{"center":{"lat":17.4860232,"lng":101.7223002},"min":{"lat":17.4860232,"lng":101.7223002},"max":{"lat":17.4860232,"lng":101.7223002}}},{"code":43,"country_code":"TH","state_code":"","name":"Nong Khai","geo":{"center":{"lat":17.8782803,"lng":102.7412638},"min":{"lat":17.8782803,"lng":102.7412638},"max":{"lat":17.8782803,"lng":102.7412638}}},{"code":44,"country_code":"TH","state_code":"","name":"Maha Sarakham","geo":{"center":{"lat":16.0132015,"lng":103.1615169},"min":{"lat":16.0132015,"lng":103.1615169},"max":{"lat":16.0132015,"lng":103.1615169}}},{"code":45,"country_code":"TH","state_code":"","name":"Roi Et","geo":{"center":{"lat":16.0538196,"lng":103.6520036},"min":{"lat":16.0538196,"lng":103.6520036},"max":{"lat":16.0538196,"lng":103.6520036}}},{"code":46,"country_code":"TH","state_code":"","name":"Kalasin","geo":{"center":{"lat":16.434167,"lng":103.509167},"min":{"lat":16.434167,"lng":103.509167},"max":{"lat":16.434167,"lng":103.509167}}},{"code":47,"country_code":"TH","state_code":"","name":"Sakon Nakhon","geo":{"center":{"lat":17.1545995,"lng":104.1348365},"min":{"lat":17.1545995,"lng":104.1348365},"max":{"lat":17.1545995,"lng":104.1348365}}},{"code":48,"country_code":"TH","state_code":"","name":"Nakhon Phanom","geo":{"center":{"lat":17.392039,"lng":104.7695508},"min":{"lat":17.392039,"lng":104.7695508},"max":{"lat":17.392039,"lng":104.7695508}}},{"code":49,"country_code":"TH","state_code":"","name":"Mukdahan","geo":{"center":{"lat":16.5695723,"lng":104.5231213},"min":{"lat":16.5695723,"lng":104.5231213},"max":{"lat":16.5695723,"lng":104.5231213}}},{"code":50,"country_code":"TH","state_code":"","name":"Chiang Mai","geo":{"center":{"lat":18.787747,"lng":98.9931284},"min":{"lat":18.787747,"lng":98.9931284},"max":{"lat":18.787747,"lng":98.9931284}}},{"code":51,"country_code":"TH","state_code":"","name":"Lamphun","geo":{"center":{"lat":18.5744606,"lng":99.0087221},"min":{"lat":18.5744606,"lng":99.0087221},"max":{"lat":18.5744606,"lng":99.0087221}}},{"code":52,"country_code":"TH","state_code":"","name":"Lampang","geo":{"center":{"lat":18.2888404,"lng":99.490874},"min":{"lat":18.2888404,"lng":99.490874},"max":{"lat":18.2888404,"lng":99.490874}}},{"code":53,"country_code":"TH","state_code":"","name":"Uttaradit","geo":{"center":{"lat":17.6200886,"lng":100.0992942},"min":{"lat":17.6200886,"lng":100.0992942},"max":{"lat":17.6200886,"lng":100.0992942}}},{"code":54,"country_code":"TH","state_code":"","name":"Phrae","geo":{"center":{"lat":18.1445774,"lng":100.1402831},"min":{"lat":18.1445774,"lng":100.1402831},"max":{"lat":18.1445774,"lng":100.1402831}}},{"code":55,"country_code":"TH","state_code":"","name":"Nan","geo":{"center":{"lat":18.7756318,"lng":100.7730417},"min":{"lat":18.7756318,"lng":100.7730417},"max":{"lat":18.7756318,"lng":100.7730417}}},{"code":56,"country_code":"TH","state_code":"","name":"Phayao","geo":{"center":{"lat":19.2154367,"lng":100.2023692},"min":{"lat":19.2154367,"lng":100.2023692},"max":{"lat":19.2154367,"lng":100.2023692}}},{"code":57,"country_code":"TH","state_code":"","name":"Chiang Rai","geo":{"center":{"lat":19.9071656,"lng":99.830955},"min":{"lat":19.9071656,"lng":99.830955},"max":{"lat":19.9071656,"lng":99.830955}}},{"code":58,"country_code":"TH","state_code":"","name":"Mae Hong Son","geo":{"center":{"lat":19.3020296,"lng":97.9654368},"min":{"lat":19.3020296,"lng":97.9654368},"max":{"lat":19.3020296,"lng":97.9654368}}},{"code":60,"country_code":"TH","state_code":"","name":"Nakhon Sawan","geo":{"center":{"lat":15.6930072,"lng":100.1225595},"min":{"lat":15.6930072,"lng":100.1225595},"max":{"lat":15.6930072,"lng":100.1225595}}},{"code":61,"country_code":"TH","state_code":"","name":"Uthai Thani","geo":{"center":{"lat":15.3835001,"lng":100.0245527},"min":{"lat":15.3835001,"lng":100.0245527},"max":{"lat":15.3835001,"lng":100.0245527}}},{"code":62,"country_code":"TH","state_code":"","name":"Kamphaeng Phet","geo":{"center":{"lat":16.4827798,"lng":99.5226618},"min":{"lat":16.4827798,"lng":99.5226618},"max":{"lat":16.4827798,"lng":99.5226618}}},{"code":63,"country_code":"TH","state_code":"","name":"Tak","geo":{"center":{"lat":16.8839901,"lng":99.1258498},"min":{"lat":16.8839901,"lng":99.1258498},"max":{"lat":16.8839901,"lng":99.1258498}}},{"code":64,"country_code":"TH","state_code":"","name":"Sukhothai","geo":{"center":{"lat":17.0055573,"lng":99.8263712},"min":{"lat":17.0055573,"lng":99.8263712},"max":{"lat":17.0055573,"lng":99.8263712}}},{"code":65,"country_code":"TH","state_code":"","name":"Phitsanulok","geo":{"center":{"lat":16.8211238,"lng":100.2658516},"min":{"lat":16.8211238,"lng":100.2658516},"max":{"lat":16.8211238,"lng":100.2658516}}},{"code":66,"country_code":"TH","state_code":"","name":"Phichit","geo":{"center":{"lat":16.2740876,"lng":100.3346991},"min":{"lat":16.2740876,"lng":100.3346991},"max":{"lat":16.2740876,"lng":100.3346991}}},{"code":67,"country_code":"TH","state_code":"","name":"Phetchabun","geo":{"center":{"lat":16.301669,"lng":101.1192804},"min":{"lat":16.301669,"lng":101.1192804},"max":{"lat":16.301669,"lng":101.1192804}}},{"code":70,"country_code":"TH","state_code":"","name":"Ratchaburi","geo":{"center":{"lat":13.5282893,"lng":99.8134211},"min":{"lat":13.5282893,"lng":99.8134211},"max":{"lat":13.5282893,"lng":99.8134211}}},{"code":71,"country_code":"TH","state_code":"","name":"Kanchanaburi","geo":{"center":{"lat":14.0227797,"lng":99.5328115},"min":{"lat":14.0227797,"lng":99.5328115},"max":{"lat":14.0227797,"lng":99.5328115}}},{"code":72,"country_code":"TH","state_code":"","name":"Suphan Buri","geo":{"center":{"lat":14.4744892,"lng":100.1177128},"min":{"lat":14.4744892,"lng":100.1177128},"max":{"lat":14.4744892,"lng":100.1177128}}},{"code":73,"country_code":"TH","state_code":"","name":"Nakhon Pathom","geo":{"center":{"lat":13.8199206,"lng":100.0621676},"min":{"lat":13.8199206,"lng":100.0621676},"max":{"lat":13.8199206,"lng":100.0621676}}},{"code":74,"country_code":"TH","state_code":"","name":"Samut Sakhon","geo":{"center":{"lat":13.5475216,"lng":100.2743956},"min":{"lat":13.5475216,"lng":100.2743956},"max":{"lat":13.5475216,"lng":100.2743956}}},{"code":75,"country_code":"TH","state_code":"","name":"Samut Songkhram","geo":{"center":{"lat":13.4098217,"lng":100.0022645},"min":{"lat":13.4098217,"lng":100.0022645},"max":{"lat":13.4098217,"lng":100.0022645}}},{"code":76,"country_code":"TH","state_code":"","name":"Phetchaburi","geo":{"center":{"lat":12.9649215,"lng":99.6425883},"min":{"lat":12.9649215,"lng":99.6425883},"max":{"lat":12.9649215,"lng":99.6425883}}},{"code":77,"country_code":"TH","state_code":"","name":"Prachuap Khiri Khan","geo":{"center":{"lat":11.816667,"lng":99.8},"min":{"lat":11.816667,"lng":99.8},"max":{"lat":11.816667,"lng":99.8}}},{"code":80,"country_code":"TH","state_code":"","name":"Nakhon Si Thammarat","geo":{"center":{"lat":8.4303975,"lng":99.9631219},"min":{"lat":8.4303975,"lng":99.9631219},"max":{"lat":8.4303975,"lng":99.9631219}}},{"code":81,"country_code":"TH","state_code":"","name":"Krabi","geo":{"center":{"lat":8.0862997,"lng":98.9062835},"min":{"lat":8.0862997,"lng":98.9062835},"max":{"lat":8.0862997,"lng":98.9062835}}},{"code":82,"country_code":"TH","state_code":"","name":"Phangnga","geo":{"center":{"lat":8.4501414,"lng":98.5255317},"min":{"lat":8.4501414,"lng":98.5255317},"max":{"lat":8.4501414,"lng":98.5255317}}},{"code":83,"country_code":"TH","state_code":"","name":"Phuket","geo":{"center":{"lat":7.9519331,"lng":98.3380884},"min":{"lat":7.9519331,"lng":98.3380884},"max":{"lat":7.9519331,"lng":98.3380884}}},{"code":84,"country_code":"TH","state_code":"","name":"Surat Thani","geo":{"center":{"lat":9.1382389,"lng":99.3217483},"min":{"lat":9.1382389,"lng":99.3217483},"max":{"lat":9.1382389,"lng":99.3217483}}},{"code":85,"country_code":"TH","state_code":"","name":"Ranong","geo":{"center":{"lat":9.9528702,"lng":98.6084641},"min":{"lat":9.9528702,"lng":98.6084641},"max":{"lat":9.9528702,"lng":98.6084641}}},{"code":86,"country_code":"TH","state_code":"","name":"Chumphon","geo":{"center":{"lat":10.4930496,"lng":99.1800199},"min":{"lat":10.4930496,"lng":99.1800199},"max":{"lat":10.4930496,"lng":99.1800199}}},{"code":90,"country_code":"TH","state_code":"","name":"Songkhla","geo":{"center":{"lat":7.1756004,"lng":100.614347},"min":{"lat":7.1756004,"lng":100.614347},"max":{"lat":7.1756004,"lng":100.614347}}},{"code":91,"country_code":"TH","state_code":"","name":"Satun","geo":{"center":{"lat":6.6238158,"lng":100.0673744},"min":{"lat":6.6238158,"lng":100.0673744},"max":{"lat":6.6238158,"lng":100.0673744}}},{"code":92,"country_code":"TH","state_code":"","name":"Trang","geo":{"center":{"lat":7.5593851,"lng":99.6110065},"min":{"lat":7.5593851,"lng":99.6110065},"max":{"lat":7.5593851,"lng":99.6110065}}},{"code":93,"country_code":"TH","state_code":"","name":"Phatthalung","geo":{"center":{"lat":7.6166823,"lng":100.0740231},"min":{"lat":7.6166823,"lng":100.0740231},"max":{"lat":7.6166823,"lng":100.0740231}}},{"code":94,"country_code":"TH","state_code":"","name":"Pattani","geo":{"center":{"lat":6.7618308,"lng":101.3232549},"min":{"lat":6.7618308,"lng":101.3232549},"max":{"lat":6.7618308,"lng":101.3232549}}},{"code":95,"country_code":"TH","state_code":"","name":"Yala","geo":{"center":{"lat":6.541147,"lng":101.2803947},"min":{"lat":6.541147,"lng":101.2803947},"max":{"lat":6.541147,"lng":101.2803947}}},{"code":96,"country_code":"TH","state_code":"","name":"Narathiwat","geo":{"center":{"lat":6.4254607,"lng":101.8253143},"min":{"lat":6.4254607,"lng":101.8253143},"max":{"lat":6.4254607,"lng":101.8253143}}},{"code":"S","country_code":"TH","state_code":"","name":"Phatthaya","geo":{"center":{"lat":12.9276082,"lng":100.8770813},"min":{"lat":12.9276082,"lng":100.8770813},"max":{"lat":12.9276082,"lng":100.8770813}}}]