[{"code":"01","country_code":"TR","state_code":"","name":"Adana","geo":{"center":{"lat":37,"lng":35.321333},"min":{"lat":37,"lng":35.321333},"max":{"lat":37,"lng":35.321333}}},{"code":"02","country_code":"TR","state_code":"","name":"Adiyaman","geo":{"center":{"lat":37.7647509,"lng":38.278561},"min":{"lat":37.7647509,"lng":38.278561},"max":{"lat":37.7647509,"lng":38.278561}}},{"code":"03","country_code":"TR","state_code":"","name":"Afyon","geo":{"center":{"lat":38.754167,"lng":30.540278},"min":{"lat":38.754167,"lng":30.540278},"max":{"lat":38.754167,"lng":30.540278}}},{"code":"04","country_code":"TR","state_code":"","name":"Agri","geo":{"center":{"lat":39.7188318,"lng":43.0484269},"min":{"lat":39.7188318,"lng":43.0484269},"max":{"lat":39.7188318,"lng":43.0484269}}},{"code":"05","country_code":"TR","state_code":"","name":"Amasya","geo":{"center":{"lat":40.64991,"lng":35.83532},"min":{"lat":40.64991,"lng":35.83532},"max":{"lat":40.64991,"lng":35.83532}}},{"code":"06","country_code":"TR","state_code":"","name":"Ankara","geo":{"center":{"lat":39.92077,"lng":32.85411},"min":{"lat":39.92077,"lng":32.85411},"max":{"lat":39.92077,"lng":32.85411}}},{"code":"07","country_code":"TR","state_code":"","name":"Antalya","geo":{"center":{"lat":36.88414,"lng":30.70563},"min":{"lat":36.88414,"lng":30.70563},"max":{"lat":36.88414,"lng":30.70563}}},{"code":"08","country_code":"TR","state_code":"","name":"Artvin","geo":{"center":{"lat":41.18277,"lng":41.818291},"min":{"lat":41.18277,"lng":41.818291},"max":{"lat":41.18277,"lng":41.818291}}},{"code":"09","country_code":"TR","state_code":"","name":"Aydin","geo":{"center":{"lat":37.848056,"lng":27.845278},"min":{"lat":37.848056,"lng":27.845278},"max":{"lat":37.848056,"lng":27.845278}}},{"code":10,"country_code":"TR","state_code":"","name":"Balikesir","geo":{"center":{"lat":39.648369,"lng":27.88261},"min":{"lat":39.648369,"lng":27.88261},"max":{"lat":39.648369,"lng":27.88261}}},{"code":11,"country_code":"TR","state_code":"","name":"Bilecik","geo":{"center":{"lat":40.150131,"lng":29.983061},"min":{"lat":40.150131,"lng":29.983061},"max":{"lat":40.150131,"lng":29.983061}}},{"code":12,"country_code":"TR","state_code":"","name":"Bing\u00f6l","geo":{"center":{"lat":38.885349,"lng":40.498291},"min":{"lat":38.885349,"lng":40.498291},"max":{"lat":38.885349,"lng":40.498291}}},{"code":13,"country_code":"TR","state_code":"","name":"Bitlis","geo":{"center":{"lat":38.393799,"lng":42.12318},"min":{"lat":38.393799,"lng":42.12318},"max":{"lat":38.393799,"lng":42.12318}}},{"code":14,"country_code":"TR","state_code":"","name":"Bolu","geo":{"center":{"lat":40.739479,"lng":31.611561},"min":{"lat":40.739479,"lng":31.611561},"max":{"lat":40.739479,"lng":31.611561}}},{"code":15,"country_code":"TR","state_code":"","name":"Burdur","geo":{"center":{"lat":37.726909,"lng":30.288876},"min":{"lat":37.726909,"lng":30.288876},"max":{"lat":37.726909,"lng":30.288876}}},{"code":16,"country_code":"TR","state_code":"","name":"Bursa","geo":{"center":{"lat":40.266864,"lng":29.0634479},"min":{"lat":40.266864,"lng":29.0634479},"max":{"lat":40.266864,"lng":29.0634479}}},{"code":17,"country_code":"TR","state_code":"","name":"\u00c7anakkale","geo":{"center":{"lat":40.147778,"lng":26.405556},"min":{"lat":40.147778,"lng":26.405556},"max":{"lat":40.147778,"lng":26.405556}}},{"code":18,"country_code":"TR","state_code":"","name":"\u00c7ankiri","geo":{"center":{"lat":40.6013428,"lng":33.6134213},"min":{"lat":40.6013428,"lng":33.6134213},"max":{"lat":40.6013428,"lng":33.6134213}}},{"code":19,"country_code":"TR","state_code":"","name":"\u00c7orum","geo":{"center":{"lat":40.554371,"lng":34.963718},"min":{"lat":40.554371,"lng":34.963718},"max":{"lat":40.554371,"lng":34.963718}}},{"code":20,"country_code":"TR","state_code":"","name":"Denizli","geo":{"center":{"lat":37.77652,"lng":29.08639},"min":{"lat":37.77652,"lng":29.08639},"max":{"lat":37.77652,"lng":29.08639}}},{"code":21,"country_code":"TR","state_code":"","name":"Diyarbakir","geo":{"center":{"lat":37.9144099,"lng":40.230629},"min":{"lat":37.9144099,"lng":40.230629},"max":{"lat":37.9144099,"lng":40.230629}}},{"code":22,"country_code":"TR","state_code":"","name":"Edirne","geo":{"center":{"lat":41.674444,"lng":26.560833},"min":{"lat":41.674444,"lng":26.560833},"max":{"lat":41.674444,"lng":26.560833}}},{"code":23,"country_code":"TR","state_code":"","name":"Elazig","geo":{"center":{"lat":38.680969,"lng":39.226398},"min":{"lat":38.680969,"lng":39.226398},"max":{"lat":38.680969,"lng":39.226398}}},{"code":24,"country_code":"TR","state_code":"","name":"Erzincan","geo":{"center":{"lat":39.7399289,"lng":39.504501},"min":{"lat":39.7399289,"lng":39.504501},"max":{"lat":39.7399289,"lng":39.504501}}},{"code":25,"country_code":"TR","state_code":"","name":"Erzurum","geo":{"center":{"lat":39.908611,"lng":41.276944},"min":{"lat":39.908611,"lng":41.276944},"max":{"lat":39.908611,"lng":41.276944}}},{"code":26,"country_code":"TR","state_code":"","name":"Eskisehir","geo":{"center":{"lat":39.776667,"lng":30.520556},"min":{"lat":39.776667,"lng":30.520556},"max":{"lat":39.776667,"lng":30.520556}}},{"code":27,"country_code":"TR","state_code":"","name":"Gaziantep","geo":{"center":{"lat":37.06622,"lng":37.38332},"min":{"lat":37.06622,"lng":37.38332},"max":{"lat":37.06622,"lng":37.38332}}},{"code":28,"country_code":"TR","state_code":"","name":"Giresun","geo":{"center":{"lat":40.912811,"lng":38.38953},"min":{"lat":40.912811,"lng":38.38953},"max":{"lat":40.912811,"lng":38.38953}}},{"code":29,"country_code":"TR","state_code":"","name":"G\u00fcm\u00fcshane","geo":{"center":{"lat":40.4385883,"lng":39.5085557},"min":{"lat":40.4385883,"lng":39.5085557},"max":{"lat":40.4385883,"lng":39.5085557}}},{"code":30,"country_code":"TR","state_code":"","name":"Hakk\u00e2ri","geo":{"center":{"lat":37.576389,"lng":43.736667},"min":{"lat":37.576389,"lng":43.736667},"max":{"lat":37.576389,"lng":43.736667}}},{"code":31,"country_code":"TR","state_code":"","name":"Hatay","geo":{"center":{"lat":36.2,"lng":36.166667},"min":{"lat":36.2,"lng":36.166667},"max":{"lat":36.2,"lng":36.166667}}},{"code":32,"country_code":"TR","state_code":"","name":"Isparta","geo":{"center":{"lat":37.764771,"lng":30.556561},"min":{"lat":37.764771,"lng":30.556561},"max":{"lat":37.764771,"lng":30.556561}}},{"code":33,"country_code":"TR","state_code":"","name":"I\u00e7el","geo":{"center":{"lat":36.6321731,"lng":33.617577},"min":{"lat":36.6321731,"lng":33.617577},"max":{"lat":36.6321731,"lng":33.617577}}},{"code":34,"country_code":"TR","state_code":"","name":"Istanbul","geo":{"center":{"lat":41.00527,"lng":28.97696},"min":{"lat":41.00527,"lng":28.97696},"max":{"lat":41.00527,"lng":28.97696}}},{"code":35,"country_code":"TR","state_code":"","name":"Izmir","geo":{"center":{"lat":38.41885,"lng":27.12872},"min":{"lat":38.41885,"lng":27.12872},"max":{"lat":38.41885,"lng":27.12872}}},{"code":36,"country_code":"TR","state_code":"","name":"Kars","geo":{"center":{"lat":40.616667,"lng":43.1},"min":{"lat":40.616667,"lng":43.1},"max":{"lat":40.616667,"lng":43.1}}},{"code":37,"country_code":"TR","state_code":"","name":"Kastamonu","geo":{"center":{"lat":41.38871,"lng":33.78273},"min":{"lat":41.38871,"lng":33.78273},"max":{"lat":41.38871,"lng":33.78273}}},{"code":38,"country_code":"TR","state_code":"","name":"Kayseri","geo":{"center":{"lat":38.73122,"lng":35.478729},"min":{"lat":38.73122,"lng":35.478729},"max":{"lat":38.73122,"lng":35.478729}}},{"code":39,"country_code":"TR","state_code":"","name":"Kirklareli","geo":{"center":{"lat":41.742908,"lng":27.226089},"min":{"lat":41.742908,"lng":27.226089},"max":{"lat":41.742908,"lng":27.226089}}},{"code":40,"country_code":"TR","state_code":"","name":"Kirsehir","geo":{"center":{"lat":39.146,"lng":34.1607},"min":{"lat":39.146,"lng":34.1607},"max":{"lat":39.146,"lng":34.1607}}},{"code":41,"country_code":"TR","state_code":"","name":"Kocaeli","geo":{"center":{"lat":40.8532704,"lng":29.8815203},"min":{"lat":40.8532704,"lng":29.8815203},"max":{"lat":40.8532704,"lng":29.8815203}}},{"code":42,"country_code":"TR","state_code":"","name":"Konya","geo":{"center":{"lat":37.866667,"lng":32.483333},"min":{"lat":37.866667,"lng":32.483333},"max":{"lat":37.866667,"lng":32.483333}}},{"code":43,"country_code":"TR","state_code":"","name":"K\u00fctahya","geo":{"center":{"lat":39.4167,"lng":29.9833},"min":{"lat":39.4167,"lng":29.9833},"max":{"lat":39.4167,"lng":29.9833}}},{"code":44,"country_code":"TR","state_code":"","name":"Malatya","geo":{"center":{"lat":38.35,"lng":38.3},"min":{"lat":38.35,"lng":38.3},"max":{"lat":38.35,"lng":38.3}}},{"code":45,"country_code":"TR","state_code":"","name":"Manisa","geo":{"center":{"lat":38.619099,"lng":27.428921},"min":{"lat":38.619099,"lng":27.428921},"max":{"lat":38.619099,"lng":27.428921}}},{"code":46,"country_code":"TR","state_code":"","name":"Kahramanmaras","geo":{"center":{"lat":37.583333,"lng":36.933333},"min":{"lat":37.583333,"lng":36.933333},"max":{"lat":37.583333,"lng":36.933333}}},{"code":47,"country_code":"TR","state_code":"","name":"Mardin","geo":{"center":{"lat":37.3211634,"lng":40.7244774},"min":{"lat":37.3211634,"lng":40.7244774},"max":{"lat":37.3211634,"lng":40.7244774}}},{"code":48,"country_code":"TR","state_code":"","name":"Mugla","geo":{"center":{"lat":37.216667,"lng":28.366667},"min":{"lat":37.216667,"lng":28.366667},"max":{"lat":37.216667,"lng":28.366667}}},{"code":49,"country_code":"TR","state_code":"","name":"Mus","geo":{"center":{"lat":38.733333,"lng":41.491111},"min":{"lat":38.733333,"lng":41.491111},"max":{"lat":38.733333,"lng":41.491111}}},{"code":50,"country_code":"TR","state_code":"","name":"Nevsehir","geo":{"center":{"lat":38.62442,"lng":34.7239689},"min":{"lat":38.62442,"lng":34.7239689},"max":{"lat":38.62442,"lng":34.7239689}}},{"code":51,"country_code":"TR","state_code":"","name":"Nigde","geo":{"center":{"lat":37.97646,"lng":34.69376},"min":{"lat":37.97646,"lng":34.69376},"max":{"lat":37.97646,"lng":34.69376}}},{"code":52,"country_code":"TR","state_code":"","name":"Ordu","geo":{"center":{"lat":40.983879,"lng":37.876411},"min":{"lat":40.983879,"lng":37.876411},"max":{"lat":40.983879,"lng":37.876411}}},{"code":53,"country_code":"TR","state_code":"","name":"Rize","geo":{"center":{"lat":41.02005,"lng":40.523449},"min":{"lat":41.02005,"lng":40.523449},"max":{"lat":41.02005,"lng":40.523449}}},{"code":54,"country_code":"TR","state_code":"","name":"Sakarya","geo":{"center":{"lat":40.783333,"lng":30.4},"min":{"lat":40.783333,"lng":30.4},"max":{"lat":40.783333,"lng":30.4}}},{"code":55,"country_code":"TR","state_code":"","name":"Samsun","geo":{"center":{"lat":41.292782,"lng":36.33128},"min":{"lat":41.292782,"lng":36.33128},"max":{"lat":41.292782,"lng":36.33128}}},{"code":56,"country_code":"TR","state_code":"","name":"Siirt","geo":{"center":{"lat":37.9355471,"lng":41.9368268},"min":{"lat":37.9355471,"lng":41.9368268},"max":{"lat":37.9355471,"lng":41.9368268}}},{"code":57,"country_code":"TR","state_code":"","name":"Sinop","geo":{"center":{"lat":42.02314,"lng":35.153069},"min":{"lat":42.02314,"lng":35.153069},"max":{"lat":42.02314,"lng":35.153069}}},{"code":58,"country_code":"TR","state_code":"","name":"Sivas","geo":{"center":{"lat":39.747662,"lng":37.017879},"min":{"lat":39.747662,"lng":37.017879},"max":{"lat":39.747662,"lng":37.017879}}},{"code":59,"country_code":"TR","state_code":"","name":"Tekirdag","geo":{"center":{"lat":40.977778,"lng":27.515278},"min":{"lat":40.977778,"lng":27.515278},"max":{"lat":40.977778,"lng":27.515278}}},{"code":60,"country_code":"TR","state_code":"","name":"Tokat","geo":{"center":{"lat":40.313889,"lng":36.554167},"min":{"lat":40.313889,"lng":36.554167},"max":{"lat":40.313889,"lng":36.554167}}},{"code":61,"country_code":"TR","state_code":"","name":"Trabzon","geo":{"center":{"lat":41.00145,"lng":39.7177999},"min":{"lat":41.00145,"lng":39.7177999},"max":{"lat":41.00145,"lng":39.7177999}}},{"code":62,"country_code":"TR","state_code":"","name":"Tunceli","geo":{"center":{"lat":39.1058251,"lng":39.5455166},"min":{"lat":39.1058251,"lng":39.5455166},"max":{"lat":39.1058251,"lng":39.5455166}}},{"code":63,"country_code":"TR","state_code":"","name":"Sanliurfa","geo":{"center":{"lat":37.159149,"lng":38.796909},"min":{"lat":37.159149,"lng":38.796909},"max":{"lat":37.159149,"lng":38.796909}}},{"code":64,"country_code":"TR","state_code":"","name":"Usak","geo":{"center":{"lat":38.682301,"lng":29.40819},"min":{"lat":38.682301,"lng":29.40819},"max":{"lat":38.682301,"lng":29.40819}}},{"code":65,"country_code":"TR","state_code":"","name":"Van","geo":{"center":{"lat":38.494167,"lng":43.38},"min":{"lat":38.494167,"lng":43.38},"max":{"lat":38.494167,"lng":43.38}}},{"code":66,"country_code":"TR","state_code":"","name":"Yozgat","geo":{"center":{"lat":39.818081,"lng":34.81469},"min":{"lat":39.818081,"lng":34.81469},"max":{"lat":39.818081,"lng":34.81469}}},{"code":67,"country_code":"TR","state_code":"","name":"Zonguldak","geo":{"center":{"lat":41.456409,"lng":31.798731},"min":{"lat":41.456409,"lng":31.798731},"max":{"lat":41.456409,"lng":31.798731}}},{"code":68,"country_code":"TR","state_code":"","name":"Aksaray","geo":{"center":{"lat":38.36869,"lng":34.03698},"min":{"lat":38.36869,"lng":34.03698},"max":{"lat":38.36869,"lng":34.03698}}},{"code":69,"country_code":"TR","state_code":"","name":"Bayburt","geo":{"center":{"lat":40.255169,"lng":40.22488},"min":{"lat":40.255169,"lng":40.22488},"max":{"lat":40.255169,"lng":40.22488}}},{"code":70,"country_code":"TR","state_code":"","name":"Karaman","geo":{"center":{"lat":37.17593,"lng":33.228748},"min":{"lat":37.17593,"lng":33.228748},"max":{"lat":37.17593,"lng":33.228748}}},{"code":71,"country_code":"TR","state_code":"","name":"Kirikkale","geo":{"center":{"lat":39.846821,"lng":33.515251},"min":{"lat":39.846821,"lng":33.515251},"max":{"lat":39.846821,"lng":33.515251}}},{"code":72,"country_code":"TR","state_code":"","name":"Batman","geo":{"center":{"lat":37.881168,"lng":41.13509},"min":{"lat":37.881168,"lng":41.13509},"max":{"lat":37.881168,"lng":41.13509}}},{"code":73,"country_code":"TR","state_code":"","name":"Sirnak","geo":{"center":{"lat":37.516389,"lng":42.461111},"min":{"lat":37.516389,"lng":42.461111},"max":{"lat":37.516389,"lng":42.461111}}},{"code":74,"country_code":"TR","state_code":"","name":"Bartin","geo":{"center":{"lat":41.641521,"lng":32.345581},"min":{"lat":41.641521,"lng":32.345581},"max":{"lat":41.641521,"lng":32.345581}}},{"code":75,"country_code":"TR","state_code":"","name":"Ardahan","geo":{"center":{"lat":41.110481,"lng":42.702171},"min":{"lat":41.110481,"lng":42.702171},"max":{"lat":41.110481,"lng":42.702171}}},{"code":76,"country_code":"TR","state_code":"","name":"Igdir","geo":{"center":{"lat":39.9193,"lng":44.065498},"min":{"lat":39.9193,"lng":44.065498},"max":{"lat":39.9193,"lng":44.065498}}},{"code":77,"country_code":"TR","state_code":"","name":"Yalova","geo":{"center":{"lat":40.65,"lng":29.266667},"min":{"lat":40.65,"lng":29.266667},"max":{"lat":40.65,"lng":29.266667}}},{"code":78,"country_code":"TR","state_code":"","name":"Karab\u00fck","geo":{"center":{"lat":41.2061,"lng":32.62035},"min":{"lat":41.2061,"lng":32.62035},"max":{"lat":41.2061,"lng":32.62035}}},{"code":79,"country_code":"TR","state_code":"","name":"Kilis","geo":{"center":{"lat":36.718399,"lng":37.12122},"min":{"lat":36.718399,"lng":37.12122},"max":{"lat":36.718399,"lng":37.12122}}},{"code":80,"country_code":"TR","state_code":"","name":"Osmaniye","geo":{"center":{"lat":37.06805,"lng":36.261589},"min":{"lat":37.06805,"lng":36.261589},"max":{"lat":37.06805,"lng":36.261589}}},{"code":81,"country_code":"TR","state_code":"","name":"D\u00fczce","geo":{"center":{"lat":40.843849,"lng":31.15654},"min":{"lat":40.843849,"lng":31.15654},"max":{"lat":40.843849,"lng":31.15654}}}]