[{"code":"01","country_code":"TZ","state_code":"","name":"Arusha","geo":{"center":{"lat":-3.372301,"lng":36.6944136},"min":{"lat":-3.372301,"lng":36.6944136},"max":{"lat":-3.372301,"lng":36.6944136}}},{"code":"02","country_code":"TZ","state_code":"","name":"Dar es Salaam","geo":{"center":{"lat":-6.8,"lng":39.283333},"min":{"lat":-6.8,"lng":39.283333},"max":{"lat":-6.8,"lng":39.283333}}},{"code":"03","country_code":"TZ","state_code":"","name":"Dodoma","geo":{"center":{"lat":-6.173056,"lng":35.741944},"min":{"lat":-6.173056,"lng":35.741944},"max":{"lat":-6.173056,"lng":35.741944}}},{"code":"04","country_code":"TZ","state_code":"","name":"Iringa","geo":{"center":{"lat":-7.77,"lng":35.69},"min":{"lat":-7.77,"lng":35.69},"max":{"lat":-7.77,"lng":35.69}}},{"code":"05","country_code":"TZ","state_code":"","name":"Kagera","geo":{"center":{"lat":-2.3751124,"lng":31.2626366},"min":{"lat":-2.3751124,"lng":31.2626366},"max":{"lat":-2.3751124,"lng":31.2626366}}},{"code":"06","country_code":"TZ","state_code":"","name":"Kaskazini Pemba","geo":{"center":{"lat":-5.0319352,"lng":39.7755571},"min":{"lat":-5.0319352,"lng":39.7755571},"max":{"lat":-5.0319352,"lng":39.7755571}}},{"code":"07","country_code":"TZ","state_code":"","name":"Kaskazini Unguja","geo":{"center":{"lat":-5.9395093,"lng":39.2791011},"min":{"lat":-5.9395093,"lng":39.2791011},"max":{"lat":-5.9395093,"lng":39.2791011}}},{"code":"08","country_code":"TZ","state_code":"","name":"Kigoma","geo":{"center":{"lat":-4.883333,"lng":29.633333},"min":{"lat":-4.883333,"lng":29.633333},"max":{"lat":-4.883333,"lng":29.633333}}},{"code":"09","country_code":"TZ","state_code":"","name":"Kilimanjaro","geo":{"center":{"lat":-4.1336927,"lng":37.8087693},"min":{"lat":-4.1336927,"lng":37.8087693},"max":{"lat":-4.1336927,"lng":37.8087693}}},{"code":10,"country_code":"TZ","state_code":"","name":"Kusini Pemba","geo":{"center":{"lat":-5.3146961,"lng":39.7549511},"min":{"lat":-5.3146961,"lng":39.7549511},"max":{"lat":-5.3146961,"lng":39.7549511}}},{"code":11,"country_code":"TZ","state_code":"","name":"Kusini Unguja","geo":{"center":{"lat":-6.2036563,"lng":39.3621196},"min":{"lat":-6.2036563,"lng":39.3621196},"max":{"lat":-6.2036563,"lng":39.3621196}}},{"code":12,"country_code":"TZ","state_code":"","name":"Lindi","geo":{"center":{"lat":-9.996944,"lng":39.714444},"min":{"lat":-9.996944,"lng":39.714444},"max":{"lat":-9.996944,"lng":39.714444}}},{"code":13,"country_code":"TZ","state_code":"","name":"Mara","geo":{"center":{"lat":-1.7753538,"lng":34.1531947},"min":{"lat":-1.7753538,"lng":34.1531947},"max":{"lat":-1.7753538,"lng":34.1531947}}},{"code":14,"country_code":"TZ","state_code":"","name":"Mbeya","geo":{"center":{"lat":-8.9,"lng":33.45},"min":{"lat":-8.9,"lng":33.45},"max":{"lat":-8.9,"lng":33.45}}},{"code":15,"country_code":"TZ","state_code":"","name":"Mjini Magharibi","geo":{"center":{"lat":-6.2298136,"lng":39.2583293},"min":{"lat":-6.2298136,"lng":39.2583293},"max":{"lat":-6.2298136,"lng":39.2583293}}},{"code":16,"country_code":"TZ","state_code":"","name":"Morogoro","geo":{"center":{"lat":-6.816667,"lng":37.666667},"min":{"lat":-6.816667,"lng":37.666667},"max":{"lat":-6.816667,"lng":37.666667}}},{"code":17,"country_code":"TZ","state_code":"","name":"Mtwara","geo":{"center":{"lat":-10.273611,"lng":40.182778},"min":{"lat":-10.273611,"lng":40.182778},"max":{"lat":-10.273611,"lng":40.182778}}},{"code":18,"country_code":"TZ","state_code":"","name":"Mwanza","geo":{"center":{"lat":-2.516667,"lng":32.9},"min":{"lat":-2.516667,"lng":32.9},"max":{"lat":-2.516667,"lng":32.9}}},{"code":19,"country_code":"TZ","state_code":"","name":"Pwani","geo":{"center":{"lat":-7.3237714,"lng":38.8205454},"min":{"lat":-7.3237714,"lng":38.8205454},"max":{"lat":-7.3237714,"lng":38.8205454}}},{"code":20,"country_code":"TZ","state_code":"","name":"Rukwa","geo":{"center":{"lat":-6.9653685,"lng":31.2626366},"min":{"lat":-6.9653685,"lng":31.2626366},"max":{"lat":-6.9653685,"lng":31.2626366}}},{"code":21,"country_code":"TZ","state_code":"","name":"Ruvuma","geo":{"center":{"lat":-10.6878717,"lng":36.2630846},"min":{"lat":-10.6878717,"lng":36.2630846},"max":{"lat":-10.6878717,"lng":36.2630846}}},{"code":22,"country_code":"TZ","state_code":"","name":"Shinyanga","geo":{"center":{"lat":-3.661944,"lng":33.423056},"min":{"lat":-3.661944,"lng":33.423056},"max":{"lat":-3.661944,"lng":33.423056}}},{"code":23,"country_code":"TZ","state_code":"","name":"Singida","geo":{"center":{"lat":-4.82,"lng":34.74},"min":{"lat":-4.82,"lng":34.74},"max":{"lat":-4.82,"lng":34.74}}},{"code":24,"country_code":"TZ","state_code":"","name":"Tabora","geo":{"center":{"lat":-5.016667,"lng":32.8},"min":{"lat":-5.016667,"lng":32.8},"max":{"lat":-5.016667,"lng":32.8}}},{"code":25,"country_code":"TZ","state_code":"","name":"Tanga","geo":{"center":{"lat":-5.0888751,"lng":39.1023228},"min":{"lat":-5.0888751,"lng":39.1023228},"max":{"lat":-5.0888751,"lng":39.1023228}}},{"code":26,"country_code":"TZ","state_code":"","name":"Manyara","geo":{"center":{"lat":-4.3150058,"lng":36.954107},"min":{"lat":-4.3150058,"lng":36.954107},"max":{"lat":-4.3150058,"lng":36.954107}}}]