[{"code":"05","country_code":"UA","state_code":"","name":"Vinnyts'ka Oblast'","geo":{"center":{"lat":49.233083,"lng":28.468217},"min":{"lat":49.233083,"lng":28.468217},"max":{"lat":49.233083,"lng":28.468217}}},{"code":"07","country_code":"UA","state_code":"","name":"Volyns'ka Oblast'","geo":{"center":{"lat":50.747233,"lng":25.325383},"min":{"lat":50.747233,"lng":25.325383},"max":{"lat":50.747233,"lng":25.325383}}},{"code":"09","country_code":"UA","state_code":"","name":"Luhans'ka Oblast'","geo":{"center":{"lat":48.574041,"lng":39.307815},"min":{"lat":48.574041,"lng":39.307815},"max":{"lat":48.574041,"lng":39.307815}}},{"code":12,"country_code":"UA","state_code":"","name":"Dnipropetrovs'ka Oblast'","geo":{"center":{"lat":48.464717,"lng":35.046183},"min":{"lat":48.464717,"lng":35.046183},"max":{"lat":48.464717,"lng":35.046183}}},{"code":14,"country_code":"UA","state_code":"","name":"Donets'ka Oblast'","geo":{"center":{"lat":48.015883,"lng":37.80285},"min":{"lat":48.015883,"lng":37.80285},"max":{"lat":48.015883,"lng":37.80285}}},{"code":18,"country_code":"UA","state_code":"","name":"Zhytomyrs'ka Oblast'","geo":{"center":{"lat":50.25465,"lng":28.658667},"min":{"lat":50.25465,"lng":28.658667},"max":{"lat":50.25465,"lng":28.658667}}},{"code":21,"country_code":"UA","state_code":"","name":"Zakarpats'ka Oblast'","geo":{"center":{"lat":48.6208,"lng":22.287883},"min":{"lat":48.6208,"lng":22.287883},"max":{"lat":48.6208,"lng":22.287883}}},{"code":23,"country_code":"UA","state_code":"","name":"Zaporiz'ka Oblast'","geo":{"center":{"lat":47.8388,"lng":35.139567},"min":{"lat":47.8388,"lng":35.139567},"max":{"lat":47.8388,"lng":35.139567}}},{"code":26,"country_code":"UA","state_code":"","name":"Ivano-Frankivs'ka Oblast'","geo":{"center":{"lat":48.922633,"lng":24.711117},"min":{"lat":48.922633,"lng":24.711117},"max":{"lat":48.922633,"lng":24.711117}}},{"code":30,"country_code":"UA","state_code":"","name":"Ky\u00efv","geo":{"center":{"lat":50.4501,"lng":30.5234},"min":{"lat":50.4501,"lng":30.5234},"max":{"lat":50.4501,"lng":30.5234}}},{"code":32,"country_code":"UA","state_code":"","name":"Ky\u00efvs'ka Oblast'","geo":{"center":{"lat":50.0529506,"lng":30.7667133},"min":{"lat":50.0529506,"lng":30.7667133},"max":{"lat":50.0529506,"lng":30.7667133}}},{"code":35,"country_code":"UA","state_code":"","name":"Kirovohrads'ka Oblast'","geo":{"center":{"lat":48.507933,"lng":32.262317},"min":{"lat":48.507933,"lng":32.262317},"max":{"lat":48.507933,"lng":32.262317}}},{"code":40,"country_code":"UA","state_code":"","name":"Sevastopol'","geo":{"center":{"lat":44.61665,"lng":33.525367},"min":{"lat":44.61665,"lng":33.525367},"max":{"lat":44.61665,"lng":33.525367}}},{"code":43,"country_code":"UA","state_code":"","name":"Respublika Krym","geo":{"center":{"lat":44.952117,"lng":34.102417},"min":{"lat":44.952117,"lng":34.102417},"max":{"lat":44.952117,"lng":34.102417}}},{"code":46,"country_code":"UA","state_code":"","name":"L'vivs'ka Oblast'","geo":{"center":{"lat":49.839683,"lng":24.029717},"min":{"lat":49.839683,"lng":24.029717},"max":{"lat":49.839683,"lng":24.029717}}},{"code":48,"country_code":"UA","state_code":"","name":"Mykola\u00efvs'ka Oblast'","geo":{"center":{"lat":46.975033,"lng":31.994583},"min":{"lat":46.975033,"lng":31.994583},"max":{"lat":46.975033,"lng":31.994583}}},{"code":51,"country_code":"UA","state_code":"","name":"Odes'ka Oblast'","geo":{"center":{"lat":46.484583,"lng":30.7326},"min":{"lat":46.484583,"lng":30.7326},"max":{"lat":46.484583,"lng":30.7326}}},{"code":53,"country_code":"UA","state_code":"","name":"Poltavs'ka Oblast'","geo":{"center":{"lat":49.588267,"lng":34.551417},"min":{"lat":49.588267,"lng":34.551417},"max":{"lat":49.588267,"lng":34.551417}}},{"code":56,"country_code":"UA","state_code":"","name":"Rivnens'ka Oblast'","geo":{"center":{"lat":50.6199,"lng":26.251617},"min":{"lat":50.6199,"lng":26.251617},"max":{"lat":50.6199,"lng":26.251617}}},{"code":59,"country_code":"UA","state_code":"","name":"Sums'ka Oblast'","geo":{"center":{"lat":50.9077,"lng":34.7981},"min":{"lat":50.9077,"lng":34.7981},"max":{"lat":50.9077,"lng":34.7981}}},{"code":61,"country_code":"UA","state_code":"","name":"Ternopil's'ka Oblast'","geo":{"center":{"lat":49.553517,"lng":25.594767},"min":{"lat":49.553517,"lng":25.594767},"max":{"lat":49.553517,"lng":25.594767}}},{"code":63,"country_code":"UA","state_code":"","name":"Kharkivs'ka Oblast'","geo":{"center":{"lat":49.9935,"lng":36.230383},"min":{"lat":49.9935,"lng":36.230383},"max":{"lat":49.9935,"lng":36.230383}}},{"code":65,"country_code":"UA","state_code":"","name":"Khersons'ka Oblast'","geo":{"center":{"lat":46.635417,"lng":32.616867},"min":{"lat":46.635417,"lng":32.616867},"max":{"lat":46.635417,"lng":32.616867}}},{"code":68,"country_code":"UA","state_code":"","name":"Khmel'nyts'ka Oblast'","geo":{"center":{"lat":49.422983,"lng":26.987133},"min":{"lat":49.422983,"lng":26.987133},"max":{"lat":49.422983,"lng":26.987133}}},{"code":71,"country_code":"UA","state_code":"","name":"Cherkas'ka Oblast'","geo":{"center":{"lat":49.444433,"lng":32.059767},"min":{"lat":49.444433,"lng":32.059767},"max":{"lat":49.444433,"lng":32.059767}}},{"code":74,"country_code":"UA","state_code":"","name":"Chernihivs'ka Oblast'","geo":{"center":{"lat":51.4982,"lng":31.28935},"min":{"lat":51.4982,"lng":31.28935},"max":{"lat":51.4982,"lng":31.28935}}},{"code":77,"country_code":"UA","state_code":"","name":"Chernivets'ka Oblast'","geo":{"center":{"lat":48.291683,"lng":25.935217},"min":{"lat":48.291683,"lng":25.935217},"max":{"lat":48.291683,"lng":25.935217}}}]