[{"code":"AR","country_code":"UY","state_code":"","name":"Artigas","geo":{"center":{"lat":-30.4880891,"lng":-57.1013188},"min":{"lat":-30.4880891,"lng":-57.1013188},"max":{"lat":-30.4880891,"lng":-57.1013188}}},{"code":"CA","country_code":"UY","state_code":"","name":"Canelones","geo":{"center":{"lat":null,"lng":"-55.9590"},"min":{"lat":null,"lng":"-55.9590"},"max":{"lat":null,"lng":"-55.9590"}}},{"code":"CO","country_code":"UY","state_code":"","name":"Colonia","geo":{"center":{"lat":-34.4607,"lng":-57.8339},"min":{"lat":-34.4607,"lng":-57.8339},"max":{"lat":-34.4607,"lng":-57.8339}}},{"code":"CL","country_code":"UY","state_code":"","name":"Cerro Lago","geo":{"center":{"lat":-32.3769,"lng":-54.1654},"min":{"lat":-32.3769,"lng":-54.1654},"max":{"lat":-32.3769,"lng":-54.1654}}},{"code":"DU","country_code":"UY","state_code":"","name":"Durazno","geo":{"center":{"lat":-33.3822982,"lng":-56.5275506},"min":{"lat":-33.3822982,"lng":-56.5275506},"max":{"lat":-33.3822982,"lng":-56.5275506}}},{"code":"FD","country_code":"UY","state_code":"","name":"Florida","geo":{"center":{"lat":-34.1,"lng":-56.216667},"min":{"lat":-34.1,"lng":-56.216667},"max":{"lat":-34.1,"lng":-56.216667}}},{"code":"FS","country_code":"UY","state_code":"","name":"Flores","geo":{"center":{"lat":-33.5629477,"lng":-56.8311117},"min":{"lat":-33.5629477,"lng":-56.8311117},"max":{"lat":-33.5629477,"lng":-56.8311117}}},{"code":"LA","country_code":"UY","state_code":"","name":"Lavalleja","geo":{"center":{"lat":-34.0040354,"lng":-54.9611836},"min":{"lat":-34.0040354,"lng":-54.9611836},"max":{"lat":-34.0040354,"lng":-54.9611836}}},{"code":"MA","country_code":"UY","state_code":"","name":"Maldonado","geo":{"center":{"lat":-34.6277617,"lng":-54.9611836},"min":{"lat":-34.6277617,"lng":-54.9611836},"max":{"lat":-34.6277617,"lng":-54.9611836}}},{"code":"MO","country_code":"UY","state_code":"","name":"Montevideo","geo":{"center":{"lat":-34.9011127,"lng":-56.1645314},"min":{"lat":-34.9011127,"lng":-56.1645314},"max":{"lat":-34.9011127,"lng":-56.1645314}}},{"code":"PA","country_code":"UY","state_code":"","name":"Paysand\u00fa","geo":{"center":{"lat":-32.2216595,"lng":-57.4627259},"min":{"lat":-32.2216595,"lng":-57.4627259},"max":{"lat":-32.2216595,"lng":-57.4627259}}},{"code":"RN","country_code":"UY","state_code":"","name":"R\u00edo Negro","geo":{"center":{"lat":-32.7625409,"lng":-57.1013188},"min":{"lat":-32.7625409,"lng":-57.1013188},"max":{"lat":-32.7625409,"lng":-57.1013188}}},{"code":"RO","country_code":"UY","state_code":"","name":"Rocha","geo":{"center":{"lat":-33.9674948,"lng":-53.9106594},"min":{"lat":-33.9674948,"lng":-53.9106594},"max":{"lat":-33.9674948,"lng":-53.9106594}}},{"code":"RV","country_code":"UY","state_code":"","name":"Rivera","geo":{"center":{"lat":-30.9025,"lng":-55.550556},"min":{"lat":-30.9025,"lng":-55.550556},"max":{"lat":-30.9025,"lng":-55.550556}}},{"code":"SA","country_code":"UY","state_code":"","name":"Salto","geo":{"center":{"lat":-31.4679335,"lng":-57.1013188},"min":{"lat":-31.4679335,"lng":-57.1013188},"max":{"lat":-31.4679335,"lng":-57.1013188}}},{"code":"SJ","country_code":"UY","state_code":"","name":"San Jos\u00e9","geo":{"center":{"lat":-34.250223,"lng":-56.741207},"min":{"lat":-34.250223,"lng":-56.741207},"max":{"lat":-34.250223,"lng":-56.741207}}},{"code":"SO","country_code":"UY","state_code":"","name":"Soriano","geo":{"center":{"lat":-33.5103372,"lng":-57.7346113},"min":{"lat":-33.5103372,"lng":-57.7346113},"max":{"lat":-33.5103372,"lng":-57.7346113}}},{"code":"TA","country_code":"UY","state_code":"","name":"Tacuaremb\u00f3","geo":{"center":{"lat":-32.0106717,"lng":-55.6689636},"min":{"lat":-32.0106717,"lng":-55.6689636},"max":{"lat":-32.0106717,"lng":-55.6689636}}},{"code":"TT","country_code":"UY","state_code":"","name":"Treinta y Tres","geo":{"center":{"lat":-33.1476661,"lng":-54.2593118},"min":{"lat":-33.1476661,"lng":-54.2593118},"max":{"lat":-33.1476661,"lng":-54.2593118}}}]