[{"code":"01","country_code":"VN","state_code":"","name":"Lai Chau","geo":{"center":{"lat":22.3686613,"lng":103.3119085},"min":{"lat":22.3686613,"lng":103.3119085},"max":{"lat":22.3686613,"lng":103.3119085}}},{"code":"02","country_code":"VN","state_code":"","name":"Lao Cai","geo":{"center":{"lat":22.3380865,"lng":104.1487055},"min":{"lat":22.3380865,"lng":104.1487055},"max":{"lat":22.3380865,"lng":104.1487055}}},{"code":"03","country_code":"VN","state_code":"","name":"Ha Giang","geo":{"center":{"lat":22.7662056,"lng":104.9388853},"min":{"lat":22.7662056,"lng":104.9388853},"max":{"lat":22.7662056,"lng":104.9388853}}},{"code":"04","country_code":"VN","state_code":"","name":"Cao Bang","geo":{"center":{"lat":22.635689,"lng":106.2522143},"min":{"lat":22.635689,"lng":106.2522143},"max":{"lat":22.635689,"lng":106.2522143}}},{"code":"05","country_code":"VN","state_code":"","name":"Son La","geo":{"center":{"lat":21.3270341,"lng":103.9141288},"min":{"lat":21.3270341,"lng":103.9141288},"max":{"lat":21.3270341,"lng":103.9141288}}},{"code":"06","country_code":"VN","state_code":"","name":"Yen Bai","geo":{"center":{"lat":21.6837923,"lng":104.4551361},"min":{"lat":21.6837923,"lng":104.4551361},"max":{"lat":21.6837923,"lng":104.4551361}}},{"code":"07","country_code":"VN","state_code":"","name":"Tuyen Quang","geo":{"center":{"lat":22.1726708,"lng":105.3131185},"min":{"lat":22.1726708,"lng":105.3131185},"max":{"lat":22.1726708,"lng":105.3131185}}},{"code":"09","country_code":"VN","state_code":"","name":"Lang Son","geo":{"center":{"lat":21.8563705,"lng":106.6291304},"min":{"lat":21.8563705,"lng":106.6291304},"max":{"lat":21.8563705,"lng":106.6291304}}},{"code":13,"country_code":"VN","state_code":"","name":"Quang Ninh","geo":{"center":{"lat":21.006382,"lng":107.2925144},"min":{"lat":21.006382,"lng":107.2925144},"max":{"lat":21.006382,"lng":107.2925144}}},{"code":14,"country_code":"VN","state_code":"","name":"Hoa Binh","geo":{"center":{"lat":20.6861265,"lng":105.3131185},"min":{"lat":20.6861265,"lng":105.3131185},"max":{"lat":20.6861265,"lng":105.3131185}}},{"code":15,"country_code":"VN","state_code":"","name":"Ha Tay","geo":{"center":{"lat":14.2959702,"lng":108.1191501},"min":{"lat":14.2959702,"lng":108.1191501},"max":{"lat":14.2959702,"lng":108.1191501}}},{"code":18,"country_code":"VN","state_code":"","name":"Ninh Binh","geo":{"center":{"lat":20.2129969,"lng":105.92299},"min":{"lat":20.2129969,"lng":105.92299},"max":{"lat":20.2129969,"lng":105.92299}}},{"code":20,"country_code":"VN","state_code":"","name":"Thai Binh","geo":{"center":{"lat":20.4463471,"lng":106.3365828},"min":{"lat":20.4463471,"lng":106.3365828},"max":{"lat":20.4463471,"lng":106.3365828}}},{"code":21,"country_code":"VN","state_code":"","name":"Thanh Hoa","geo":{"center":{"lat":20.1291279,"lng":105.3131185},"min":{"lat":20.1291279,"lng":105.3131185},"max":{"lat":20.1291279,"lng":105.3131185}}},{"code":22,"country_code":"VN","state_code":"","name":"Nghe An","geo":{"center":{"lat":19.2342489,"lng":104.9200365},"min":{"lat":19.2342489,"lng":104.9200365},"max":{"lat":19.2342489,"lng":104.9200365}}},{"code":23,"country_code":"VN","state_code":"","name":"Ha Tinh","geo":{"center":{"lat":18.2943776,"lng":105.6745247},"min":{"lat":18.2943776,"lng":105.6745247},"max":{"lat":18.2943776,"lng":105.6745247}}},{"code":24,"country_code":"VN","state_code":"","name":"Quang Binh","geo":{"center":{"lat":17.6102715,"lng":106.3487474},"min":{"lat":17.6102715,"lng":106.3487474},"max":{"lat":17.6102715,"lng":106.3487474}}},{"code":25,"country_code":"VN","state_code":"","name":"Quang Tri","geo":{"center":{"lat":16.7943472,"lng":106.963409},"min":{"lat":16.7943472,"lng":106.963409},"max":{"lat":16.7943472,"lng":106.963409}}},{"code":26,"country_code":"VN","state_code":"","name":"Thua Thien-Hue","geo":{"center":{"lat":16.467397,"lng":107.5905326},"min":{"lat":16.467397,"lng":107.5905326},"max":{"lat":16.467397,"lng":107.5905326}}},{"code":27,"country_code":"VN","state_code":"","name":"Quang Nam","geo":{"center":{"lat":15.5393538,"lng":108.019102},"min":{"lat":15.5393538,"lng":108.019102},"max":{"lat":15.5393538,"lng":108.019102}}},{"code":28,"country_code":"VN","state_code":"","name":"Kon Tum","geo":{"center":{"lat":14.3497403,"lng":108.0004606},"min":{"lat":14.3497403,"lng":108.0004606},"max":{"lat":14.3497403,"lng":108.0004606}}},{"code":29,"country_code":"VN","state_code":"","name":"Quang Ngai","geo":{"center":{"lat":15.1213873,"lng":108.8044145},"min":{"lat":15.1213873,"lng":108.8044145},"max":{"lat":15.1213873,"lng":108.8044145}}},{"code":30,"country_code":"VN","state_code":"","name":"Gia Lai","geo":{"center":{"lat":13.8078943,"lng":108.109375},"min":{"lat":13.8078943,"lng":108.109375},"max":{"lat":13.8078943,"lng":108.109375}}},{"code":31,"country_code":"VN","state_code":"","name":"Binh Dinh","geo":{"center":{"lat":13.7829673,"lng":109.2196634},"min":{"lat":13.7829673,"lng":109.2196634},"max":{"lat":13.7829673,"lng":109.2196634}}},{"code":32,"country_code":"VN","state_code":"","name":"Phu Yen","geo":{"center":{"lat":13.0881861,"lng":109.0928764},"min":{"lat":13.0881861,"lng":109.0928764},"max":{"lat":13.0881861,"lng":109.0928764}}},{"code":33,"country_code":"VN","state_code":"","name":"Dac Lac","geo":{"center":{"lat":12.7100116,"lng":108.2377519},"min":{"lat":12.7100116,"lng":108.2377519},"max":{"lat":12.7100116,"lng":108.2377519}}},{"code":34,"country_code":"VN","state_code":"","name":"Khanh Hoa","geo":{"center":{"lat":12.2585098,"lng":109.0526076},"min":{"lat":12.2585098,"lng":109.0526076},"max":{"lat":12.2585098,"lng":109.0526076}}},{"code":35,"country_code":"VN","state_code":"","name":"Lam Dong","geo":{"center":{"lat":11.9404192,"lng":108.4583132},"min":{"lat":11.9404192,"lng":108.4583132},"max":{"lat":11.9404192,"lng":108.4583132}}},{"code":36,"country_code":"VN","state_code":"","name":"Ninh Thuan","geo":{"center":{"lat":11.6738767,"lng":108.8629572},"min":{"lat":11.6738767,"lng":108.8629572},"max":{"lat":11.6738767,"lng":108.8629572}}},{"code":37,"country_code":"VN","state_code":"","name":"Tay Ninh","geo":{"center":{"lat":11.3675415,"lng":106.1192802},"min":{"lat":11.3675415,"lng":106.1192802},"max":{"lat":11.3675415,"lng":106.1192802}}},{"code":39,"country_code":"VN","state_code":"","name":"Dong Nai","geo":{"center":{"lat":11.0686305,"lng":107.1675976},"min":{"lat":11.0686305,"lng":107.1675976},"max":{"lat":11.0686305,"lng":107.1675976}}},{"code":40,"country_code":"VN","state_code":"","name":"Binh Thuan","geo":{"center":{"lat":10.933333,"lng":108.1},"min":{"lat":10.933333,"lng":108.1},"max":{"lat":10.933333,"lng":108.1}}},{"code":41,"country_code":"VN","state_code":"","name":"Long An","geo":{"center":{"lat":10.5330098,"lng":106.4052541},"min":{"lat":10.5330098,"lng":106.4052541},"max":{"lat":10.5330098,"lng":106.4052541}}},{"code":43,"country_code":"VN","state_code":"","name":"Ba Ria - Vung Tau","geo":{"center":{"lat":10.5417397,"lng":107.2429976},"min":{"lat":10.5417397,"lng":107.2429976},"max":{"lat":10.5417397,"lng":107.2429976}}},{"code":44,"country_code":"VN","state_code":"","name":"An Giang","geo":{"center":{"lat":10.5215836,"lng":105.1258955},"min":{"lat":10.5215836,"lng":105.1258955},"max":{"lat":10.5215836,"lng":105.1258955}}},{"code":45,"country_code":"VN","state_code":"","name":"Dong Thap","geo":{"center":{"lat":10.4937989,"lng":105.6881788},"min":{"lat":10.4937989,"lng":105.6881788},"max":{"lat":10.4937989,"lng":105.6881788}}},{"code":46,"country_code":"VN","state_code":"","name":"Tien Giang","geo":{"center":{"lat":10.4493324,"lng":106.3420504},"min":{"lat":10.4493324,"lng":106.3420504},"max":{"lat":10.4493324,"lng":106.3420504}}},{"code":47,"country_code":"VN","state_code":"","name":"Kien Giang","geo":{"center":{"lat":9.8249587,"lng":105.1258955},"min":{"lat":9.8249587,"lng":105.1258955},"max":{"lat":9.8249587,"lng":105.1258955}}},{"code":48,"country_code":"VN","state_code":"","name":"Can Tho","geo":{"center":{"lat":10.0451618,"lng":105.7468535},"min":{"lat":10.0451618,"lng":105.7468535},"max":{"lat":10.0451618,"lng":105.7468535}}},{"code":49,"country_code":"VN","state_code":"","name":"Vinh Long","geo":{"center":{"lat":10.2448442,"lng":105.958865},"min":{"lat":10.2448442,"lng":105.958865},"max":{"lat":10.2448442,"lng":105.958865}}},{"code":50,"country_code":"VN","state_code":"","name":"Ben Tre","geo":{"center":{"lat":10.1081553,"lng":106.4405872},"min":{"lat":10.1081553,"lng":106.4405872},"max":{"lat":10.1081553,"lng":106.4405872}}},{"code":51,"country_code":"VN","state_code":"","name":"Tra Vinh","geo":{"center":{"lat":9.933333,"lng":106.35},"min":{"lat":9.933333,"lng":106.35},"max":{"lat":9.933333,"lng":106.35}}},{"code":52,"country_code":"VN","state_code":"","name":"Soc Trang","geo":{"center":{"lat":9.6003688,"lng":105.9599539},"min":{"lat":9.6003688,"lng":105.9599539},"max":{"lat":9.6003688,"lng":105.9599539}}},{"code":53,"country_code":"VN","state_code":"","name":"Bac Can","geo":{"center":{"lat":22.1329032,"lng":105.8407722},"min":{"lat":22.1329032,"lng":105.8407722},"max":{"lat":22.1329032,"lng":105.8407722}}},{"code":54,"country_code":"VN","state_code":"","name":"Bac Giang","geo":{"center":{"lat":21.3014947,"lng":106.6291304},"min":{"lat":21.3014947,"lng":106.6291304},"max":{"lat":21.3014947,"lng":106.6291304}}},{"code":55,"country_code":"VN","state_code":"","name":"Bac Lieu","geo":{"center":{"lat":9.2515555,"lng":105.5136472},"min":{"lat":9.2515555,"lng":105.5136472},"max":{"lat":9.2515555,"lng":105.5136472}}},{"code":56,"country_code":"VN","state_code":"","name":"Bac Ninh","geo":{"center":{"lat":21.121444,"lng":106.1110501},"min":{"lat":21.121444,"lng":106.1110501},"max":{"lat":21.121444,"lng":106.1110501}}},{"code":57,"country_code":"VN","state_code":"","name":"Binh Duong","geo":{"center":{"lat":11.3254024,"lng":106.477017},"min":{"lat":11.3254024,"lng":106.477017},"max":{"lat":11.3254024,"lng":106.477017}}},{"code":58,"country_code":"VN","state_code":"","name":"Binh Phuoc","geo":{"center":{"lat":11.7511894,"lng":106.7234639},"min":{"lat":11.7511894,"lng":106.7234639},"max":{"lat":11.7511894,"lng":106.7234639}}},{"code":59,"country_code":"VN","state_code":"","name":"Ca Mau","geo":{"center":{"lat":8.9624099,"lng":105.1258955},"min":{"lat":8.9624099,"lng":105.1258955},"max":{"lat":8.9624099,"lng":105.1258955}}},{"code":60,"country_code":"VN","state_code":"","name":"Da Nang, thanh pho","geo":{"center":{"lat":16.0544068,"lng":108.2021667},"min":{"lat":16.0544068,"lng":108.2021667},"max":{"lat":16.0544068,"lng":108.2021667}}},{"code":61,"country_code":"VN","state_code":"","name":"Hai Duong","geo":{"center":{"lat":20.9385958,"lng":106.3206861},"min":{"lat":20.9385958,"lng":106.3206861},"max":{"lat":20.9385958,"lng":106.3206861}}},{"code":62,"country_code":"VN","state_code":"","name":"Hai Phong, thanh pho","geo":{"center":{"lat":20.8449115,"lng":106.6880841},"min":{"lat":20.8449115,"lng":106.6880841},"max":{"lat":20.8449115,"lng":106.6880841}}},{"code":63,"country_code":"VN","state_code":"","name":"Ha Nam","geo":{"center":{"lat":20.5835196,"lng":105.92299},"min":{"lat":20.5835196,"lng":105.92299},"max":{"lat":20.5835196,"lng":105.92299}}},{"code":64,"country_code":"VN","state_code":"","name":"Ha Noi, thu do","geo":{"center":{"lat":21.0277644,"lng":105.8341598},"min":{"lat":21.0277644,"lng":105.8341598},"max":{"lat":21.0277644,"lng":105.8341598}}},{"code":65,"country_code":"VN","state_code":"","name":"Ho Chi Minh, thanh pho [Sai Gon]","geo":{"center":{"lat":10.8230989,"lng":106.6296638},"min":{"lat":10.8230989,"lng":106.6296638},"max":{"lat":10.8230989,"lng":106.6296638}}},{"code":66,"country_code":"VN","state_code":"","name":"Hung Yen","geo":{"center":{"lat":20.8525711,"lng":106.0169971},"min":{"lat":20.8525711,"lng":106.0169971},"max":{"lat":20.8525711,"lng":106.0169971}}},{"code":67,"country_code":"VN","state_code":"","name":"Nam Dinh","geo":{"center":{"lat":20.2791804,"lng":106.2051484},"min":{"lat":20.2791804,"lng":106.2051484},"max":{"lat":20.2791804,"lng":106.2051484}}},{"code":68,"country_code":"VN","state_code":"","name":"Phu Tho","geo":{"center":{"lat":21.268443,"lng":105.2045573},"min":{"lat":21.268443,"lng":105.2045573},"max":{"lat":21.268443,"lng":105.2045573}}},{"code":69,"country_code":"VN","state_code":"","name":"Thai Nguyen","geo":{"center":{"lat":21.5613771,"lng":105.876004},"min":{"lat":21.5613771,"lng":105.876004},"max":{"lat":21.5613771,"lng":105.876004}}},{"code":70,"country_code":"VN","state_code":"","name":"Vinh Phuc","geo":{"center":{"lat":21.3608805,"lng":105.5474373},"min":{"lat":21.3608805,"lng":105.5474373},"max":{"lat":21.3608805,"lng":105.5474373}}},{"code":71,"country_code":"VN","state_code":"","name":"Dien Bien","geo":{"center":{"lat":21.8042309,"lng":103.1076525},"min":{"lat":21.8042309,"lng":103.1076525},"max":{"lat":21.8042309,"lng":103.1076525}}},{"code":72,"country_code":"VN","state_code":"","name":"Dak Nong","geo":{"center":{"lat":12.2646476,"lng":107.609806},"min":{"lat":12.2646476,"lng":107.609806},"max":{"lat":12.2646476,"lng":107.609806}}},{"code":73,"country_code":"VN","state_code":"","name":"Hau Giang","geo":{"center":{"lat":9.757898,"lng":105.6412527},"min":{"lat":9.757898,"lng":105.6412527},"max":{"lat":9.757898,"lng":105.6412527}}}]