[{"code":"EC","country_code":"ZA","state_code":"","name":"Eastern Cape","geo":{"center":{"lat":-32.2968402,"lng":26.419389},"min":{"lat":-32.2968402,"lng":26.419389},"max":{"lat":-32.2968402,"lng":26.419389}}},{"code":"FS","country_code":"ZA","state_code":"","name":"Free State","geo":{"center":{"lat":-28.4541105,"lng":26.7967849},"min":{"lat":-28.4541105,"lng":26.7967849},"max":{"lat":-28.4541105,"lng":26.7967849}}},{"code":"GT","country_code":"ZA","state_code":"","name":"Gauteng","geo":{"center":{"lat":-26.2707593,"lng":28.1122679},"min":{"lat":-26.2707593,"lng":28.1122679},"max":{"lat":-26.2707593,"lng":28.1122679}}},{"code":"LP","country_code":"ZA","state_code":"","name":"Limpopo","geo":{"center":{"lat":-23.4012946,"lng":29.4179324},"min":{"lat":-23.4012946,"lng":29.4179324},"max":{"lat":-23.4012946,"lng":29.4179324}}},{"code":"MP","country_code":"ZA","state_code":"","name":"Mpumalanga","geo":{"center":{"lat":-29.817,"lng":30.637},"min":{"lat":-29.817,"lng":30.637},"max":{"lat":-29.817,"lng":30.637}}},{"code":"NC","country_code":"ZA","state_code":"","name":"Northern Cape","geo":{"center":{"lat":-29.0466808,"lng":21.8568586},"min":{"lat":-29.0466808,"lng":21.8568586},"max":{"lat":-29.0466808,"lng":21.8568586}}},{"code":"NL","country_code":"ZA","state_code":"","name":"Kwazulu-Natal","geo":{"center":{"lat":-28.5305539,"lng":30.8958242},"min":{"lat":-28.5305539,"lng":30.8958242},"max":{"lat":-28.5305539,"lng":30.8958242}}},{"code":"NW","country_code":"ZA","state_code":"","name":"North-West","geo":{"center":{"lat":-26.6638599,"lng":25.2837585},"min":{"lat":-26.6638599,"lng":25.2837585},"max":{"lat":-26.6638599,"lng":25.2837585}}},{"code":"WC","country_code":"ZA","state_code":"","name":"Western Cape","geo":{"center":{"lat":-33.2277918,"lng":21.8568586},"min":{"lat":-33.2277918,"lng":21.8568586},"max":{"lat":-33.2277918,"lng":21.8568586}}}]