[{"code":"01","country_code":"ZM","state_code":"","name":"Western","geo":{"center":{"lat":-15.9454906,"lng":23.3823545},"min":{"lat":-15.9454906,"lng":23.3823545},"max":{"lat":-15.9454906,"lng":23.3823545}}},{"code":"02","country_code":"ZM","state_code":"","name":"Central","geo":{"center":{"lat":-14.3112263,"lng":28.299435},"min":{"lat":-14.3112263,"lng":28.299435},"max":{"lat":-14.3112263,"lng":28.299435}}},{"code":"03","country_code":"ZM","state_code":"","name":"Eastern","geo":{"center":{"lat":-13.8056187,"lng":31.9928078},"min":{"lat":-13.8056187,"lng":31.9928078},"max":{"lat":-13.8056187,"lng":31.9928078}}},{"code":"04","country_code":"ZM","state_code":"","name":"Luapula","geo":{"center":{"lat":-11.564831,"lng":29.0459927},"min":{"lat":-11.564831,"lng":29.0459927},"max":{"lat":-11.564831,"lng":29.0459927}}},{"code":"05","country_code":"ZM","state_code":"","name":"Northern","geo":{"center":{"lat":-9.7670177,"lng":30.8958242},"min":{"lat":-9.7670177,"lng":30.8958242},"max":{"lat":-9.7670177,"lng":30.8958242}}},{"code":"06","country_code":"ZM","state_code":"","name":"North-Western","geo":{"center":{"lat":-13.0050258,"lng":24.9042208},"min":{"lat":-13.0050258,"lng":24.9042208},"max":{"lat":-13.0050258,"lng":24.9042208}}},{"code":"07","country_code":"ZM","state_code":"","name":"Southern","geo":{"center":{"lat":-16.9620634,"lng":26.419389},"min":{"lat":-16.9620634,"lng":26.419389},"max":{"lat":-16.9620634,"lng":26.419389}}},{"code":"08","country_code":"ZM","state_code":"","name":"Copperbelt","geo":{"center":{"lat":-13.0570073,"lng":27.5495846},"min":{"lat":-13.0570073,"lng":27.5495846},"max":{"lat":-13.0570073,"lng":27.5495846}}},{"code":"09","country_code":"ZM","state_code":"","name":"Lusaka","geo":{"center":{"lat":-15.416667,"lng":28.283333},"min":{"lat":-15.416667,"lng":28.283333},"max":{"lat":-15.416667,"lng":28.283333}}}]